관광지명,주소,주소_시,장소 카테고리,대분류,중분류,소분류,총 방문자수,기준월,월별 방문자수,월요일방문자수,화요일방문자수,수요일방문자수,목요일방문자수,금요일방문자수,토요일방문자수,일요일방문자수,정보,위도,경도
갈중이,제주특별자치도 서귀포시 사계남로216번길 24-61 갈중이 ,서귀포시,관광지,인문(문화/예술/역사),체험관광지,전통체험,500.0,5.0,55.0,10.0,8.0,10.0,8.0,8.0,7.0,4.0,"'갈중이'은/는 제주특별자치도 서귀포시 사계남로216번길 24-61 갈중이 에 위치한 관광지로, 관광지에 속하며, 대분류: 인문(문화/예술/역사), 중분류: 체험관광지, 소분류: 전통체험입니다. 해당 관광지는 기준월(5.0) 동안 총 500.0명의 방문자를 기록했습니다. 8월 한 달 동안 55.0명이 방문했습니다. 요일별 방문자수는 월요일 10.0명, 화요일 8.0명, 수요일 10.0명, 목요일 8.0명, 금요일 8.0명, 토요일 7.0명, 일요일 4.0명입니다.",33.2350546,126.3136741
감수굴밭담길,제주특별자치도 제주시 구좌읍 평대7길 34 ,제주시,관광지,인문(문화/예술/역사),체험관광지,농.산.어촌 체험,551.0,5.0,64.0,12.0,12.0,10.0,11.0,4.0,6.0,9.0,"'감수굴밭담길'은/는 제주특별자치도 제주시 구좌읍 평대7길 34 에 위치한 관광지로, 관광지에 속하며, 대분류: 인문(문화/예술/역사), 중분류: 체험관광지, 소분류: 농.산.어촌 체험입니다. 해당 관광지는 기준월(5.0) 동안 총 551.0명의 방문자를 기록했습니다. 8월 한 달 동안 64.0명이 방문했습니다. 요일별 방문자수는 월요일 12.0명, 화요일 12.0명, 수요일 10.0명, 목요일 11.0명, 금요일 4.0명, 토요일 6.0명, 일요일 9.0명입니다.",33.5310269077995,126.843267842652
고산일과해안도로,제주특별자치도 서귀포시 대정읍 신도리 3135-1 ,서귀포시,관광지,자연,자연관광지,자연생태관광지,542.0,5.0,71.0,17.0,10.0,14.0,7.0,8.0,10.0,5.0,"'고산일과해안도로'은/는 제주특별자치도 서귀포시 대정읍 신도리 3135-1 에 위치한 관광지로, 관광지에 속하며, 대분류: 자연, 중분류: 자연관광지, 소분류: 자연생태관광지입니다. 해당 관광지는 기준월(5.0) 동안 총 542.0명의 방문자를 기록했습니다. 8월 한 달 동안 71.0명이 방문했습니다. 요일별 방문자수는 월요일 17.0명, 화요일 10.0명, 수요일 14.0명, 목요일 7.0명, 금요일 8.0명, 토요일 10.0명, 일요일 5.0명입니다.",33.2575958,126.214254
금능포구,제주특별자치도 제주시 한림읍 금능리 ,제주시,관광지,인문(문화/예술/역사),체험관광지,농.산.어촌 체험,457.0,5.0,59.0,10.0,7.0,14.0,7.0,7.0,3.0,11.0,"'금능포구'은/는 제주특별자치도 제주시 한림읍 금능리 에 위치한 관광지로, 관광지에 속하며, 대분류: 인문(문화/예술/역사), 중분류: 체험관광지, 소분류: 농.산.어촌 체험입니다. 해당 관광지는 기준월(5.0) 동안 총 457.0명의 방문자를 기록했습니다. 8월 한 달 동안 59.0명이 방문했습니다. 요일별 방문자수는 월요일 10.0명, 화요일 7.0명, 수요일 14.0명, 목요일 7.0명, 금요일 7.0명, 토요일 3.0명, 일요일 11.0명입니다.",33.3700283,126.2392054
김경숙해바라기농장,제주특별자치도 제주시 번영로 854-1 (회천동) ,제주시,관광지,자연,자연관광지,자연생태관광지,4832.0,5.0,513.0,91.0,91.0,94.0,77.0,53.0,46.0,61.0,"'김경숙해바라기농장'은/는 제주특별자치도 제주시 번영로 854-1 (회천동) 에 위치한 관광지로, 관광지에 속하며, 대분류: 자연, 중분류: 자연관광지, 소분류: 자연생태관광지입니다. 해당 관광지는 기준월(5.0) 동안 총 4832.0명의 방문자를 기록했습니다. 8월 한 달 동안 513.0명이 방문했습니다. 요일별 방문자수는 월요일 91.0명, 화요일 91.0명, 수요일 94.0명, 목요일 77.0명, 금요일 53.0명, 토요일 46.0명, 일요일 61.0명입니다.",33.477406,126.62762
김녕사굴,제주특별자치도 제주시 구좌읍 덕평로 392-1 ,제주시,관광지,자연,자연관광지,동굴,2982.0,5.0,286.0,52.0,51.0,42.0,54.0,29.0,28.0,30.0,"'김녕사굴'은/는 제주특별자치도 제주시 구좌읍 덕평로 392-1 에 위치한 관광지로, 관광지에 속하며, 대분류: 자연, 중분류: 자연관광지, 소분류: 동굴입니다. 해당 관광지는 기준월(5.0) 동안 총 2982.0명의 방문자를 기록했습니다. 8월 한 달 동안 286.0명이 방문했습니다. 요일별 방문자수는 월요일 52.0명, 화요일 51.0명, 수요일 42.0명, 목요일 54.0명, 금요일 29.0명, 토요일 28.0명, 일요일 30.0명입니다.",33.5010103,126.7736187
노리매공원,제주특별자치도 서귀포시 대정읍 중산간서로 2260-15 ,서귀포시,관광지,인문(문화/예술/역사),휴양관광지,공원,3274.0,5.0,229.0,39.0,50.0,27.0,36.0,28.0,22.0,27.0,"'노리매공원'은/는 제주특별자치도 서귀포시 대정읍 중산간서로 2260-15 에 위치한 관광지로, 관광지에 속하며, 대분류: 인문(문화/예술/역사), 중분류: 휴양관광지, 소분류: 공원입니다. 해당 관광지는 기준월(5.0) 동안 총 3274.0명의 방문자를 기록했습니다. 8월 한 달 동안 229.0명이 방문했습니다. 요일별 방문자수는 월요일 39.0명, 화요일 50.0명, 수요일 27.0명, 목요일 36.0명, 금요일 28.0명, 토요일 22.0명, 일요일 27.0명입니다.",33.2831505,126.2873239
노을해안로,제주특별자치도 서귀포시 대정읍 영락리 ,서귀포시,관광지,자연,자연관광지,자연생태관광지,1349.0,5.0,165.0,29.0,26.0,25.0,19.0,27.0,13.0,26.0,"'노을해안로'은/는 제주특별자치도 서귀포시 대정읍 영락리 에 위치한 관광지로, 관광지에 속하며, 대분류: 자연, 중분류: 자연관광지, 소분류: 자연생태관광지입니다. 해당 관광지는 기준월(5.0) 동안 총 1349.0명의 방문자를 기록했습니다. 8월 한 달 동안 165.0명이 방문했습니다. 요일별 방문자수는 월요일 29.0명, 화요일 26.0명, 수요일 25.0명, 목요일 19.0명, 금요일 27.0명, 토요일 13.0명, 일요일 26.0명입니다.",33.2425714,126.2243799
누웨마루거리,제주특별자치도 제주시 신광로 47 (연동) ,제주시,관광지,인문(문화/예술/역사),체험관광지,이색거리,2082.0,5.0,193.0,34.0,32.0,34.0,22.0,29.0,22.0,20.0,"'누웨마루거리'은/는 제주특별자치도 제주시 신광로 47 (연동) 에 위치한 관광지로, 관광지에 속하며, 대분류: 인문(문화/예술/역사), 중분류: 체험관광지, 소분류: 이색거리입니다. 해당 관광지는 기준월(5.0) 동안 총 2082.0명의 방문자를 기록했습니다. 8월 한 달 동안 193.0명이 방문했습니다. 요일별 방문자수는 월요일 34.0명, 화요일 32.0명, 수요일 34.0명, 목요일 22.0명, 금요일 29.0명, 토요일 22.0명, 일요일 20.0명입니다.",33.4877543819398,126.490293916618
다이나믹메이즈,제주특별자치도 서귀포시 표선면 번영로 2644 ,서귀포시,관광지,인문(문화/예술/역사),휴양관광지,테마공원,7386.0,5.0,578.0,108.0,88.0,86.0,75.0,85.0,68.0,68.0,"'다이나믹메이즈'은/는 제주특별자치도 서귀포시 표선면 번영로 2644 에 위치한 관광지로, 관광지에 속하며, 대분류: 인문(문화/예술/역사), 중분류: 휴양관광지, 소분류: 테마공원입니다. 해당 관광지는 기준월(5.0) 동안 총 7386.0명의 방문자를 기록했습니다. 8월 한 달 동안 578.0명이 방문했습니다. 요일별 방문자수는 월요일 108.0명, 화요일 88.0명, 수요일 86.0명, 목요일 75.0명, 금요일 85.0명, 토요일 68.0명, 일요일 68.0명입니다.",33.3991423,126.7851051
닭머르해안길,제주특별자치도 제주시 조천읍 신촌북3길 62-1 ,제주시,관광지,자연,자연관광지,자연생태관광지,12241.0,5.0,859.0,170.0,153.0,128.0,97.0,89.0,101.0,121.0,"'닭머르해안길'은/는 제주특별자치도 제주시 조천읍 신촌북3길 62-1 에 위치한 관광지로, 관광지에 속하며, 대분류: 자연, 중분류: 자연관광지, 소분류: 자연생태관광지입니다. 해당 관광지는 기준월(5.0) 동안 총 12241.0명의 방문자를 기록했습니다. 8월 한 달 동안 859.0명이 방문했습니다. 요일별 방문자수는 월요일 170.0명, 화요일 153.0명, 수요일 128.0명, 목요일 97.0명, 금요일 89.0명, 토요일 101.0명, 일요일 121.0명입니다.",33.5378704,126.6132214
답다니탑망대,제주특별자치도 제주시 우도면 우도해안길 602 ,제주시,관광지,인문(문화/예술/역사),건축/조형물,유명건물,713.0,5.0,99.0,20.0,16.0,17.0,10.0,9.0,11.0,16.0,"'답다니탑망대'은/는 제주특별자치도 제주시 우도면 우도해안길 602 에 위치한 관광지로, 관광지에 속하며, 대분류: 인문(문화/예술/역사), 중분류: 건축/조형물, 소분류: 유명건물입니다. 해당 관광지는 기준월(5.0) 동안 총 713.0명의 방문자를 기록했습니다. 8월 한 달 동안 99.0명이 방문했습니다. 요일별 방문자수는 월요일 20.0명, 화요일 16.0명, 수요일 17.0명, 목요일 10.0명, 금요일 9.0명, 토요일 11.0명, 일요일 16.0명입니다.",33.524420713702,126.952546624477
대정향교,제주특별자치도 서귀포시 안덕면 향교로 165-17 ,서귀포시,관광지,인문(문화/예술/역사),역사관광지,유적지/사적지,1020.0,5.0,128.0,22.0,17.0,24.0,16.0,18.0,14.0,17.0,"'대정향교'은/는 제주특별자치도 서귀포시 안덕면 향교로 165-17 에 위치한 관광지로, 관광지에 속하며, 대분류: 인문(문화/예술/역사), 중분류: 역사관광지, 소분류: 유적지/사적지입니다. 해당 관광지는 기준월(5.0) 동안 총 1020.0명의 방문자를 기록했습니다. 8월 한 달 동안 128.0명이 방문했습니다. 요일별 방문자수는 월요일 22.0명, 화요일 17.0명, 수요일 24.0명, 목요일 16.0명, 금요일 18.0명, 토요일 14.0명, 일요일 17.0명입니다.",33.2394319,126.2883184
더마파크,제주특별자치도 제주시 한림읍 월림7길 155 ,제주시,관광지,인문(문화/예술/역사),휴양관광지,테마공원,3972.0,5.0,400.0,71.0,78.0,74.0,59.0,49.0,28.0,41.0,"'더마파크'은/는 제주특별자치도 제주시 한림읍 월림7길 155 에 위치한 관광지로, 관광지에 속하며, 대분류: 인문(문화/예술/역사), 중분류: 휴양관광지, 소분류: 테마공원입니다. 해당 관광지는 기준월(5.0) 동안 총 3972.0명의 방문자를 기록했습니다. 8월 한 달 동안 400.0명이 방문했습니다. 요일별 방문자수는 월요일 71.0명, 화요일 78.0명, 수요일 74.0명, 목요일 59.0명, 금요일 49.0명, 토요일 28.0명, 일요일 41.0명입니다.",33.3508962,126.2482536
도치돌알파카목장,제주특별자치도 제주시 애월읍 도치돌길 293 ,제주시,관광지,인문(문화/예술/역사),체험관광지,농.산.어촌 체험,1675.0,5.0,155.0,34.0,31.0,23.0,12.0,15.0,20.0,20.0,"'도치돌알파카목장'은/는 제주특별자치도 제주시 애월읍 도치돌길 293 에 위치한 관광지로, 관광지에 속하며, 대분류: 인문(문화/예술/역사), 중분류: 체험관광지, 소분류: 농.산.어촌 체험입니다. 해당 관광지는 기준월(5.0) 동안 총 1675.0명의 방문자를 기록했습니다. 8월 한 달 동안 155.0명이 방문했습니다. 요일별 방문자수는 월요일 34.0명, 화요일 31.0명, 수요일 23.0명, 목요일 12.0명, 금요일 15.0명, 토요일 20.0명, 일요일 20.0명입니다.",33.4099506881118,126.36573023443
돈내코,제주특별자치도 서귀포시 돈내코로 137 ,서귀포시,관광지,자연,자연관광지,계곡,6251.0,5.0,341.0,71.0,67.0,59.0,38.0,35.0,39.0,32.0,"'돈내코'은/는 제주특별자치도 서귀포시 돈내코로 137 에 위치한 관광지로, 관광지에 속하며, 대분류: 자연, 중분류: 자연관광지, 소분류: 계곡입니다. 해당 관광지는 기준월(5.0) 동안 총 6251.0명의 방문자를 기록했습니다. 8월 한 달 동안 341.0명이 방문했습니다. 요일별 방문자수는 월요일 71.0명, 화요일 67.0명, 수요일 59.0명, 목요일 38.0명, 금요일 35.0명, 토요일 39.0명, 일요일 32.0명입니다.",33.3510774,126.620716
돈내코힐리조트,제주특별자치도 서귀포시 돈내코로 180 (상효동),서귀포시,숙박,숙박,숙박시설,게스트하우스,422.0,5.0,65.0,13.0,12.0,12.0,7.0,2.0,10.0,9.0,"'돈내코힐리조트'은/는 제주특별자치도 서귀포시 돈내코로 180 (상효동)에 위치한 관광지로, 숙박에 속하며, 대분류: 숙박, 중분류: 숙박시설, 소분류: 게스트하우스입니다. 해당 관광지는 기준월(5.0) 동안 총 422.0명의 방문자를 기록했습니다. 8월 한 달 동안 65.0명이 방문했습니다. 요일별 방문자수는 월요일 13.0명, 화요일 12.0명, 수요일 12.0명, 목요일 7.0명, 금요일 2.0명, 토요일 10.0명, 일요일 9.0명입니다.",33.3029060234627,126.578504215518
두맹이골목,제주특별자치도 제주시 일도이동 1006-11,제주시,관광지,인문(문화/예술/역사),체험관광지,이색거리,741.0,5.0,79.0,11.0,17.0,10.0,13.0,10.0,8.0,10.0,"'두맹이골목'은/는 제주특별자치도 제주시 일도이동 1006-11에 위치한 관광지로, 관광지에 속하며, 대분류: 인문(문화/예술/역사), 중분류: 체험관광지, 소분류: 이색거리입니다. 해당 관광지는 기준월(5.0) 동안 총 741.0명의 방문자를 기록했습니다. 8월 한 달 동안 79.0명이 방문했습니다. 요일별 방문자수는 월요일 11.0명, 화요일 17.0명, 수요일 10.0명, 목요일 13.0명, 금요일 10.0명, 토요일 8.0명, 일요일 10.0명입니다.",33.5120308,126.5349279
라온호텔앤리조트,제주특별자치도 제주시 한림읍 금능남로 127 ,제주시,관광지,인문(문화/예술/역사),휴양관광지,관광단지,619.0,5.0,91.0,17.0,12.0,11.0,12.0,11.0,7.0,21.0,"'라온호텔앤리조트'은/는 제주특별자치도 제주시 한림읍 금능남로 127 에 위치한 관광지로, 관광지에 속하며, 대분류: 인문(문화/예술/역사), 중분류: 휴양관광지, 소분류: 관광단지입니다. 해당 관광지는 기준월(5.0) 동안 총 619.0명의 방문자를 기록했습니다. 8월 한 달 동안 91.0명이 방문했습니다. 요일별 방문자수는 월요일 17.0명, 화요일 12.0명, 수요일 11.0명, 목요일 12.0명, 금요일 11.0명, 토요일 7.0명, 일요일 21.0명입니다.",33.3810152,126.2411754
마라도등대,"제주특별자치도 서귀포시 대정읍 마라로 (165, 마라도항로표지관리소) ",서귀포시,관광지,자연,자연관광지,등대,834.0,5.0,117.0,18.0,19.0,23.0,8.0,20.0,8.0,21.0,"'마라도등대'은/는 제주특별자치도 서귀포시 대정읍 마라로 (165, 마라도항로표지관리소) 에 위치한 관광지로, 관광지에 속하며, 대분류: 자연, 중분류: 자연관광지, 소분류: 등대입니다. 해당 관광지는 기준월(5.0) 동안 총 834.0명의 방문자를 기록했습니다. 8월 한 달 동안 117.0명이 방문했습니다. 요일별 방문자수는 월요일 18.0명, 화요일 19.0명, 수요일 23.0명, 목요일 8.0명, 금요일 20.0명, 토요일 8.0명, 일요일 21.0명입니다.",33.1697336,126.271453
만장굴,제주특별자치도 제주시 구좌읍 만장굴길 182 (구좌읍),제주시,관광지,자연,자연관광지,동굴,43227.0,5.0,4886.0,923.0,930.0,988.0,785.0,533.0,312.0,415.0,"'만장굴'은/는 제주특별자치도 제주시 구좌읍 만장굴길 182 (구좌읍)에 위치한 관광지로, 관광지에 속하며, 대분류: 자연, 중분류: 자연관광지, 소분류: 동굴입니다. 해당 관광지는 기준월(5.0) 동안 총 43227.0명의 방문자를 기록했습니다. 8월 한 달 동안 4886.0명이 방문했습니다. 요일별 방문자수는 월요일 923.0명, 화요일 930.0명, 수요일 988.0명, 목요일 785.0명, 금요일 533.0명, 토요일 312.0명, 일요일 415.0명입니다.",33.52819720000001,126.7717618
맥파이브루어리,제주특별자치도 제주시 동회천1길 23 (회천동),제주시,관광지,인문(문화/예술/역사),산업관광지,식음료,823.0,5.0,130.0,24.0,25.0,18.0,18.0,18.0,13.0,14.0,"'맥파이브루어리'은/는 제주특별자치도 제주시 동회천1길 23 (회천동)에 위치한 관광지로, 관광지에 속하며, 대분류: 인문(문화/예술/역사), 중분류: 산업관광지, 소분류: 식음료입니다. 해당 관광지는 기준월(5.0) 동안 총 823.0명의 방문자를 기록했습니다. 8월 한 달 동안 130.0명이 방문했습니다. 요일별 방문자수는 월요일 24.0명, 화요일 25.0명, 수요일 18.0명, 목요일 18.0명, 금요일 18.0명, 토요일 13.0명, 일요일 14.0명입니다.",33.503206117821,126.61717764321
메이즈랜드,제주특별자치도 제주시 구좌읍 비자림로 2134-47 ,제주시,관광지,인문(문화/예술/역사),휴양관광지,테마공원,8368.0,5.0,849.0,158.0,167.0,144.0,111.0,99.0,57.0,113.0,"'메이즈랜드'은/는 제주특별자치도 제주시 구좌읍 비자림로 2134-47 에 위치한 관광지로, 관광지에 속하며, 대분류: 인문(문화/예술/역사), 중분류: 휴양관광지, 소분류: 테마공원입니다. 해당 관광지는 기준월(5.0) 동안 총 8368.0명의 방문자를 기록했습니다. 8월 한 달 동안 849.0명이 방문했습니다. 요일별 방문자수는 월요일 158.0명, 화요일 167.0명, 수요일 144.0명, 목요일 111.0명, 금요일 99.0명, 토요일 57.0명, 일요일 113.0명입니다.",33.4743111,126.7771579
무수천,제주특별자치도 제주시 애월읍 무수천길 (애월읍) 일대,제주시,관광지,자연,자연관광지,계곡,814.0,5.0,152.0,16.0,15.0,13.0,10.0,23.0,59.0,16.0,"'무수천'은/는 제주특별자치도 제주시 애월읍 무수천길 (애월읍) 일대에 위치한 관광지로, 관광지에 속하며, 대분류: 자연, 중분류: 자연관광지, 소분류: 계곡입니다. 해당 관광지는 기준월(5.0) 동안 총 814.0명의 방문자를 기록했습니다. 8월 한 달 동안 152.0명이 방문했습니다. 요일별 방문자수는 월요일 16.0명, 화요일 15.0명, 수요일 13.0명, 목요일 10.0명, 금요일 23.0명, 토요일 59.0명, 일요일 16.0명입니다.",33.4633826,126.4445845
물뫼힐링팜,제주특별자치도 제주시 애월읍 예원로 51 ,제주시,관광지,인문(문화/예술/역사),체험관광지,이색체험,987.0,5.0,106.0,11.0,32.0,17.0,21.0,10.0,9.0,6.0,"'물뫼힐링팜'은/는 제주특별자치도 제주시 애월읍 예원로 51 에 위치한 관광지로, 관광지에 속하며, 대분류: 인문(문화/예술/역사), 중분류: 체험관광지, 소분류: 이색체험입니다. 해당 관광지는 기준월(5.0) 동안 총 987.0명의 방문자를 기록했습니다. 8월 한 달 동안 106.0명이 방문했습니다. 요일별 방문자수는 월요일 11.0명, 화요일 32.0명, 수요일 17.0명, 목요일 21.0명, 금요일 10.0명, 토요일 9.0명, 일요일 6.0명입니다.",33.4642593,126.3965364
미천굴,제주특별자치도 서귀포시 성산읍 중산간동로 4150-30 ,서귀포시,관광지,자연,자연관광지,동굴,1936.0,5.0,206.0,37.0,27.0,33.0,35.0,25.0,20.0,29.0,"'미천굴'은/는 제주특별자치도 서귀포시 성산읍 중산간동로 4150-30 에 위치한 관광지로, 관광지에 속하며, 대분류: 자연, 중분류: 자연관광지, 소분류: 동굴입니다. 해당 관광지는 기준월(5.0) 동안 총 1936.0명의 방문자를 기록했습니다. 8월 한 달 동안 206.0명이 방문했습니다. 요일별 방문자수는 월요일 37.0명, 화요일 27.0명, 수요일 33.0명, 목요일 35.0명, 금요일 25.0명, 토요일 20.0명, 일요일 29.0명입니다.",33.3831862,126.8418892
바다해호텔,제주특별자치도 서귀포시 천지연로 3-1 (서귀동),서귀포시,숙박,숙박,숙박시설,게스트하우스,552.0,5.0,66.0,3.0,12.0,10.0,10.0,13.0,11.0,7.0,"'바다해호텔'은/는 제주특별자치도 서귀포시 천지연로 3-1 (서귀동)에 위치한 관광지로, 숙박에 속하며, 대분류: 숙박, 중분류: 숙박시설, 소분류: 게스트하우스입니다. 해당 관광지는 기준월(5.0) 동안 총 552.0명의 방문자를 기록했습니다. 8월 한 달 동안 66.0명이 방문했습니다. 요일별 방문자수는 월요일 3.0명, 화요일 12.0명, 수요일 10.0명, 목요일 10.0명, 금요일 13.0명, 토요일 11.0명, 일요일 7.0명입니다.",33.2414444,126.565685
발자국화석공원,제주특별자치도 서귀포시 대정읍 형제해안로 192 ,서귀포시,관광지,자연,관광자원,기암괴석,1281.0,5.0,126.0,18.0,21.0,27.0,15.0,20.0,8.0,17.0,"'발자국화석공원'은/는 제주특별자치도 서귀포시 대정읍 형제해안로 192 에 위치한 관광지로, 관광지에 속하며, 대분류: 자연, 중분류: 관광자원, 소분류: 기암괴석입니다. 해당 관광지는 기준월(5.0) 동안 총 1281.0명의 방문자를 기록했습니다. 8월 한 달 동안 126.0명이 방문했습니다. 요일별 방문자수는 월요일 18.0명, 화요일 21.0명, 수요일 27.0명, 목요일 15.0명, 금요일 20.0명, 토요일 8.0명, 일요일 17.0명입니다.",33.2173222,126.2930456
방선문,제주특별자치도 제주시 오라이동 39-1,제주시,관광지,자연,자연관광지,계곡,623.0,5.0,73.0,17.0,10.0,16.0,9.0,6.0,5.0,10.0,"'방선문'은/는 제주특별자치도 제주시 오라이동 39-1에 위치한 관광지로, 관광지에 속하며, 대분류: 자연, 중분류: 자연관광지, 소분류: 계곡입니다. 해당 관광지는 기준월(5.0) 동안 총 623.0명의 방문자를 기록했습니다. 8월 한 달 동안 73.0명이 방문했습니다. 요일별 방문자수는 월요일 17.0명, 화요일 10.0명, 수요일 16.0명, 목요일 9.0명, 금요일 6.0명, 토요일 5.0명, 일요일 10.0명입니다.",33.4712097,126.5020906
방주교회,제주특별자치도 서귀포시 안덕면 산록남로762번길 113 ,서귀포시,관광지,인문(문화/예술/역사),역사관광지,종교성지,13913.0,5.0,1082.0,160.0,175.0,178.0,140.0,153.0,109.0,167.0,"'방주교회'은/는 제주특별자치도 서귀포시 안덕면 산록남로762번길 113 에 위치한 관광지로, 관광지에 속하며, 대분류: 인문(문화/예술/역사), 중분류: 역사관광지, 소분류: 종교성지입니다. 해당 관광지는 기준월(5.0) 동안 총 13913.0명의 방문자를 기록했습니다. 8월 한 달 동안 1082.0명이 방문했습니다. 요일별 방문자수는 월요일 160.0명, 화요일 175.0명, 수요일 178.0명, 목요일 140.0명, 금요일 153.0명, 토요일 109.0명, 일요일 167.0명입니다.",33.3051258,126.3872587
백패커스홈,제주특별자치도 서귀포시 중정로 24-7 (서귀동),서귀포시,숙박,숙박,숙박시설,게스트하우스,315.0,5.0,43.0,7.0,10.0,5.0,8.0,6.0,2.0,5.0,"'백패커스홈'은/는 제주특별자치도 서귀포시 중정로 24-7 (서귀동)에 위치한 관광지로, 숙박에 속하며, 대분류: 숙박, 중분류: 숙박시설, 소분류: 게스트하우스입니다. 해당 관광지는 기준월(5.0) 동안 총 315.0명의 방문자를 기록했습니다. 8월 한 달 동안 43.0명이 방문했습니다. 요일별 방문자수는 월요일 7.0명, 화요일 10.0명, 수요일 5.0명, 목요일 8.0명, 금요일 6.0명, 토요일 2.0명, 일요일 5.0명입니다.",33.2472869,126.5590809
보통청춘기록실청춘사진관,제주특별자치도 제주시 한림읍 일주서로 5867 ,제주시,관광지,인문(문화/예술/역사),체험관광지,이색체험,786.0,5.0,94.0,14.0,28.0,14.0,13.0,11.0,7.0,7.0,"'보통청춘기록실청춘사진관'은/는 제주특별자치도 제주시 한림읍 일주서로 5867 에 위치한 관광지로, 관광지에 속하며, 대분류: 인문(문화/예술/역사), 중분류: 체험관광지, 소분류: 이색체험입니다. 해당 관광지는 기준월(5.0) 동안 총 786.0명의 방문자를 기록했습니다. 8월 한 달 동안 94.0명이 방문했습니다. 요일별 방문자수는 월요일 14.0명, 화요일 28.0명, 수요일 14.0명, 목요일 13.0명, 금요일 11.0명, 토요일 7.0명, 일요일 7.0명입니다.",33.4436616234369,126.293059624787
북촌리4.3길,제주특별자치도 제주시 조천읍 북촌3길 3 ,제주시,관광지,자연,자연관광지,자연생태관광지,836.0,5.0,131.0,18.0,25.0,19.0,17.0,26.0,7.0,19.0,"'북촌리4.3길'은/는 제주특별자치도 제주시 조천읍 북촌3길 3 에 위치한 관광지로, 관광지에 속하며, 대분류: 자연, 중분류: 자연관광지, 소분류: 자연생태관광지입니다. 해당 관광지는 기준월(5.0) 동안 총 836.0명의 방문자를 기록했습니다. 8월 한 달 동안 131.0명이 방문했습니다. 요일별 방문자수는 월요일 18.0명, 화요일 25.0명, 수요일 19.0명, 목요일 17.0명, 금요일 26.0명, 토요일 7.0명, 일요일 19.0명입니다.",33.5460149487699,126.688656387157
붉은오름자연휴양림,제주특별자치도 서귀포시 표선면 남조로 1487-73 ,서귀포시,관광지,자연,자연관광지,자연휴양림,3950.0,5.0,215.0,50.0,28.0,33.0,33.0,28.0,20.0,23.0,"'붉은오름자연휴양림'은/는 제주특별자치도 서귀포시 표선면 남조로 1487-73 에 위치한 관광지로, 관광지에 속하며, 대분류: 자연, 중분류: 자연관광지, 소분류: 자연휴양림입니다. 해당 관광지는 기준월(5.0) 동안 총 3950.0명의 방문자를 기록했습니다. 8월 한 달 동안 215.0명이 방문했습니다. 요일별 방문자수는 월요일 50.0명, 화요일 28.0명, 수요일 33.0명, 목요일 33.0명, 금요일 28.0명, 토요일 20.0명, 일요일 23.0명입니다.",33.5460149487699,126.688656387157
브릭216,제주특별자치도 서귀포시 이어도로 216 (대포동),서귀포시,숙박,숙박,숙박시설,게스트하우스,296.0,5.0,34.0,6.0,6.0,6.0,2.0,3.0,4.0,7.0,"'브릭216'은/는 제주특별자치도 서귀포시 이어도로 216 (대포동)에 위치한 관광지로, 숙박에 속하며, 대분류: 숙박, 중분류: 숙박시설, 소분류: 게스트하우스입니다. 해당 관광지는 기준월(5.0) 동안 총 296.0명의 방문자를 기록했습니다. 8월 한 달 동안 34.0명이 방문했습니다. 요일별 방문자수는 월요일 6.0명, 화요일 6.0명, 수요일 6.0명, 목요일 2.0명, 금요일 3.0명, 토요일 4.0명, 일요일 7.0명입니다.",33.240855,126.4434116
사라봉공원,제주특별자치도 제주시 사라봉동길 74 ,제주시,관광지,인문(문화/예술/역사),휴양관광지,공원,1849.0,5.0,185.0,42.0,30.0,34.0,20.0,13.0,24.0,22.0,"'사라봉공원'은/는 제주특별자치도 제주시 사라봉동길 74 에 위치한 관광지로, 관광지에 속하며, 대분류: 인문(문화/예술/역사), 중분류: 휴양관광지, 소분류: 공원입니다. 해당 관광지는 기준월(5.0) 동안 총 1849.0명의 방문자를 기록했습니다. 8월 한 달 동안 185.0명이 방문했습니다. 요일별 방문자수는 월요일 42.0명, 화요일 30.0명, 수요일 34.0명, 목요일 20.0명, 금요일 13.0명, 토요일 24.0명, 일요일 22.0명입니다.",33.5177204,126.5457574
산방산랜드,제주특별자치도 서귀포시 안덕면 사계리 117-2,서귀포시,관광지,인문(문화/예술/역사),휴양관광지,테마공원,3336.0,5.0,177.0,28.0,27.0,32.0,18.0,21.0,27.0,24.0,"'산방산랜드'은/는 제주특별자치도 서귀포시 안덕면 사계리 117-2에 위치한 관광지로, 관광지에 속하며, 대분류: 인문(문화/예술/역사), 중분류: 휴양관광지, 소분류: 테마공원입니다. 해당 관광지는 기준월(5.0) 동안 총 3336.0명의 방문자를 기록했습니다. 8월 한 달 동안 177.0명이 방문했습니다. 요일별 방문자수는 월요일 28.0명, 화요일 27.0명, 수요일 32.0명, 목요일 18.0명, 금요일 21.0명, 토요일 27.0명, 일요일 24.0명입니다.",33.2341156018697,126.311707416564
산지등대,제주특별자치도 제주시 사라봉동길 108-1 (건입동),제주시,관광지,자연,자연관광지,등대,1222.0,5.0,114.0,19.0,20.0,18.0,11.0,15.0,12.0,19.0,"'산지등대'은/는 제주특별자치도 제주시 사라봉동길 108-1 (건입동)에 위치한 관광지로, 관광지에 속하며, 대분류: 자연, 중분류: 자연관광지, 소분류: 등대입니다. 해당 관광지는 기준월(5.0) 동안 총 1222.0명의 방문자를 기록했습니다. 8월 한 달 동안 114.0명이 방문했습니다. 요일별 방문자수는 월요일 19.0명, 화요일 20.0명, 수요일 18.0명, 목요일 11.0명, 금요일 15.0명, 토요일 12.0명, 일요일 19.0명입니다.",33.5213689,126.5456439
산지천,제주특별자치도 제주시 건입동 ,제주시,관광지,자연,자연관광지,계곡,2021.0,5.0,195.0,33.0,45.0,25.0,22.0,31.0,19.0,20.0,"'산지천'은/는 제주특별자치도 제주시 건입동 에 위치한 관광지로, 관광지에 속하며, 대분류: 자연, 중분류: 자연관광지, 소분류: 계곡입니다. 해당 관광지는 기준월(5.0) 동안 총 2021.0명의 방문자를 기록했습니다. 8월 한 달 동안 195.0명이 방문했습니다. 요일별 방문자수는 월요일 33.0명, 화요일 45.0명, 수요일 25.0명, 목요일 22.0명, 금요일 31.0명, 토요일 19.0명, 일요일 20.0명입니다.",33.5153591,126.5420032
삼매봉,제주특별자치도 서귀포시 서홍동 820-2,서귀포시,관광지,인문(문화/예술/역사),휴양관광지,공원,630.0,5.0,86.0,18.0,21.0,15.0,10.0,6.0,6.0,10.0,"'삼매봉'은/는 제주특별자치도 서귀포시 서홍동 820-2에 위치한 관광지로, 관광지에 속하며, 대분류: 인문(문화/예술/역사), 중분류: 휴양관광지, 소분류: 공원입니다. 해당 관광지는 기준월(5.0) 동안 총 630.0명의 방문자를 기록했습니다. 8월 한 달 동안 86.0명이 방문했습니다. 요일별 방문자수는 월요일 18.0명, 화요일 21.0명, 수요일 15.0명, 목요일 10.0명, 금요일 6.0명, 토요일 6.0명, 일요일 10.0명입니다.",33.2437181,126.5462844
삼양해안도로,제주특별자치도 제주시 삼양삼동 2582-1 ,제주시,관광지,자연,자연관광지,자연생태관광지,481.0,5.0,49.0,7.0,11.0,7.0,5.0,6.0,8.0,5.0,"'삼양해안도로'은/는 제주특별자치도 제주시 삼양삼동 2582-1 에 위치한 관광지로, 관광지에 속하며, 대분류: 자연, 중분류: 자연관광지, 소분류: 자연생태관광지입니다. 해당 관광지는 기준월(5.0) 동안 총 481.0명의 방문자를 기록했습니다. 8월 한 달 동안 49.0명이 방문했습니다. 요일별 방문자수는 월요일 7.0명, 화요일 11.0명, 수요일 7.0명, 목요일 5.0명, 금요일 6.0명, 토요일 8.0명, 일요일 5.0명입니다.",33.52099949999999,126.5841277
서귀본향당,제주특별자치도 서귀포시 이중섭로 23-11 (서귀동),서귀포시,관광지,인문(문화/예술/역사),역사관광지,유적지/사적지,783.0,5.0,111.0,17.0,23.0,18.0,16.0,11.0,11.0,15.0,"'서귀본향당'은/는 제주특별자치도 서귀포시 이중섭로 23-11 (서귀동)에 위치한 관광지로, 관광지에 속하며, 대분류: 인문(문화/예술/역사), 중분류: 역사관광지, 소분류: 유적지/사적지입니다. 해당 관광지는 기준월(5.0) 동안 총 783.0명의 방문자를 기록했습니다. 8월 한 달 동안 111.0명이 방문했습니다. 요일별 방문자수는 월요일 17.0명, 화요일 23.0명, 수요일 18.0명, 목요일 16.0명, 금요일 11.0명, 토요일 11.0명, 일요일 15.0명입니다.",33.2461722,126.5647482
서귀포치유의숲,제주특별자치도 서귀포시 산록남로 2271 (호근동),서귀포시,관광지,인문(문화/예술/역사),휴양관광지,헬스투어,11271.0,5.0,1403.0,249.0,233.0,262.0,171.0,192.0,129.0,167.0,"'서귀포치유의숲'은/는 제주특별자치도 서귀포시 산록남로 2271 (호근동)에 위치한 관광지로, 관광지에 속하며, 대분류: 인문(문화/예술/역사), 중분류: 휴양관광지, 소분류: 헬스투어입니다. 해당 관광지는 기준월(5.0) 동안 총 11271.0명의 방문자를 기록했습니다. 8월 한 달 동안 1403.0명이 방문했습니다. 요일별 방문자수는 월요일 249.0명, 화요일 233.0명, 수요일 262.0명, 목요일 171.0명, 금요일 192.0명, 토요일 129.0명, 일요일 167.0명입니다.",33.3025489,126.5245747
서귀포자연휴양림,제주특별자치도 서귀포시 1100로 882 ,서귀포시,관광지,자연,자연관광지,자연휴양림,2851.0,5.0,305.0,56.0,68.0,55.0,34.0,34.0,32.0,26.0,"'서귀포자연휴양림'은/는 제주특별자치도 서귀포시 1100로 882 에 위치한 관광지로, 관광지에 속하며, 대분류: 자연, 중분류: 자연관광지, 소분류: 자연휴양림입니다. 해당 관광지는 기준월(5.0) 동안 총 2851.0명의 방문자를 기록했습니다. 8월 한 달 동안 305.0명이 방문했습니다. 요일별 방문자수는 월요일 56.0명, 화요일 68.0명, 수요일 55.0명, 목요일 34.0명, 금요일 34.0명, 토요일 32.0명, 일요일 26.0명입니다.",33.3107796,126.4597767
서프라이즈테마파크,제주특별자치도 제주시 조천읍 남조로 2243 ,제주시,관광지,인문(문화/예술/역사),휴양관광지,테마공원,1994.0,5.0,143.0,34.0,23.0,20.0,18.0,22.0,11.0,15.0,"'서프라이즈테마파크'은/는 제주특별자치도 제주시 조천읍 남조로 2243 에 위치한 관광지로, 관광지에 속하며, 대분류: 인문(문화/예술/역사), 중분류: 휴양관광지, 소분류: 테마공원입니다. 해당 관광지는 기준월(5.0) 동안 총 1994.0명의 방문자를 기록했습니다. 8월 한 달 동안 143.0명이 방문했습니다. 요일별 방문자수는 월요일 34.0명, 화요일 23.0명, 수요일 20.0명, 목요일 18.0명, 금요일 22.0명, 토요일 11.0명, 일요일 15.0명입니다.",33.4651605,126.6592588
성읍녹차마을,제주특별자치도 서귀포시 중산간동로 4778 녹차가공공장 ,서귀포시,관광지,인문(문화/예술/역사),체험관광지,농.산.어촌 체험,1271.0,5.0,141.0,25.0,25.0,35.0,17.0,14.0,15.0,10.0,"'성읍녹차마을'은/는 제주특별자치도 서귀포시 중산간동로 4778 녹차가공공장 에 위치한 관광지로, 관광지에 속하며, 대분류: 인문(문화/예술/역사), 중분류: 체험관광지, 소분류: 농.산.어촌 체험입니다. 해당 관광지는 기준월(5.0) 동안 총 1271.0명의 방문자를 기록했습니다. 8월 한 달 동안 141.0명이 방문했습니다. 요일별 방문자수는 월요일 25.0명, 화요일 25.0명, 수요일 35.0명, 목요일 17.0명, 금요일 14.0명, 토요일 15.0명, 일요일 10.0명입니다.",33.3810103,126.7901958
성읍랜드,제주특별자치도 서귀포시 표선면 번영로 2650 ,서귀포시,관광지,인문(문화/예술/역사),휴양관광지,테마공원,1912.0,5.0,177.0,20.0,33.0,19.0,21.0,27.0,29.0,28.0,"'성읍랜드'은/는 제주특별자치도 서귀포시 표선면 번영로 2650 에 위치한 관광지로, 관광지에 속하며, 대분류: 인문(문화/예술/역사), 중분류: 휴양관광지, 소분류: 테마공원입니다. 해당 관광지는 기준월(5.0) 동안 총 1912.0명의 방문자를 기록했습니다. 8월 한 달 동안 177.0명이 방문했습니다. 요일별 방문자수는 월요일 20.0명, 화요일 33.0명, 수요일 19.0명, 목요일 21.0명, 금요일 27.0명, 토요일 29.0명, 일요일 28.0명입니다.",33.398978,126.7869638
성읍민속마을,제주특별자치도 서귀포시 표선면 성읍정의현로 19 ,서귀포시,관광지,인문(문화/예술/역사),역사관광지,민속마을,8542.0,5.0,616.0,107.0,105.0,125.0,97.0,64.0,46.0,72.0,"'성읍민속마을'은/는 제주특별자치도 서귀포시 표선면 성읍정의현로 19 에 위치한 관광지로, 관광지에 속하며, 대분류: 인문(문화/예술/역사), 중분류: 역사관광지, 소분류: 민속마을입니다. 해당 관광지는 기준월(5.0) 동안 총 8542.0명의 방문자를 기록했습니다. 8월 한 달 동안 616.0명이 방문했습니다. 요일별 방문자수는 월요일 107.0명, 화요일 105.0명, 수요일 125.0명, 목요일 97.0명, 금요일 64.0명, 토요일 46.0명, 일요일 72.0명입니다.",33.3844862,126.8003558
성이시돌목장,제주특별자치도 제주시 한림읍 산록남로 53 ,제주시,관광지,인문(문화/예술/역사),체험관광지,농.산.어촌 체험,11292.0,5.0,889.0,177.0,166.0,144.0,112.0,124.0,86.0,80.0,"'성이시돌목장'은/는 제주특별자치도 제주시 한림읍 산록남로 53 에 위치한 관광지로, 관광지에 속하며, 대분류: 인문(문화/예술/역사), 중분류: 체험관광지, 소분류: 농.산.어촌 체험입니다. 해당 관광지는 기준월(5.0) 동안 총 11292.0명의 방문자를 기록했습니다. 8월 한 달 동안 889.0명이 방문했습니다. 요일별 방문자수는 월요일 177.0명, 화요일 166.0명, 수요일 144.0명, 목요일 112.0명, 금요일 124.0명, 토요일 86.0명, 일요일 80.0명입니다.",33.3459727,126.3215552
소인국테마파크,제주특별자치도 서귀포시 안덕면 중산간서로 1878 ,서귀포시,관광지,인문(문화/예술/역사),휴양관광지,테마공원,3988.0,5.0,398.0,51.0,68.0,66.0,81.0,53.0,37.0,42.0,"'소인국테마파크'은/는 제주특별자치도 서귀포시 안덕면 중산간서로 1878 에 위치한 관광지로, 관광지에 속하며, 대분류: 인문(문화/예술/역사), 중분류: 휴양관광지, 소분류: 테마공원입니다. 해당 관광지는 기준월(5.0) 동안 총 3988.0명의 방문자를 기록했습니다. 8월 한 달 동안 398.0명이 방문했습니다. 요일별 방문자수는 월요일 51.0명, 화요일 68.0명, 수요일 66.0명, 목요일 81.0명, 금요일 53.0명, 토요일 37.0명, 일요일 42.0명입니다.",33.2903957,126.3226207
송악산진지동굴,제주특별자치도 서귀포시 대정읍 상모리 238 ,서귀포시,관광지,자연,자연관광지,동굴,2483.0,5.0,284.0,59.0,71.0,52.0,30.0,19.0,27.0,26.0,"'송악산진지동굴'은/는 제주특별자치도 서귀포시 대정읍 상모리 238 에 위치한 관광지로, 관광지에 속하며, 대분류: 자연, 중분류: 자연관광지, 소분류: 동굴입니다. 해당 관광지는 기준월(5.0) 동안 총 2483.0명의 방문자를 기록했습니다. 8월 한 달 동안 284.0명이 방문했습니다. 요일별 방문자수는 월요일 59.0명, 화요일 71.0명, 수요일 52.0명, 목요일 30.0명, 금요일 19.0명, 토요일 27.0명, 일요일 26.0명입니다.",33.1990931536649,126.29350293965
송악산둘레길,제주특별자치도 서귀포시 대정읍 상모리 245,서귀포시,관광지,레포츠,육상 레포츠,트래킹,18146.0,5.0,416.0,77.0,64.0,77.0,55.0,51.0,45.0,47.0,"'송악산둘레길'은/는 제주특별자치도 서귀포시 대정읍 상모리 245에 위치한 관광지로, 관광지에 속하며, 대분류: 레포츠, 중분류: 육상 레포츠, 소분류: 트래킹입니다. 해당 관광지는 기준월(5.0) 동안 총 18146.0명의 방문자를 기록했습니다. 8월 한 달 동안 416.0명이 방문했습니다. 요일별 방문자수는 월요일 77.0명, 화요일 64.0명, 수요일 77.0명, 목요일 55.0명, 금요일 51.0명, 토요일 45.0명, 일요일 47.0명입니다.",33.2077419,126.2909048
쇠소깍,제주특별자치도 서귀포시 쇠소깍로 128 (하효동),서귀포시,관광지,자연,자연관광지,계곡,38097.0,5.0,4119.0,735.0,761.0,684.0,497.0,491.0,459.0,492.0,"'쇠소깍'은/는 제주특별자치도 서귀포시 쇠소깍로 128 (하효동)에 위치한 관광지로, 관광지에 속하며, 대분류: 자연, 중분류: 자연관광지, 소분류: 계곡입니다. 해당 관광지는 기준월(5.0) 동안 총 38097.0명의 방문자를 기록했습니다. 8월 한 달 동안 4119.0명이 방문했습니다. 요일별 방문자수는 월요일 735.0명, 화요일 761.0명, 수요일 684.0명, 목요일 497.0명, 금요일 491.0명, 토요일 459.0명, 일요일 492.0명입니다.",33.2522494,126.6230068
수목원테마파크,제주특별자치도 제주시 은수길 69 ,제주시,관광지,인문(문화/예술/역사),휴양관광지,테마공원,3236.0,5.0,324.0,51.0,71.0,54.0,48.0,49.0,26.0,25.0,"'수목원테마파크'은/는 제주특별자치도 제주시 은수길 69 에 위치한 관광지로, 관광지에 속하며, 대분류: 인문(문화/예술/역사), 중분류: 휴양관광지, 소분류: 테마공원입니다. 해당 관광지는 기준월(5.0) 동안 총 3236.0명의 방문자를 기록했습니다. 8월 한 달 동안 324.0명이 방문했습니다. 요일별 방문자수는 월요일 51.0명, 화요일 71.0명, 수요일 54.0명, 목요일 48.0명, 금요일 49.0명, 토요일 26.0명, 일요일 25.0명입니다.",33.4705937,126.4883601
순례자의교회,제주특별자치도 제주시 한경면 일주서로 3960-24 ,제주시,관광지,인문(문화/예술/역사),역사관광지,종교성지,2494.0,5.0,258.0,52.0,36.0,42.0,35.0,31.0,33.0,29.0,"'순례자의교회'은/는 제주특별자치도 제주시 한경면 일주서로 3960-24 에 위치한 관광지로, 관광지에 속하며, 대분류: 인문(문화/예술/역사), 중분류: 역사관광지, 소분류: 종교성지입니다. 해당 관광지는 기준월(5.0) 동안 총 2494.0명의 방문자를 기록했습니다. 8월 한 달 동안 258.0명이 방문했습니다. 요일별 방문자수는 월요일 52.0명, 화요일 36.0명, 수요일 42.0명, 목요일 35.0명, 금요일 31.0명, 토요일 33.0명, 일요일 29.0명입니다.",33.3198062,126.1805485
쉬리의언덕,제주특별자치도 서귀포시 색달동 3093-1,서귀포시,관광지,자연,자연관광지,자연생태관광지,1722.0,5.0,199.0,31.0,37.0,32.0,22.0,27.0,23.0,27.0,"'쉬리의언덕'은/는 제주특별자치도 서귀포시 색달동 3093-1에 위치한 관광지로, 관광지에 속하며, 대분류: 자연, 중분류: 자연관광지, 소분류: 자연생태관광지입니다. 해당 관광지는 기준월(5.0) 동안 총 1722.0명의 방문자를 기록했습니다. 8월 한 달 동안 199.0명이 방문했습니다. 요일별 방문자수는 월요일 31.0명, 화요일 37.0명, 수요일 32.0명, 목요일 22.0명, 금요일 27.0명, 토요일 23.0명, 일요일 27.0명입니다.",33.245437,126.405584
스누피가든,제주특별자치도 제주시 구좌읍 금백조로 930 스누피 공원,제주시,관광지,인문(문화/예술/역사),휴양관광지,테마공원,4482.0,5.0,609.0,149.0,101.0,92.0,56.0,80.0,45.0,86.0,"'스누피가든'은/는 제주특별자치도 제주시 구좌읍 금백조로 930 스누피 공원에 위치한 관광지로, 관광지에 속하며, 대분류: 인문(문화/예술/역사), 중분류: 휴양관광지, 소분류: 테마공원입니다. 해당 관광지는 기준월(5.0) 동안 총 4482.0명의 방문자를 기록했습니다. 8월 한 달 동안 609.0명이 방문했습니다. 요일별 방문자수는 월요일 149.0명, 화요일 101.0명, 수요일 92.0명, 목요일 56.0명, 금요일 80.0명, 토요일 45.0명, 일요일 86.0명입니다.",33.4435555,126.7785412
신비의도로,제주특별자치도 제주시 노형동 ,제주시,관광지,인문(문화/예술/역사),체험관광지,이색체험,4799.0,5.0,362.0,70.0,64.0,49.0,51.0,50.0,37.0,41.0,"'신비의도로'은/는 제주특별자치도 제주시 노형동 에 위치한 관광지로, 관광지에 속하며, 대분류: 인문(문화/예술/역사), 중분류: 체험관광지, 소분류: 이색체험입니다. 해당 관광지는 기준월(5.0) 동안 총 4799.0명의 방문자를 기록했습니다. 8월 한 달 동안 362.0명이 방문했습니다. 요일별 방문자수는 월요일 70.0명, 화요일 64.0명, 수요일 49.0명, 목요일 51.0명, 금요일 50.0명, 토요일 37.0명, 일요일 41.0명입니다.",33.4511084,126.4872373
신산공원,제주특별자치도 제주시 신산로 92-12 (일도이동),제주시,관광지,인문(문화/예술/역사),휴양관광지,공원,1336.0,5.0,105.0,18.0,19.0,18.0,15.0,12.0,12.0,11.0,"'신산공원'은/는 제주특별자치도 제주시 신산로 92-12 (일도이동)에 위치한 관광지로, 관광지에 속하며, 대분류: 인문(문화/예술/역사), 중분류: 휴양관광지, 소분류: 공원입니다. 해당 관광지는 기준월(5.0) 동안 총 1336.0명의 방문자를 기록했습니다. 8월 한 달 동안 105.0명이 방문했습니다. 요일별 방문자수는 월요일 18.0명, 화요일 19.0명, 수요일 18.0명, 목요일 15.0명, 금요일 12.0명, 토요일 12.0명, 일요일 11.0명입니다.",33.505296,126.5336622
신창풍차해안도로,제주특별자치도 제주시 한경면 신창리 1322-1 ,제주시,관광지,자연,자연관광지,자연생태관광지,8862.0,5.0,827.0,158.0,142.0,136.0,99.0,94.0,98.0,100.0,"'신창풍차해안도로'은/는 제주특별자치도 제주시 한경면 신창리 1322-1 에 위치한 관광지로, 관광지에 속하며, 대분류: 자연, 중분류: 자연관광지, 소분류: 자연생태관광지입니다. 해당 관광지는 기준월(5.0) 동안 총 8862.0명의 방문자를 기록했습니다. 8월 한 달 동안 827.0명이 방문했습니다. 요일별 방문자수는 월요일 158.0명, 화요일 142.0명, 수요일 136.0명, 목요일 99.0명, 금요일 94.0명, 토요일 98.0명, 일요일 100.0명입니다.",33.3434277,126.1739088
신천리벽화마을,제주특별자치도 서귀포시 성산읍 신천리 478-1,서귀포시,관광지,인문(문화/예술/역사),체험관광지,이색체험,757.0,5.0,74.0,8.0,14.0,14.0,11.0,11.0,7.0,9.0,"'신천리벽화마을'은/는 제주특별자치도 서귀포시 성산읍 신천리 478-1에 위치한 관광지로, 관광지에 속하며, 대분류: 인문(문화/예술/역사), 중분류: 체험관광지, 소분류: 이색체험입니다. 해당 관광지는 기준월(5.0) 동안 총 757.0명의 방문자를 기록했습니다. 8월 한 달 동안 74.0명이 방문했습니다. 요일별 방문자수는 월요일 8.0명, 화요일 14.0명, 수요일 14.0명, 목요일 11.0명, 금요일 11.0명, 토요일 7.0명, 일요일 9.0명입니다.",33.3443858510457,126.849580035623
신풍리밭담길,제주특별자치도 서귀포시 성산읍 신풍하동로 39 ,서귀포시,레포츠,인문(문화/예술/역사),체험관광지,이색거리,745.0,5.0,93.0,16.0,13.0,13.0,13.0,11.0,6.0,21.0,"'신풍리밭담길'은/는 제주특별자치도 서귀포시 성산읍 신풍하동로 39 에 위치한 관광지로, 레포츠에 속하며, 대분류: 인문(문화/예술/역사), 중분류: 체험관광지, 소분류: 이색거리입니다. 해당 관광지는 기준월(5.0) 동안 총 745.0명의 방문자를 기록했습니다. 8월 한 달 동안 93.0명이 방문했습니다. 요일별 방문자수는 월요일 16.0명, 화요일 13.0명, 수요일 13.0명, 목요일 13.0명, 금요일 11.0명, 토요일 6.0명, 일요일 21.0명입니다.",33.3434285042685,126.173908545785
싱계물공원,제주특별자치도 제주시 한경면 신창리 1322-1 ,제주시,관광지,자연,자연관광지,자연생태관광지,4067.0,5.0,426.0,74.0,85.0,63.0,45.0,58.0,44.0,57.0,"'싱계물공원'은/는 제주특별자치도 제주시 한경면 신창리 1322-1 에 위치한 관광지로, 관광지에 속하며, 대분류: 자연, 중분류: 자연관광지, 소분류: 자연생태관광지입니다. 해당 관광지는 기준월(5.0) 동안 총 4067.0명의 방문자를 기록했습니다. 8월 한 달 동안 426.0명이 방문했습니다. 요일별 방문자수는 월요일 74.0명, 화요일 85.0명, 수요일 63.0명, 목요일 45.0명, 금요일 58.0명, 토요일 44.0명, 일요일 57.0명입니다.",33.3443858510457,126.849580035623
쌍용굴,제주특별자치도 제주시 한림읍 한림로 300 ,제주시,관광지,자연,자연관광지,동굴,1406.0,5.0,163.0,24.0,26.0,32.0,20.0,35.0,13.0,13.0,"'쌍용굴'은/는 제주특별자치도 제주시 한림읍 한림로 300 에 위치한 관광지로, 관광지에 속하며, 대분류: 자연, 중분류: 자연관광지, 소분류: 동굴입니다. 해당 관광지는 기준월(5.0) 동안 총 1406.0명의 방문자를 기록했습니다. 8월 한 달 동안 163.0명이 방문했습니다. 요일별 방문자수는 월요일 24.0명, 화요일 26.0명, 수요일 32.0명, 목요일 20.0명, 금요일 35.0명, 토요일 13.0명, 일요일 13.0명입니다.",33.3618881876801,126.840548960409
아날로그감귤밭,제주특별자치도 제주시 해안마을8길 46 (해안동),제주시,관광지,인문(문화/예술/역사),체험관광지,농.산.어촌 체험,2457.0,5.0,177.0,30.0,35.0,30.0,24.0,19.0,22.0,17.0,"'아날로그감귤밭'은/는 제주특별자치도 제주시 해안마을8길 46 (해안동)에 위치한 관광지로, 관광지에 속하며, 대분류: 인문(문화/예술/역사), 중분류: 체험관광지, 소분류: 농.산.어촌 체험입니다. 해당 관광지는 기준월(5.0) 동안 총 2457.0명의 방문자를 기록했습니다. 8월 한 달 동안 177.0명이 방문했습니다. 요일별 방문자수는 월요일 30.0명, 화요일 35.0명, 수요일 30.0명, 목요일 24.0명, 금요일 19.0명, 토요일 22.0명, 일요일 17.0명입니다.",33.455681,126.4509292
안덕계곡,제주특별자치도 서귀포시 안덕면 일주서로 1524 ,서귀포시,관광지,자연,자연관광지,계곡,4621.0,5.0,372.0,55.0,73.0,68.0,44.0,40.0,52.0,40.0,"'안덕계곡'은/는 제주특별자치도 서귀포시 안덕면 일주서로 1524 에 위치한 관광지로, 관광지에 속하며, 대분류: 자연, 중분류: 자연관광지, 소분류: 계곡입니다. 해당 관광지는 기준월(5.0) 동안 총 4621.0명의 방문자를 기록했습니다. 8월 한 달 동안 372.0명이 방문했습니다. 요일별 방문자수는 월요일 55.0명, 화요일 73.0명, 수요일 68.0명, 목요일 44.0명, 금요일 40.0명, 토요일 52.0명, 일요일 40.0명입니다.",33.258442,126.3529777
어영공원,제주특별자치도 제주시 서해안로 451 (용담삼동) ,제주시,관광지,인문(문화/예술/역사),휴양관광지,공원,1250.0,5.0,108.0,14.0,32.0,20.0,15.0,9.0,5.0,13.0,"'어영공원'은/는 제주특별자치도 제주시 서해안로 451 (용담삼동) 에 위치한 관광지로, 관광지에 속하며, 대분류: 인문(문화/예술/역사), 중분류: 휴양관광지, 소분류: 공원입니다. 해당 관광지는 기준월(5.0) 동안 총 1250.0명의 방문자를 기록했습니다. 8월 한 달 동안 108.0명이 방문했습니다. 요일별 방문자수는 월요일 14.0명, 화요일 32.0명, 수요일 20.0명, 목요일 15.0명, 금요일 9.0명, 토요일 5.0명, 일요일 13.0명입니다.",33.5177971,126.4877926
엉덩물계곡,제주특별자치도 서귀포시 중문관광로 192 (중문동),서귀포시,관광지,자연,자연관광지,계곡,5162.0,5.0,383.0,64.0,61.0,66.0,33.0,45.0,60.0,54.0,"'엉덩물계곡'은/는 제주특별자치도 서귀포시 중문관광로 192 (중문동)에 위치한 관광지로, 관광지에 속하며, 대분류: 자연, 중분류: 자연관광지, 소분류: 계곡입니다. 해당 관광지는 기준월(5.0) 동안 총 5162.0명의 방문자를 기록했습니다. 8월 한 달 동안 383.0명이 방문했습니다. 요일별 방문자수는 월요일 64.0명, 화요일 61.0명, 수요일 66.0명, 목요일 33.0명, 금요일 45.0명, 토요일 60.0명, 일요일 54.0명입니다.",33.2473317,126.4180777
에코그린리조트,제주특별자치도 제주시 한림읍 귀덕6길 94 ,제주시,관광지,인문(문화/예술/역사),휴양관광지,관광단지,405.0,5.0,63.0,10.0,12.0,8.0,9.0,5.0,9.0,10.0,"'에코그린리조트'은/는 제주특별자치도 제주시 한림읍 귀덕6길 94 에 위치한 관광지로, 관광지에 속하며, 대분류: 인문(문화/예술/역사), 중분류: 휴양관광지, 소분류: 관광단지입니다. 해당 관광지는 기준월(5.0) 동안 총 405.0명의 방문자를 기록했습니다. 8월 한 달 동안 63.0명이 방문했습니다. 요일별 방문자수는 월요일 10.0명, 화요일 12.0명, 수요일 8.0명, 목요일 9.0명, 금요일 5.0명, 토요일 9.0명, 일요일 10.0명입니다.",33.4357006,126.2915662
에코랜드테마파크,제주특별자치도 제주시 조천읍 번영로 1278-169 ,제주시,관광지,인문(문화/예술/역사),휴양관광지,테마공원,14927.0,5.0,1256.0,223.0,222.0,256.0,183.0,153.0,105.0,114.0,"'에코랜드테마파크'은/는 제주특별자치도 제주시 조천읍 번영로 1278-169 에 위치한 관광지로, 관광지에 속하며, 대분류: 인문(문화/예술/역사), 중분류: 휴양관광지, 소분류: 테마공원입니다. 해당 관광지는 기준월(5.0) 동안 총 14927.0명의 방문자를 기록했습니다. 8월 한 달 동안 1256.0명이 방문했습니다. 요일별 방문자수는 월요일 223.0명, 화요일 222.0명, 수요일 256.0명, 목요일 183.0명, 금요일 153.0명, 토요일 105.0명, 일요일 114.0명입니다.",33.4553485144602,126.668852765522
엠버리조트,제주특별자치도 제주시 1100로 2671-51 (노형동),제주시,숙박,숙박,숙박시설,게스트하우스,47.0,5.0,12.0,2.0,0.0,2.0,5.0,1.0,1.0,1.0,"'엠버리조트'은/는 제주특별자치도 제주시 1100로 2671-51 (노형동)에 위치한 관광지로, 숙박에 속하며, 대분류: 숙박, 중분류: 숙박시설, 소분류: 게스트하우스입니다. 해당 관광지는 기준월(5.0) 동안 총 47.0명의 방문자를 기록했습니다. 8월 한 달 동안 12.0명이 방문했습니다. 요일별 방문자수는 월요일 2.0명, 화요일 0.0명, 수요일 2.0명, 목요일 5.0명, 금요일 1.0명, 토요일 1.0명, 일요일 1.0명입니다.",33.4236848,126.4889875
연북정,제주특별자치도 제주시 조천읍 조천리 ,제주시,관광지,인문(문화/예술/역사),역사관광지,유적지/사적지,927.0,5.0,167.0,19.0,45.0,46.0,26.0,12.0,8.0,11.0,"'연북정'은/는 제주특별자치도 제주시 조천읍 조천리 에 위치한 관광지로, 관광지에 속하며, 대분류: 인문(문화/예술/역사), 중분류: 역사관광지, 소분류: 유적지/사적지입니다. 해당 관광지는 기준월(5.0) 동안 총 927.0명의 방문자를 기록했습니다. 8월 한 달 동안 167.0명이 방문했습니다. 요일별 방문자수는 월요일 19.0명, 화요일 45.0명, 수요일 46.0명, 목요일 26.0명, 금요일 12.0명, 토요일 8.0명, 일요일 11.0명입니다.",33.5401964,126.6359829
오현단,제주특별자치도 제주시 오현길 61 (이도일동),제주시,관광지,인문(문화/예술/역사),역사관광지,유적지/사적지,836.0,5.0,125.0,28.0,21.0,29.0,19.0,12.0,10.0,6.0,"'오현단'은/는 제주특별자치도 제주시 오현길 61 (이도일동)에 위치한 관광지로, 관광지에 속하며, 대분류: 인문(문화/예술/역사), 중분류: 역사관광지, 소분류: 유적지/사적지입니다. 해당 관광지는 기준월(5.0) 동안 총 836.0명의 방문자를 기록했습니다. 8월 한 달 동안 125.0명이 방문했습니다. 요일별 방문자수는 월요일 28.0명, 화요일 21.0명, 수요일 29.0명, 목요일 19.0명, 금요일 12.0명, 토요일 10.0명, 일요일 6.0명입니다.",33.5104855,126.5257264
외돌개,제주특별자치도 서귀포시 서흥동 791,서귀포시,관광지,자연,관광자원,기암괴석,8990.0,5.0,842.0,159.0,132.0,144.0,122.0,112.0,95.0,78.0,"'외돌개'은/는 제주특별자치도 서귀포시 서흥동 791에 위치한 관광지로, 관광지에 속하며, 대분류: 자연, 중분류: 관광자원, 소분류: 기암괴석입니다. 해당 관광지는 기준월(5.0) 동안 총 8990.0명의 방문자를 기록했습니다. 8월 한 달 동안 842.0명이 방문했습니다. 요일별 방문자수는 월요일 159.0명, 화요일 132.0명, 수요일 144.0명, 목요일 122.0명, 금요일 112.0명, 토요일 95.0명, 일요일 78.0명입니다.",33.2400761,126.5456641
용담레포츠공원,제주특별자치도 제주시 서해안로 580 (용담삼동) ,제주시,관광지,인문(문화/예술/역사),휴양관광지,공원,1821.0,5.0,208.0,43.0,42.0,33.0,30.0,21.0,20.0,19.0,"'용담레포츠공원'은/는 제주특별자치도 제주시 서해안로 580 (용담삼동) 에 위치한 관광지로, 관광지에 속하며, 대분류: 인문(문화/예술/역사), 중분류: 휴양관광지, 소분류: 공원입니다. 해당 관광지는 기준월(5.0) 동안 총 1821.0명의 방문자를 기록했습니다. 8월 한 달 동안 208.0명이 방문했습니다. 요일별 방문자수는 월요일 43.0명, 화요일 42.0명, 수요일 33.0명, 목요일 30.0명, 금요일 21.0명, 토요일 20.0명, 일요일 19.0명입니다.",33.518341,126.4989767
용연,제주특별자치도 제주시 용담일동 2581-4,제주시,관광지,자연,자연관광지,계곡,4859.0,5.0,483.0,73.0,94.0,77.0,67.0,61.0,51.0,60.0,"'용연'은/는 제주특별자치도 제주시 용담일동 2581-4에 위치한 관광지로, 관광지에 속하며, 대분류: 자연, 중분류: 자연관광지, 소분류: 계곡입니다. 해당 관광지는 기준월(5.0) 동안 총 4859.0명의 방문자를 기록했습니다. 8월 한 달 동안 483.0명이 방문했습니다. 요일별 방문자수는 월요일 73.0명, 화요일 94.0명, 수요일 77.0명, 목요일 67.0명, 금요일 61.0명, 토요일 51.0명, 일요일 60.0명입니다.",33.5152142,126.5139637
우도등대,제주특별자치도 제주시 우도면 우도봉길 105 (우도면) 부근,제주시,관광지,자연,자연관광지,등대,1336.0,5.0,162.0,20.0,45.0,26.0,17.0,24.0,11.0,19.0,"'우도등대'은/는 제주특별자치도 제주시 우도면 우도봉길 105 (우도면) 부근에 위치한 관광지로, 관광지에 속하며, 대분류: 자연, 중분류: 자연관광지, 소분류: 등대입니다. 해당 관광지는 기준월(5.0) 동안 총 1336.0명의 방문자를 기록했습니다. 8월 한 달 동안 162.0명이 방문했습니다. 요일별 방문자수는 월요일 20.0명, 화요일 45.0명, 수요일 26.0명, 목요일 17.0명, 금요일 24.0명, 토요일 11.0명, 일요일 19.0명입니다.",33.4928776,126.9654349
월령선인장군락지,제주특별자치도 제주시 한림읍 월령3길 27-4 ,제주시,관광지,자연,자연관광지,자연생태관광지,5452.0,5.0,539.0,100.0,100.0,92.0,72.0,62.0,57.0,56.0,"'월령선인장군락지'은/는 제주특별자치도 제주시 한림읍 월령3길 27-4 에 위치한 관광지로, 관광지에 속하며, 대분류: 자연, 중분류: 자연관광지, 소분류: 자연생태관광지입니다. 해당 관광지는 기준월(5.0) 동안 총 5452.0명의 방문자를 기록했습니다. 8월 한 달 동안 539.0명이 방문했습니다. 요일별 방문자수는 월요일 100.0명, 화요일 100.0명, 수요일 92.0명, 목요일 72.0명, 금요일 62.0명, 토요일 57.0명, 일요일 56.0명입니다.",33.3778976,126.2157287
월정리해안도로,제주특별자치도 제주시 구좌읍 월정리 652-4 ,제주시,관광지,자연,자연관광지,자연생태관광지,1135.0,5.0,96.0,18.0,19.0,18.0,16.0,4.0,8.0,13.0,"'월정리해안도로'은/는 제주특별자치도 제주시 구좌읍 월정리 652-4 에 위치한 관광지로, 관광지에 속하며, 대분류: 자연, 중분류: 자연관광지, 소분류: 자연생태관광지입니다. 해당 관광지는 기준월(5.0) 동안 총 1135.0명의 방문자를 기록했습니다. 8월 한 달 동안 96.0명이 방문했습니다. 요일별 방문자수는 월요일 18.0명, 화요일 19.0명, 수요일 18.0명, 목요일 16.0명, 금요일 4.0명, 토요일 8.0명, 일요일 13.0명입니다.",33.5562207,126.7958759
이상한나라의앨리스,제주특별자치도 서귀포시 안덕면 중산간서로 1881 ,서귀포시,관광지,인문(문화/예술/역사),체험관광지,이색체험,2759.0,5.0,262.0,39.0,45.0,46.0,39.0,34.0,22.0,37.0,"'이상한나라의앨리스'은/는 제주특별자치도 서귀포시 안덕면 중산간서로 1881 에 위치한 관광지로, 관광지에 속하며, 대분류: 인문(문화/예술/역사), 중분류: 체험관광지, 소분류: 이색체험입니다. 해당 관광지는 기준월(5.0) 동안 총 2759.0명의 방문자를 기록했습니다. 8월 한 달 동안 262.0명이 방문했습니다. 요일별 방문자수는 월요일 39.0명, 화요일 45.0명, 수요일 46.0명, 목요일 39.0명, 금요일 34.0명, 토요일 22.0명, 일요일 37.0명입니다.",33.2889423633361,126.321784410657
이중섭거주지,제주특별자치도 서귀포시 이중섭로 29 (서귀동),서귀포시,관광지,인문(문화/예술/역사),역사관광지,유적지/사적지,2522.0,5.0,189.0,40.0,32.0,36.0,29.0,14.0,15.0,23.0,"'이중섭거주지'은/는 제주특별자치도 서귀포시 이중섭로 29 (서귀동)에 위치한 관광지로, 관광지에 속하며, 대분류: 인문(문화/예술/역사), 중분류: 역사관광지, 소분류: 유적지/사적지입니다. 해당 관광지는 기준월(5.0) 동안 총 2522.0명의 방문자를 기록했습니다. 8월 한 달 동안 189.0명이 방문했습니다. 요일별 방문자수는 월요일 40.0명, 화요일 32.0명, 수요일 36.0명, 목요일 29.0명, 금요일 14.0명, 토요일 15.0명, 일요일 23.0명입니다.",33.2455473,126.5644088
이호테우말등대,제주특별자치도 제주시 이호일동 375-43 ,제주시,관광지,자연,자연관광지,등대,5223.0,5.0,506.0,97.0,88.0,83.0,64.0,78.0,52.0,44.0,"'이호테우말등대'은/는 제주특별자치도 제주시 이호일동 375-43 에 위치한 관광지로, 관광지에 속하며, 대분류: 자연, 중분류: 자연관광지, 소분류: 등대입니다. 해당 관광지는 기준월(5.0) 동안 총 5223.0명의 방문자를 기록했습니다. 8월 한 달 동안 506.0명이 방문했습니다. 요일별 방문자수는 월요일 97.0명, 화요일 88.0명, 수요일 83.0명, 목요일 64.0명, 금요일 78.0명, 토요일 52.0명, 일요일 44.0명입니다.",33.5021517,126.4564112
일출랜드,제주특별자치도 서귀포시 성산읍 중산간동로 4150-30 ,서귀포시,관광지,인문(문화/예술/역사),휴양관광지,공원,4391.0,5.0,388.0,82.0,79.0,56.0,53.0,32.0,34.0,52.0,"'일출랜드'은/는 제주특별자치도 서귀포시 성산읍 중산간동로 4150-30 에 위치한 관광지로, 관광지에 속하며, 대분류: 인문(문화/예술/역사), 중분류: 휴양관광지, 소분류: 공원입니다. 해당 관광지는 기준월(5.0) 동안 총 4391.0명의 방문자를 기록했습니다. 8월 한 달 동안 388.0명이 방문했습니다. 요일별 방문자수는 월요일 82.0명, 화요일 79.0명, 수요일 56.0명, 목요일 53.0명, 금요일 32.0명, 토요일 34.0명, 일요일 52.0명입니다.",33.3831862,126.8418892
장생의숲길,제주특별자치도 제주시 명림로 584 (봉개동) ,제주시,관광지,자연,자연관광지,자연휴양림,1756.0,5.0,189.0,31.0,30.0,35.0,24.0,16.0,35.0,18.0,"'장생의숲길'은/는 제주특별자치도 제주시 명림로 584 (봉개동) 에 위치한 관광지로, 관광지에 속하며, 대분류: 자연, 중분류: 자연관광지, 소분류: 자연휴양림입니다. 해당 관광지는 기준월(5.0) 동안 총 1756.0명의 방문자를 기록했습니다. 8월 한 달 동안 189.0명이 방문했습니다. 요일별 방문자수는 월요일 31.0명, 화요일 30.0명, 수요일 35.0명, 목요일 24.0명, 금요일 16.0명, 토요일 35.0명, 일요일 18.0명입니다.",33.440049258236,126.625203614349
절부암,제주특별자치도 제주시 한경면 용수리 4241-5,제주시,관광지,자연,관광자원,기암괴석,520.0,5.0,58.0,8.0,12.0,6.0,8.0,7.0,9.0,8.0,"'절부암'은/는 제주특별자치도 제주시 한경면 용수리 4241-5에 위치한 관광지로, 관광지에 속하며, 대분류: 자연, 중분류: 관광자원, 소분류: 기암괴석입니다. 해당 관광지는 기준월(5.0) 동안 총 520.0명의 방문자를 기록했습니다. 8월 한 달 동안 58.0명이 방문했습니다. 요일별 방문자수는 월요일 8.0명, 화요일 12.0명, 수요일 6.0명, 목요일 8.0명, 금요일 7.0명, 토요일 9.0명, 일요일 8.0명입니다.",33.3239831,126.1671817
정의향교,제주특별자치도 서귀포시 표선면 성읍서문로 14 ,서귀포시,관광지,인문(문화/예술/역사),역사관광지,유적지/사적지,562.0,5.0,74.0,7.0,8.0,15.0,12.0,10.0,18.0,4.0,"'정의향교'은/는 제주특별자치도 서귀포시 표선면 성읍서문로 14 에 위치한 관광지로, 관광지에 속하며, 대분류: 인문(문화/예술/역사), 중분류: 역사관광지, 소분류: 유적지/사적지입니다. 해당 관광지는 기준월(5.0) 동안 총 562.0명의 방문자를 기록했습니다. 8월 한 달 동안 74.0명이 방문했습니다. 요일별 방문자수는 월요일 7.0명, 화요일 8.0명, 수요일 15.0명, 목요일 12.0명, 금요일 10.0명, 토요일 18.0명, 일요일 4.0명입니다.",33.3869287,126.799942
제주삼양동유적,제주특별자치도 제주시 선사로2길 13 ,제주시,관광지,인문(문화/예술/역사),역사관광지,유적지/사적지,1196.0,5.0,119.0,24.0,23.0,19.0,16.0,13.0,15.0,9.0,"'제주삼양동유적'은/는 제주특별자치도 제주시 선사로2길 13 에 위치한 관광지로, 관광지에 속하며, 대분류: 인문(문화/예술/역사), 중분류: 역사관광지, 소분류: 유적지/사적지입니다. 해당 관광지는 기준월(5.0) 동안 총 1196.0명의 방문자를 기록했습니다. 8월 한 달 동안 119.0명이 방문했습니다. 요일별 방문자수는 월요일 24.0명, 화요일 23.0명, 수요일 19.0명, 목요일 16.0명, 금요일 13.0명, 토요일 15.0명, 일요일 9.0명입니다.",33.440049258236,126.625203614349
제주센트럴파크,제주특별자치도 제주시 조천읍 비자림로 606 ,제주시,관광지,인문(문화/예술/역사),휴양관광지,테마공원,2173.0,5.0,181.0,25.0,36.0,31.0,25.0,26.0,22.0,16.0,"'제주센트럴파크'은/는 제주특별자치도 제주시 조천읍 비자림로 606 에 위치한 관광지로, 관광지에 속하며, 대분류: 인문(문화/예술/역사), 중분류: 휴양관광지, 소분류: 테마공원입니다. 해당 관광지는 기준월(5.0) 동안 총 2173.0명의 방문자를 기록했습니다. 8월 한 달 동안 181.0명이 방문했습니다. 요일별 방문자수는 월요일 25.0명, 화요일 36.0명, 수요일 31.0명, 목요일 25.0명, 금요일 26.0명, 토요일 22.0명, 일요일 16.0명입니다.",33.4334415,126.6743965
제주유리의성,제주특별자치도 제주시 한경면 녹차분재로 462 ,제주시,관광지,인문(문화/예술/역사),휴양관광지,테마공원,4234.0,5.0,393.0,83.0,52.0,77.0,49.0,60.0,41.0,31.0,"'제주유리의성'은/는 제주특별자치도 제주시 한경면 녹차분재로 462 에 위치한 관광지로, 관광지에 속하며, 대분류: 인문(문화/예술/역사), 중분류: 휴양관광지, 소분류: 테마공원입니다. 해당 관광지는 기준월(5.0) 동안 총 4234.0명의 방문자를 기록했습니다. 8월 한 달 동안 393.0명이 방문했습니다. 요일별 방문자수는 월요일 83.0명, 화요일 52.0명, 수요일 77.0명, 목요일 49.0명, 금요일 60.0명, 토요일 41.0명, 일요일 31.0명입니다.",33.314546,126.2739234
제주공룡랜드,제주특별자치도 제주시 애월읍 광령평화2길 1 ,제주시,관광지,인문(문화/예술/역사),휴양관광지,테마공원,2609.0,5.0,221.0,41.0,35.0,27.0,47.0,21.0,24.0,26.0,"'제주공룡랜드'은/는 제주특별자치도 제주시 애월읍 광령평화2길 1 에 위치한 관광지로, 관광지에 속하며, 대분류: 인문(문화/예술/역사), 중분류: 휴양관광지, 소분류: 테마공원입니다. 해당 관광지는 기준월(5.0) 동안 총 2609.0명의 방문자를 기록했습니다. 8월 한 달 동안 221.0명이 방문했습니다. 요일별 방문자수는 월요일 41.0명, 화요일 35.0명, 수요일 27.0명, 목요일 47.0명, 금요일 21.0명, 토요일 24.0명, 일요일 26.0명입니다.",33.5235045849897,126.587999545909
제주곶자왈도립공원,제주특별자치도 서귀포시 에듀시티로 178 ,서귀포시,관광지,자연,자연관광지,도립공원,4018.0,5.0,464.0,89.0,84.0,81.0,66.0,62.0,43.0,39.0,"'제주곶자왈도립공원'은/는 제주특별자치도 서귀포시 에듀시티로 178 에 위치한 관광지로, 관광지에 속하며, 대분류: 자연, 중분류: 자연관광지, 소분류: 도립공원입니다. 해당 관광지는 기준월(5.0) 동안 총 4018.0명의 방문자를 기록했습니다. 8월 한 달 동안 464.0명이 방문했습니다. 요일별 방문자수는 월요일 89.0명, 화요일 84.0명, 수요일 81.0명, 목요일 66.0명, 금요일 62.0명, 토요일 43.0명, 일요일 39.0명입니다.",33.289275,126.2749677
제주러브랜드,제주특별자치도 제주시 1100로 2894-72 (연동),제주시,관광지,인문(문화/예술/역사),휴양관광지,테마공원,4360.0,5.0,287.0,43.0,54.0,38.0,44.0,45.0,28.0,35.0,"'제주러브랜드'은/는 제주특별자치도 제주시 1100로 2894-72 (연동)에 위치한 관광지로, 관광지에 속하며, 대분류: 인문(문화/예술/역사), 중분류: 휴양관광지, 소분류: 테마공원입니다. 해당 관광지는 기준월(5.0) 동안 총 4360.0명의 방문자를 기록했습니다. 8월 한 달 동안 287.0명이 방문했습니다. 요일별 방문자수는 월요일 43.0명, 화요일 54.0명, 수요일 38.0명, 목요일 44.0명, 금요일 45.0명, 토요일 28.0명, 일요일 35.0명입니다.",33.4517135,126.4901715
제주바다체험장,제주특별자치도 제주시 구좌읍 일주동로 1777 ,제주시,관광지,인문(문화/예술/역사),체험관광지,농.산.어촌 체험,1227.0,5.0,168.0,25.0,24.0,32.0,23.0,22.0,18.0,24.0,"'제주바다체험장'은/는 제주특별자치도 제주시 구좌읍 일주동로 1777 에 위치한 관광지로, 관광지에 속하며, 대분류: 인문(문화/예술/역사), 중분류: 체험관광지, 소분류: 농.산.어촌 체험입니다. 해당 관광지는 기준월(5.0) 동안 총 1227.0명의 방문자를 기록했습니다. 8월 한 달 동안 168.0명이 방문했습니다. 요일별 방문자수는 월요일 25.0명, 화요일 24.0명, 수요일 32.0명, 목요일 23.0명, 금요일 22.0명, 토요일 18.0명, 일요일 24.0명입니다.",33.5546738,126.7218438
제주별빛누리공원,제주특별자치도 제주시 선돌목동길 60 (오등동) ,제주시,관광지,인문(문화/예술/역사),휴양관광지,공원,1639.0,5.0,134.0,31.0,13.0,25.0,26.0,16.0,13.0,10.0,"'제주별빛누리공원'은/는 제주특별자치도 제주시 선돌목동길 60 (오등동) 에 위치한 관광지로, 관광지에 속하며, 대분류: 인문(문화/예술/역사), 중분류: 휴양관광지, 소분류: 공원입니다. 해당 관광지는 기준월(5.0) 동안 총 1639.0명의 방문자를 기록했습니다. 8월 한 달 동안 134.0명이 방문했습니다. 요일별 방문자수는 월요일 31.0명, 화요일 13.0명, 수요일 25.0명, 목요일 26.0명, 금요일 16.0명, 토요일 13.0명, 일요일 10.0명입니다.",33.4451439,126.5492347
제주아이브리조트,제주특별자치도 서귀포시 산록남로 1966-34 (영남동),서귀포시,관광지,인문(문화/예술/역사),휴양관광지,관광단지,709.0,5.0,63.0,10.0,14.0,12.0,5.0,5.0,5.0,12.0,"'제주아이브리조트'은/는 제주특별자치도 서귀포시 산록남로 1966-34 (영남동)에 위치한 관광지로, 관광지에 속하며, 대분류: 인문(문화/예술/역사), 중분류: 휴양관광지, 소분류: 관광단지입니다. 해당 관광지는 기준월(5.0) 동안 총 709.0명의 방문자를 기록했습니다. 8월 한 달 동안 63.0명이 방문했습니다. 요일별 방문자수는 월요일 10.0명, 화요일 14.0명, 수요일 12.0명, 목요일 5.0명, 금요일 5.0명, 토요일 5.0명, 일요일 12.0명입니다.",33.288409,126.4968764
제주안전체험관,제주특별자치도 제주시 애월읍 평화로 1885 ,제주시,관광지,인문(문화/예술/역사),체험관광지,이색체험,2271.0,5.0,196.0,36.0,44.0,41.0,25.0,18.0,11.0,21.0,"'제주안전체험관'은/는 제주특별자치도 제주시 애월읍 평화로 1885 에 위치한 관광지로, 관광지에 속하며, 대분류: 인문(문화/예술/역사), 중분류: 체험관광지, 소분류: 이색체험입니다. 해당 관광지는 기준월(5.0) 동안 총 2271.0명의 방문자를 기록했습니다. 8월 한 달 동안 196.0명이 방문했습니다. 요일별 방문자수는 월요일 36.0명, 화요일 44.0명, 수요일 41.0명, 목요일 25.0명, 금요일 18.0명, 토요일 11.0명, 일요일 21.0명입니다.",33.3942008,126.3737312
제주양떼목장,제주특별자치도 제주시 애월읍 도치돌길 289-13 ,제주시,관광지,인문(문화/예술/역사),체험관광지,농.산.어촌 체험,1043.0,5.0,116.0,26.0,22.0,20.0,12.0,12.0,15.0,9.0,"'제주양떼목장'은/는 제주특별자치도 제주시 애월읍 도치돌길 289-13 에 위치한 관광지로, 관광지에 속하며, 대분류: 인문(문화/예술/역사), 중분류: 체험관광지, 소분류: 농.산.어촌 체험입니다. 해당 관광지는 기준월(5.0) 동안 총 1043.0명의 방문자를 기록했습니다. 8월 한 달 동안 116.0명이 방문했습니다. 요일별 방문자수는 월요일 26.0명, 화요일 22.0명, 수요일 20.0명, 목요일 12.0명, 금요일 12.0명, 토요일 15.0명, 일요일 9.0명입니다.",33.4109424,126.3653661
제주절물자연휴양림,제주특별자치도 제주시 명림로 584 ,제주시,관광지,자연,자연관광지,자연휴양림,14568.0,5.0,768.0,131.0,177.0,142.0,103.0,92.0,59.0,64.0,"'제주절물자연휴양림'은/는 제주특별자치도 제주시 명림로 584 에 위치한 관광지로, 관광지에 속하며, 대분류: 자연, 중분류: 자연관광지, 소분류: 자연휴양림입니다. 해당 관광지는 기준월(5.0) 동안 총 14568.0명의 방문자를 기록했습니다. 8월 한 달 동안 768.0명이 방문했습니다. 요일별 방문자수는 월요일 131.0명, 화요일 177.0명, 수요일 142.0명, 목요일 103.0명, 금요일 92.0명, 토요일 59.0명, 일요일 64.0명입니다.",33.4302354,126.6227963
제주향교,제주특별자치도 제주시 서문로 43 (용담일동),제주시,관광지,인문(문화/예술/역사),역사관광지,유적지/사적지,773.0,5.0,109.0,20.0,26.0,16.0,22.0,11.0,7.0,7.0,"'제주향교'은/는 제주특별자치도 제주시 서문로 43 (용담일동)에 위치한 관광지로, 관광지에 속하며, 대분류: 인문(문화/예술/역사), 중분류: 역사관광지, 소분류: 유적지/사적지입니다. 해당 관광지는 기준월(5.0) 동안 총 773.0명의 방문자를 기록했습니다. 8월 한 달 동안 109.0명이 방문했습니다. 요일별 방문자수는 월요일 20.0명, 화요일 26.0명, 수요일 16.0명, 목요일 22.0명, 금요일 11.0명, 토요일 7.0명, 일요일 7.0명입니다.",33.5111677,126.5159523
제주힐링명상센터,제주특별자치도 제주시 애월읍 어음13길 196 ,제주시,관광지,인문(문화/예술/역사),체험관광지,이색체험,2763.0,5.0,255.0,51.0,45.0,45.0,35.0,29.0,29.0,21.0,"'제주힐링명상센터'은/는 제주특별자치도 제주시 애월읍 어음13길 196 에 위치한 관광지로, 관광지에 속하며, 대분류: 인문(문화/예술/역사), 중분류: 체험관광지, 소분류: 이색체험입니다. 해당 관광지는 기준월(5.0) 동안 총 2763.0명의 방문자를 기록했습니다. 8월 한 달 동안 255.0명이 방문했습니다. 요일별 방문자수는 월요일 51.0명, 화요일 45.0명, 수요일 45.0명, 목요일 35.0명, 금요일 29.0명, 토요일 29.0명, 일요일 21.0명입니다.",33.3955297,126.3610931
조랑말체험공원,제주특별자치도 서귀포시 표선면 녹산로 381-15 ,서귀포시,관광지,인문(문화/예술/역사),체험관광지,이색체험,1821.0,5.0,183.0,36.0,37.0,25.0,21.0,27.0,17.0,20.0,"'조랑말체험공원'은/는 제주특별자치도 서귀포시 표선면 녹산로 381-15 에 위치한 관광지로, 관광지에 속하며, 대분류: 인문(문화/예술/역사), 중분류: 체험관광지, 소분류: 이색체험입니다. 해당 관광지는 기준월(5.0) 동안 총 1821.0명의 방문자를 기록했습니다. 8월 한 달 동안 183.0명이 방문했습니다. 요일별 방문자수는 월요일 36.0명, 화요일 37.0명, 수요일 25.0명, 목요일 21.0명, 금요일 27.0명, 토요일 17.0명, 일요일 20.0명입니다.",33.3831928,126.7359802
조천만세동산,제주특별자치도 제주시 조천읍 조천리 1142-1,제주시,관광지,인문(문화/예술/역사),역사관광지,유적지/사적지,1237.0,5.0,231.0,22.0,64.0,62.0,20.0,38.0,9.0,16.0,"'조천만세동산'은/는 제주특별자치도 제주시 조천읍 조천리 1142-1에 위치한 관광지로, 관광지에 속하며, 대분류: 인문(문화/예술/역사), 중분류: 역사관광지, 소분류: 유적지/사적지입니다. 해당 관광지는 기준월(5.0) 동안 총 1237.0명의 방문자를 기록했습니다. 8월 한 달 동안 231.0명이 방문했습니다. 요일별 방문자수는 월요일 22.0명, 화요일 64.0명, 수요일 62.0명, 목요일 20.0명, 금요일 38.0명, 토요일 9.0명, 일요일 16.0명입니다.",33.5399846,126.6416165
조천함덕해안도로,제주특별자치도 제주시 조천읍 조함해안로 525 ,제주시,관광지,자연,자연관광지,자연생태관광지,1614.0,5.0,154.0,30.0,32.0,21.0,18.0,12.0,24.0,17.0,"'조천함덕해안도로'은/는 제주특별자치도 제주시 조천읍 조함해안로 525 에 위치한 관광지로, 관광지에 속하며, 대분류: 자연, 중분류: 자연관광지, 소분류: 자연생태관광지입니다. 해당 관광지는 기준월(5.0) 동안 총 1614.0명의 방문자를 기록했습니다. 8월 한 달 동안 154.0명이 방문했습니다. 요일별 방문자수는 월요일 30.0명, 화요일 32.0명, 수요일 21.0명, 목요일 18.0명, 금요일 12.0명, 토요일 24.0명, 일요일 17.0명입니다.",33.5313895,126.6429191
종달리해안도로,제주특별자치도 제주시 구좌읍 종달리 ,제주시,관광지,자연,자연관광지,자연생태관광지,1858.0,5.0,231.0,43.0,37.0,29.0,39.0,21.0,26.0,36.0,"'종달리해안도로'은/는 제주특별자치도 제주시 구좌읍 종달리 에 위치한 관광지로, 관광지에 속하며, 대분류: 자연, 중분류: 자연관광지, 소분류: 자연생태관광지입니다. 해당 관광지는 기준월(5.0) 동안 총 1858.0명의 방문자를 기록했습니다. 8월 한 달 동안 231.0명이 방문했습니다. 요일별 방문자수는 월요일 43.0명, 화요일 37.0명, 수요일 29.0명, 목요일 39.0명, 금요일 21.0명, 토요일 26.0명, 일요일 36.0명입니다.",33.4828963,126.9017162
종달리수국길,제주특별자치도 제주시 구좌읍 종달리 112-4 ,제주시,관광지,자연,자연관광지,자연생태관광지,4291.0,5.0,837.0,141.0,141.0,143.0,109.0,100.0,98.0,105.0,"'종달리수국길'은/는 제주특별자치도 제주시 구좌읍 종달리 112-4 에 위치한 관광지로, 관광지에 속하며, 대분류: 자연, 중분류: 자연관광지, 소분류: 자연생태관광지입니다. 해당 관광지는 기준월(5.0) 동안 총 4291.0명의 방문자를 기록했습니다. 8월 한 달 동안 837.0명이 방문했습니다. 요일별 방문자수는 월요일 141.0명, 화요일 141.0명, 수요일 143.0명, 목요일 109.0명, 금요일 100.0명, 토요일 98.0명, 일요일 105.0명입니다.",33.5290971,126.8463777
중문관광단지,제주특별자치도 서귀포시 중문관광로 38 (중문관광단지안내소),서귀포시,관광지,인문(문화/예술/역사),휴양관광지,관광단지,7359.0,5.0,627.0,109.0,128.0,112.0,88.0,68.0,61.0,61.0,"'중문관광단지'은/는 제주특별자치도 서귀포시 중문관광로 38 (중문관광단지안내소)에 위치한 관광지로, 관광지에 속하며, 대분류: 인문(문화/예술/역사), 중분류: 휴양관광지, 소분류: 관광단지입니다. 해당 관광지는 기준월(5.0) 동안 총 7359.0명의 방문자를 기록했습니다. 8월 한 달 동안 627.0명이 방문했습니다. 요일별 방문자수는 월요일 109.0명, 화요일 128.0명, 수요일 112.0명, 목요일 88.0명, 금요일 68.0명, 토요일 61.0명, 일요일 61.0명입니다.",33.2482702,126.4104128
중문미로파크,제주특별자치도 서귀포시 상예동 3592-5 ,서귀포시,관광지,인문(문화/예술/역사),휴양관광지,테마공원,2467.0,5.0,220.0,33.0,34.0,28.0,26.0,36.0,35.0,28.0,"'중문미로파크'은/는 제주특별자치도 서귀포시 상예동 3592-5 에 위치한 관광지로, 관광지에 속하며, 대분류: 인문(문화/예술/역사), 중분류: 휴양관광지, 소분류: 테마공원입니다. 해당 관광지는 기준월(5.0) 동안 총 2467.0명의 방문자를 기록했습니다. 8월 한 달 동안 220.0명이 방문했습니다. 요일별 방문자수는 월요일 33.0명, 화요일 34.0명, 수요일 28.0명, 목요일 26.0명, 금요일 36.0명, 토요일 35.0명, 일요일 28.0명입니다.",33.2635326,126.3818174
추자도등대,제주특별자치도 제주시 추자면 영흥4길 43 (추자면),제주시,관광지,자연,자연관광지,등대,319.0,5.0,49.0,5.0,9.0,10.0,9.0,5.0,4.0,7.0,"'추자도등대'은/는 제주특별자치도 제주시 추자면 영흥4길 43 (추자면)에 위치한 관광지로, 관광지에 속하며, 대분류: 자연, 중분류: 자연관광지, 소분류: 등대입니다. 해당 관광지는 기준월(5.0) 동안 총 319.0명의 방문자를 기록했습니다. 8월 한 달 동안 49.0명이 방문했습니다. 요일별 방문자수는 월요일 5.0명, 화요일 9.0명, 수요일 10.0명, 목요일 9.0명, 금요일 5.0명, 토요일 4.0명, 일요일 7.0명입니다.",33.957785,126.2982082
취다선리조트,제주특별자치도 서귀포시 성산읍 해맞이해안로 2688 ,서귀포시,숙박,숙박,숙박시설,게스트하우스,1342.0,5.0,128.0,20.0,26.0,24.0,19.0,19.0,12.0,8.0,"'취다선리조트'은/는 제주특별자치도 서귀포시 성산읍 해맞이해안로 2688 에 위치한 관광지로, 숙박에 속하며, 대분류: 숙박, 중분류: 숙박시설, 소분류: 게스트하우스입니다. 해당 관광지는 기준월(5.0) 동안 총 1342.0명의 방문자를 기록했습니다. 8월 한 달 동안 128.0명이 방문했습니다. 요일별 방문자수는 월요일 20.0명, 화요일 26.0명, 수요일 24.0명, 목요일 19.0명, 금요일 19.0명, 토요일 12.0명, 일요일 8.0명입니다.",33.4718627,126.9128692
캔디원,제주특별자치도 제주시 조천읍 선교로 384 ,제주시,관광지,인문(문화/예술/역사),체험관광지,이색체험,1066.0,5.0,117.0,19.0,17.0,17.0,20.0,13.0,13.0,18.0,"'캔디원'은/는 제주특별자치도 제주시 조천읍 선교로 384 에 위치한 관광지로, 관광지에 속하며, 대분류: 인문(문화/예술/역사), 중분류: 체험관광지, 소분류: 이색체험입니다. 해당 관광지는 기준월(5.0) 동안 총 1066.0명의 방문자를 기록했습니다. 8월 한 달 동안 117.0명이 방문했습니다. 요일별 방문자수는 월요일 19.0명, 화요일 17.0명, 수요일 17.0명, 목요일 20.0명, 금요일 13.0명, 토요일 13.0명, 일요일 18.0명입니다.",33.4712877,126.707937
코델리아리조트,제주특별자치도 서귀포시 성산읍 일주동로4120번길 23-20 ,서귀포시,관광지,인문(문화/예술/역사),휴양관광지,관광단지,383.0,5.0,41.0,4.0,11.0,7.0,7.0,4.0,4.0,4.0,"'코델리아리조트'은/는 제주특별자치도 서귀포시 성산읍 일주동로4120번길 23-20 에 위치한 관광지로, 관광지에 속하며, 대분류: 인문(문화/예술/역사), 중분류: 휴양관광지, 소분류: 관광단지입니다. 해당 관광지는 기준월(5.0) 동안 총 383.0명의 방문자를 기록했습니다. 8월 한 달 동안 41.0명이 방문했습니다. 요일별 방문자수는 월요일 4.0명, 화요일 11.0명, 수요일 7.0명, 목요일 7.0명, 금요일 4.0명, 토요일 4.0명, 일요일 4.0명입니다.",33.4591059,126.9102124
펜션연리,제주특별자치도 서귀포시 논짓물로 50 (하예동),서귀포시,숙박,숙박,숙박시설,게스트하우스,132.0,5.0,15.0,1.0,5.0,2.0,2.0,1.0,2.0,2.0,"'펜션연리'은/는 제주특별자치도 서귀포시 논짓물로 50 (하예동)에 위치한 관광지로, 숙박에 속하며, 대분류: 숙박, 중분류: 숙박시설, 소분류: 게스트하우스입니다. 해당 관광지는 기준월(5.0) 동안 총 132.0명의 방문자를 기록했습니다. 8월 한 달 동안 15.0명이 방문했습니다. 요일별 방문자수는 월요일 1.0명, 화요일 5.0명, 수요일 2.0명, 목요일 2.0명, 금요일 1.0명, 토요일 2.0명, 일요일 2.0명입니다.",33.2403591,126.3863078
포레스트사파리,제주특별자치도 제주시 조천읍 선교로 474-1 ,제주시,관광지,인문(문화/예술/역사),휴양관광지,테마공원,972.0,5.0,121.0,24.0,27.0,23.0,16.0,11.0,9.0,11.0,"'포레스트사파리'은/는 제주특별자치도 제주시 조천읍 선교로 474-1 에 위치한 관광지로, 관광지에 속하며, 대분류: 인문(문화/예술/역사), 중분류: 휴양관광지, 소분류: 테마공원입니다. 해당 관광지는 기준월(5.0) 동안 총 972.0명의 방문자를 기록했습니다. 8월 한 달 동안 121.0명이 방문했습니다. 요일별 방문자수는 월요일 24.0명, 화요일 27.0명, 수요일 23.0명, 목요일 16.0명, 금요일 11.0명, 토요일 9.0명, 일요일 11.0명입니다.",33.4630534715677,126.709537397906
한림공원,제주특별자치도 제주시 한림읍 한림로 300 ,제주시,관광지,인문(문화/예술/역사),휴양관광지,공원,8246.0,5.0,819.0,149.0,168.0,138.0,121.0,85.0,72.0,86.0,"'한림공원'은/는 제주특별자치도 제주시 한림읍 한림로 300 에 위치한 관광지로, 관광지에 속하며, 대분류: 인문(문화/예술/역사), 중분류: 휴양관광지, 소분류: 공원입니다. 해당 관광지는 기준월(5.0) 동안 총 8246.0명의 방문자를 기록했습니다. 8월 한 달 동안 819.0명이 방문했습니다. 요일별 방문자수는 월요일 149.0명, 화요일 168.0명, 수요일 138.0명, 목요일 121.0명, 금요일 85.0명, 토요일 72.0명, 일요일 86.0명입니다.",33.3883099,126.2394248
해맞이해안로,제주특별자치도 제주시 구좌읍 김녕리 ,제주시,관광지,자연,자연관광지,자연생태관광지,1205.0,5.0,120.0,22.0,29.0,21.0,13.0,15.0,9.0,11.0,"'해맞이해안로'은/는 제주특별자치도 제주시 구좌읍 김녕리 에 위치한 관광지로, 관광지에 속하며, 대분류: 자연, 중분류: 자연관광지, 소분류: 자연생태관광지입니다. 해당 관광지는 기준월(5.0) 동안 총 1205.0명의 방문자를 기록했습니다. 8월 한 달 동안 120.0명이 방문했습니다. 요일별 방문자수는 월요일 22.0명, 화요일 29.0명, 수요일 21.0명, 목요일 13.0명, 금요일 15.0명, 토요일 9.0명, 일요일 11.0명입니다.",33.5389636,126.7494481
협재굴,제주특별자치도 제주시 한림읍 한림로 300 (한림읍),제주시,관광지,자연,자연관광지,동굴,3351.0,5.0,377.0,52.0,67.0,65.0,53.0,67.0,34.0,39.0,"'협재굴'은/는 제주특별자치도 제주시 한림읍 한림로 300 (한림읍)에 위치한 관광지로, 관광지에 속하며, 대분류: 자연, 중분류: 자연관광지, 소분류: 동굴입니다. 해당 관광지는 기준월(5.0) 동안 총 3351.0명의 방문자를 기록했습니다. 8월 한 달 동안 377.0명이 방문했습니다. 요일별 방문자수는 월요일 52.0명, 화요일 67.0명, 수요일 65.0명, 목요일 53.0명, 금요일 67.0명, 토요일 34.0명, 일요일 39.0명입니다.",33.4630534715677,126.709537397906
형제해안도로,제주특별자치도 서귀포시 안덕면 사계리 3682 ,서귀포시,관광지,자연,자연관광지,자연생태관광지,1084.0,5.0,105.0,20.0,16.0,20.0,12.0,16.0,7.0,14.0,"'형제해안도로'은/는 제주특별자치도 서귀포시 안덕면 사계리 3682 에 위치한 관광지로, 관광지에 속하며, 대분류: 자연, 중분류: 자연관광지, 소분류: 자연생태관광지입니다. 해당 관광지는 기준월(5.0) 동안 총 1084.0명의 방문자를 기록했습니다. 8월 한 달 동안 105.0명이 방문했습니다. 요일별 방문자수는 월요일 20.0명, 화요일 16.0명, 수요일 20.0명, 목요일 12.0명, 금요일 16.0명, 토요일 7.0명, 일요일 14.0명입니다.",33.2010015,126.2801453
호텔서귀피안,제주특별자치도 서귀포시 보목로64번길 178 (보목동),서귀포시,숙박,숙박,숙박시설,게스트하우스,147.0,5.0,22.0,2.0,0.0,5.0,5.0,5.0,1.0,4.0,"'호텔서귀피안'은/는 제주특별자치도 서귀포시 보목로64번길 178 (보목동)에 위치한 관광지로, 숙박에 속하며, 대분류: 숙박, 중분류: 숙박시설, 소분류: 게스트하우스입니다. 해당 관광지는 기준월(5.0) 동안 총 147.0명의 방문자를 기록했습니다. 8월 한 달 동안 22.0명이 방문했습니다. 요일별 방문자수는 월요일 2.0명, 화요일 0.0명, 수요일 5.0명, 목요일 5.0명, 금요일 5.0명, 토요일 1.0명, 일요일 4.0명입니다.",33.2444011,126.5906654
혼인지,제주특별자치도 서귀포시 성산읍 혼인지로 39-22 (성산읍),서귀포시,관광지,자연,자연관광지,자연생태관광지,3739.0,5.0,642.0,104.0,99.0,139.0,101.0,73.0,61.0,65.0,"'혼인지'은/는 제주특별자치도 서귀포시 성산읍 혼인지로 39-22 (성산읍)에 위치한 관광지로, 관광지에 속하며, 대분류: 자연, 중분류: 자연관광지, 소분류: 자연생태관광지입니다. 해당 관광지는 기준월(5.0) 동안 총 3739.0명의 방문자를 기록했습니다. 8월 한 달 동안 642.0명이 방문했습니다. 요일별 방문자수는 월요일 104.0명, 화요일 99.0명, 수요일 139.0명, 목요일 101.0명, 금요일 73.0명, 토요일 61.0명, 일요일 65.0명입니다.",33.41514350000001,126.8938099
화조원,제주특별자치도 제주시 애월읍 애원로 804 ,제주시,관광지,인문(문화/예술/역사),휴양관광지,테마공원,1388.0,5.0,129.0,19.0,18.0,24.0,14.0,25.0,15.0,14.0,"'화조원'은/는 제주특별자치도 제주시 애월읍 애원로 804 에 위치한 관광지로, 관광지에 속하며, 대분류: 인문(문화/예술/역사), 중분류: 휴양관광지, 소분류: 테마공원입니다. 해당 관광지는 기준월(5.0) 동안 총 1388.0명의 방문자를 기록했습니다. 8월 한 달 동안 129.0명이 방문했습니다. 요일별 방문자수는 월요일 19.0명, 화요일 18.0명, 수요일 24.0명, 목요일 14.0명, 금요일 25.0명, 토요일 15.0명, 일요일 14.0명입니다.",33.411109,126.3714311
환상숲곶자왈공원,제주특별자치도 제주시 한경면 저지리 2848-2 ,제주시,관광지,자연,자연관광지,자연휴양림,6303.0,5.0,643.0,119.0,111.0,112.0,98.0,71.0,67.0,65.0,"'환상숲곶자왈공원'은/는 제주특별자치도 제주시 한경면 저지리 2848-2 에 위치한 관광지로, 관광지에 속하며, 대분류: 자연, 중분류: 자연관광지, 소분류: 자연휴양림입니다. 해당 관광지는 기준월(5.0) 동안 총 6303.0명의 방문자를 기록했습니다. 8월 한 달 동안 643.0명이 방문했습니다. 요일별 방문자수는 월요일 119.0명, 화요일 111.0명, 수요일 112.0명, 목요일 98.0명, 금요일 71.0명, 토요일 67.0명, 일요일 65.0명입니다.",33.3229850581639,126.263375156898
황우지해안열두굴,제주특별자치도 서귀포시 남성로 93 (서홍동),서귀포시,관광지,자연,자연관광지,동굴,1220.0,5.0,163.0,33.0,26.0,17.0,31.0,20.0,21.0,15.0,"'황우지해안열두굴'은/는 제주특별자치도 서귀포시 남성로 93 (서홍동)에 위치한 관광지로, 관광지에 속하며, 대분류: 자연, 중분류: 자연관광지, 소분류: 동굴입니다. 해당 관광지는 기준월(5.0) 동안 총 1220.0명의 방문자를 기록했습니다. 8월 한 달 동안 163.0명이 방문했습니다. 요일별 방문자수는 월요일 33.0명, 화요일 26.0명, 수요일 17.0명, 목요일 31.0명, 금요일 20.0명, 토요일 21.0명, 일요일 15.0명입니다.",33.242433659496,126.550408723413
휴림,제주특별자치도 제주시 애월읍 광령남서길 40 ,제주시,관광지,인문(문화/예술/역사),휴양관광지,테마공원,1637.0,5.0,204.0,30.0,43.0,34.0,26.0,30.0,15.0,26.0,"'휴림'은/는 제주특별자치도 제주시 애월읍 광령남서길 40 에 위치한 관광지로, 관광지에 속하며, 대분류: 인문(문화/예술/역사), 중분류: 휴양관광지, 소분류: 테마공원입니다. 해당 관광지는 기준월(5.0) 동안 총 1637.0명의 방문자를 기록했습니다. 8월 한 달 동안 204.0명이 방문했습니다. 요일별 방문자수는 월요일 30.0명, 화요일 43.0명, 수요일 34.0명, 목요일 26.0명, 금요일 30.0명, 토요일 15.0명, 일요일 26.0명입니다.",33.443332,126.4292669
휴애리자연생활공원,제주특별자치도 서귀포시 남원읍 신례동로 256 ,서귀포시,관광지,인문(문화/예술/역사),휴양관광지,공원,13757.0,5.0,1000.0,200.0,176.0,177.0,142.0,112.0,92.0,101.0,"'휴애리자연생활공원'은/는 제주특별자치도 서귀포시 남원읍 신례동로 256 에 위치한 관광지로, 관광지에 속하며, 대분류: 인문(문화/예술/역사), 중분류: 휴양관광지, 소분류: 공원입니다. 해당 관광지는 기준월(5.0) 동안 총 13757.0명의 방문자를 기록했습니다. 8월 한 달 동안 1000.0명이 방문했습니다. 요일별 방문자수는 월요일 200.0명, 화요일 176.0명, 수요일 177.0명, 목요일 142.0명, 금요일 112.0명, 토요일 92.0명, 일요일 101.0명입니다.",33.3085347525753,126.634380832055
흑돼지거리,제주특별자치도 제주시 일도일동 ,제주시,관광지,인문(문화/예술/역사),체험관광지,이색거리,924.0,5.0,102.0,8.0,19.0,24.0,19.0,13.0,7.0,12.0,"'흑돼지거리'은/는 제주특별자치도 제주시 일도일동 에 위치한 관광지로, 관광지에 속하며, 대분류: 인문(문화/예술/역사), 중분류: 체험관광지, 소분류: 이색거리입니다. 해당 관광지는 기준월(5.0) 동안 총 924.0명의 방문자를 기록했습니다. 8월 한 달 동안 102.0명이 방문했습니다. 요일별 방문자수는 월요일 8.0명, 화요일 19.0명, 수요일 24.0명, 목요일 19.0명, 금요일 13.0명, 토요일 7.0명, 일요일 12.0명입니다.",33.5153591,126.5420032
1100고지습지,제주특별자치도 서귀포시 1100로 1555 ,서귀포시,관광지,자연,자연관광지,자연생태관광지,14221.0,5.0,426.0,77.0,76.0,77.0,56.0,45.0,50.0,45.0,"'1100고지습지'은/는 제주특별자치도 서귀포시 1100로 1555 에 위치한 관광지로, 관광지에 속하며, 대분류: 자연, 중분류: 자연관광지, 소분류: 자연생태관광지입니다. 해당 관광지는 기준월(5.0) 동안 총 14221.0명의 방문자를 기록했습니다. 8월 한 달 동안 426.0명이 방문했습니다. 요일별 방문자수는 월요일 77.0명, 화요일 76.0명, 수요일 77.0명, 목요일 56.0명, 금요일 45.0명, 토요일 50.0명, 일요일 45.0명입니다.",33.3575237,126.4628967
