관광지명,주소,주소_시,장소 카테고리,대분류,중분류,소분류,총 방문자수,기준월,월별 방문자수,월요일방문자수,화요일방문자수,수요일방문자수,목요일방문자수,금요일방문자수,토요일방문자수,일요일방문자수,정보,위도,경도
갈중이,제주특별자치도 서귀포시 사계남로216번길 24-61 갈중이 ,서귀포시,관광지,인문(문화/예술/역사),체험관광지,전통체험,500.0,10.0,18.0,6.0,2.0,3.0,2.0,2.0,1.0,2.0,"'갈중이'은/는 제주특별자치도 서귀포시 사계남로216번길 24-61 갈중이 에 위치한 관광지로, 관광지에 속하며, 대분류: 인문(문화/예술/역사), 중분류: 체험관광지, 소분류: 전통체험입니다. 해당 관광지는 기준월(10.0) 동안 총 500.0명의 방문자를 기록했습니다. 2월 한 달 동안 18.0명이 방문했습니다. 요일별 방문자수는 월요일 6.0명, 화요일 2.0명, 수요일 3.0명, 목요일 2.0명, 금요일 2.0명, 토요일 1.0명, 일요일 2.0명입니다.",33.2350546,126.3136741
감수굴밭담길,제주특별자치도 제주시 구좌읍 평대7길 34 ,제주시,관광지,인문(문화/예술/역사),체험관광지,농.산.어촌 체험,551.0,10.0,45.0,9.0,3.0,7.0,2.0,8.0,4.0,12.0,"'감수굴밭담길'은/는 제주특별자치도 제주시 구좌읍 평대7길 34 에 위치한 관광지로, 관광지에 속하며, 대분류: 인문(문화/예술/역사), 중분류: 체험관광지, 소분류: 농.산.어촌 체험입니다. 해당 관광지는 기준월(10.0) 동안 총 551.0명의 방문자를 기록했습니다. 2월 한 달 동안 45.0명이 방문했습니다. 요일별 방문자수는 월요일 9.0명, 화요일 3.0명, 수요일 7.0명, 목요일 2.0명, 금요일 8.0명, 토요일 4.0명, 일요일 12.0명입니다.",33.5310269077995,126.843267842652
관덕정,제주특별자치도 제주시 관덕로 19 (삼도이동),제주시,관광지,인문(문화/예술/역사),역사관광지,고궁,5642.0,10.0,397.0,69.0,61.0,52.0,48.0,53.0,52.0,62.0,"'관덕정'은/는 제주특별자치도 제주시 관덕로 19 (삼도이동)에 위치한 관광지로, 관광지에 속하며, 대분류: 인문(문화/예술/역사), 중분류: 역사관광지, 소분류: 고궁입니다. 해당 관광지는 기준월(10.0) 동안 총 5642.0명의 방문자를 기록했습니다. 2월 한 달 동안 397.0명이 방문했습니다. 요일별 방문자수는 월요일 69.0명, 화요일 61.0명, 수요일 52.0명, 목요일 48.0명, 금요일 53.0명, 토요일 52.0명, 일요일 62.0명입니다.",33.5133704,126.5214334
관음사,제주특별자치도 제주시 산록북로 660 (아라일동),제주시,관광지,인문(문화/예술/역사),역사관광지,사찰,1809.0,10.0,147.0,23.0,22.0,30.0,19.0,20.0,11.0,22.0,"'관음사'은/는 제주특별자치도 제주시 산록북로 660 (아라일동)에 위치한 관광지로, 관광지에 속하며, 대분류: 인문(문화/예술/역사), 중분류: 역사관광지, 소분류: 사찰입니다. 해당 관광지는 기준월(10.0) 동안 총 1809.0명의 방문자를 기록했습니다. 2월 한 달 동안 147.0명이 방문했습니다. 요일별 방문자수는 월요일 23.0명, 화요일 22.0명, 수요일 30.0명, 목요일 19.0명, 금요일 20.0명, 토요일 11.0명, 일요일 22.0명입니다.",33.4237942,126.5583908
금능포구,제주특별자치도 제주시 한림읍 금능리 ,제주시,관광지,인문(문화/예술/역사),체험관광지,농.산.어촌 체험,457.0,10.0,38.0,2.0,9.0,3.0,3.0,7.0,5.0,9.0,"'금능포구'은/는 제주특별자치도 제주시 한림읍 금능리 에 위치한 관광지로, 관광지에 속하며, 대분류: 인문(문화/예술/역사), 중분류: 체험관광지, 소분류: 농.산.어촌 체험입니다. 해당 관광지는 기준월(10.0) 동안 총 457.0명의 방문자를 기록했습니다. 2월 한 달 동안 38.0명이 방문했습니다. 요일별 방문자수는 월요일 2.0명, 화요일 9.0명, 수요일 3.0명, 목요일 3.0명, 금요일 7.0명, 토요일 5.0명, 일요일 9.0명입니다.",33.3700283,126.2392054
금룡사,제주특별자치도 제주시 구좌읍 김녕로 148-11 (구좌읍),제주시,관광지,인문(문화/예술/역사),역사관광지,사찰,478.0,10.0,30.0,6.0,2.0,4.0,3.0,3.0,4.0,8.0,"'금룡사'은/는 제주특별자치도 제주시 구좌읍 김녕로 148-11 (구좌읍)에 위치한 관광지로, 관광지에 속하며, 대분류: 인문(문화/예술/역사), 중분류: 역사관광지, 소분류: 사찰입니다. 해당 관광지는 기준월(10.0) 동안 총 478.0명의 방문자를 기록했습니다. 2월 한 달 동안 30.0명이 방문했습니다. 요일별 방문자수는 월요일 6.0명, 화요일 2.0명, 수요일 4.0명, 목요일 3.0명, 금요일 3.0명, 토요일 4.0명, 일요일 8.0명입니다.",33.553856,126.7535423
금호리조트제주,제주특별자치도 서귀포시 남원읍 태위로 522-12 ,서귀포시,숙박,인문(문화/예술/역사),휴양관광지,관광단지,1515.0,10.0,79.0,13.0,11.0,12.0,13.0,8.0,8.0,14.0,"'금호리조트제주'은/는 제주특별자치도 서귀포시 남원읍 태위로 522-12 에 위치한 관광지로, 숙박에 속하며, 대분류: 인문(문화/예술/역사), 중분류: 휴양관광지, 소분류: 관광단지입니다. 해당 관광지는 기준월(10.0) 동안 총 1515.0명의 방문자를 기록했습니다. 2월 한 달 동안 79.0명이 방문했습니다. 요일별 방문자수는 월요일 13.0명, 화요일 11.0명, 수요일 12.0명, 목요일 13.0명, 금요일 8.0명, 토요일 8.0명, 일요일 14.0명입니다.",33.2729991,126.701485
김녕사굴,제주특별자치도 제주시 구좌읍 덕평로 392-1 ,제주시,관광지,자연,자연관광지,동굴,2982.0,10.0,202.0,44.0,30.0,37.0,17.0,17.0,22.0,35.0,"'김녕사굴'은/는 제주특별자치도 제주시 구좌읍 덕평로 392-1 에 위치한 관광지로, 관광지에 속하며, 대분류: 자연, 중분류: 자연관광지, 소분류: 동굴입니다. 해당 관광지는 기준월(10.0) 동안 총 2982.0명의 방문자를 기록했습니다. 2월 한 달 동안 202.0명이 방문했습니다. 요일별 방문자수는 월요일 44.0명, 화요일 30.0명, 수요일 37.0명, 목요일 17.0명, 금요일 17.0명, 토요일 22.0명, 일요일 35.0명입니다.",33.5010103,126.7736187
노리매공원,제주특별자치도 서귀포시 대정읍 중산간서로 2260-15 ,서귀포시,관광지,인문(문화/예술/역사),휴양관광지,공원,3274.0,10.0,220.0,36.0,38.0,30.0,24.0,31.0,24.0,37.0,"'노리매공원'은/는 제주특별자치도 서귀포시 대정읍 중산간서로 2260-15 에 위치한 관광지로, 관광지에 속하며, 대분류: 인문(문화/예술/역사), 중분류: 휴양관광지, 소분류: 공원입니다. 해당 관광지는 기준월(10.0) 동안 총 3274.0명의 방문자를 기록했습니다. 2월 한 달 동안 220.0명이 방문했습니다. 요일별 방문자수는 월요일 36.0명, 화요일 38.0명, 수요일 30.0명, 목요일 24.0명, 금요일 31.0명, 토요일 24.0명, 일요일 37.0명입니다.",33.2831505,126.2873239
누웨마루거리,제주특별자치도 제주시 신광로 47 (연동) ,제주시,관광지,인문(문화/예술/역사),체험관광지,이색거리,2082.0,10.0,184.0,25.0,35.0,26.0,26.0,26.0,20.0,26.0,"'누웨마루거리'은/는 제주특별자치도 제주시 신광로 47 (연동) 에 위치한 관광지로, 관광지에 속하며, 대분류: 인문(문화/예술/역사), 중분류: 체험관광지, 소분류: 이색거리입니다. 해당 관광지는 기준월(10.0) 동안 총 2082.0명의 방문자를 기록했습니다. 2월 한 달 동안 184.0명이 방문했습니다. 요일별 방문자수는 월요일 25.0명, 화요일 35.0명, 수요일 26.0명, 목요일 26.0명, 금요일 26.0명, 토요일 20.0명, 일요일 26.0명입니다.",33.4877543819398,126.490293916618
다이나믹메이즈,제주특별자치도 서귀포시 표선면 번영로 2644 ,서귀포시,관광지,인문(문화/예술/역사),휴양관광지,테마공원,7386.0,10.0,527.0,114.0,94.0,74.0,75.0,56.0,38.0,76.0,"'다이나믹메이즈'은/는 제주특별자치도 서귀포시 표선면 번영로 2644 에 위치한 관광지로, 관광지에 속하며, 대분류: 인문(문화/예술/역사), 중분류: 휴양관광지, 소분류: 테마공원입니다. 해당 관광지는 기준월(10.0) 동안 총 7386.0명의 방문자를 기록했습니다. 2월 한 달 동안 527.0명이 방문했습니다. 요일별 방문자수는 월요일 114.0명, 화요일 94.0명, 수요일 74.0명, 목요일 75.0명, 금요일 56.0명, 토요일 38.0명, 일요일 76.0명입니다.",33.3991423,126.7851051
답다니탑망대,제주특별자치도 제주시 우도면 우도해안길 602 ,제주시,관광지,인문(문화/예술/역사),건축/조형물,유명건물,713.0,10.0,65.0,6.0,10.0,10.0,11.0,11.0,7.0,10.0,"'답다니탑망대'은/는 제주특별자치도 제주시 우도면 우도해안길 602 에 위치한 관광지로, 관광지에 속하며, 대분류: 인문(문화/예술/역사), 중분류: 건축/조형물, 소분류: 유명건물입니다. 해당 관광지는 기준월(10.0) 동안 총 713.0명의 방문자를 기록했습니다. 2월 한 달 동안 65.0명이 방문했습니다. 요일별 방문자수는 월요일 6.0명, 화요일 10.0명, 수요일 10.0명, 목요일 11.0명, 금요일 11.0명, 토요일 7.0명, 일요일 10.0명입니다.",33.524420713702,126.952546624477
대정향교,제주특별자치도 서귀포시 안덕면 향교로 165-17 ,서귀포시,관광지,인문(문화/예술/역사),역사관광지,유적지/사적지,1020.0,10.0,91.0,10.0,7.0,23.0,17.0,9.0,5.0,20.0,"'대정향교'은/는 제주특별자치도 서귀포시 안덕면 향교로 165-17 에 위치한 관광지로, 관광지에 속하며, 대분류: 인문(문화/예술/역사), 중분류: 역사관광지, 소분류: 유적지/사적지입니다. 해당 관광지는 기준월(10.0) 동안 총 1020.0명의 방문자를 기록했습니다. 2월 한 달 동안 91.0명이 방문했습니다. 요일별 방문자수는 월요일 10.0명, 화요일 7.0명, 수요일 23.0명, 목요일 17.0명, 금요일 9.0명, 토요일 5.0명, 일요일 20.0명입니다.",33.2394319,126.2883184
더마파크,제주특별자치도 제주시 한림읍 월림7길 155 ,제주시,관광지,인문(문화/예술/역사),휴양관광지,테마공원,3972.0,10.0,342.0,42.0,55.0,52.0,53.0,47.0,33.0,60.0,"'더마파크'은/는 제주특별자치도 제주시 한림읍 월림7길 155 에 위치한 관광지로, 관광지에 속하며, 대분류: 인문(문화/예술/역사), 중분류: 휴양관광지, 소분류: 테마공원입니다. 해당 관광지는 기준월(10.0) 동안 총 3972.0명의 방문자를 기록했습니다. 2월 한 달 동안 342.0명이 방문했습니다. 요일별 방문자수는 월요일 42.0명, 화요일 55.0명, 수요일 52.0명, 목요일 53.0명, 금요일 47.0명, 토요일 33.0명, 일요일 60.0명입니다.",33.3508962,126.2482536
도치돌알파카목장,제주특별자치도 제주시 애월읍 도치돌길 293 ,제주시,관광지,인문(문화/예술/역사),체험관광지,농.산.어촌 체험,1675.0,10.0,84.0,11.0,14.0,14.0,9.0,17.0,10.0,9.0,"'도치돌알파카목장'은/는 제주특별자치도 제주시 애월읍 도치돌길 293 에 위치한 관광지로, 관광지에 속하며, 대분류: 인문(문화/예술/역사), 중분류: 체험관광지, 소분류: 농.산.어촌 체험입니다. 해당 관광지는 기준월(10.0) 동안 총 1675.0명의 방문자를 기록했습니다. 2월 한 달 동안 84.0명이 방문했습니다. 요일별 방문자수는 월요일 11.0명, 화요일 14.0명, 수요일 14.0명, 목요일 9.0명, 금요일 17.0명, 토요일 10.0명, 일요일 9.0명입니다.",33.4099506881118,126.36573023443
두맹이골목,제주특별자치도 제주시 일도이동 1006-11,제주시,관광지,인문(문화/예술/역사),체험관광지,이색거리,741.0,10.0,55.0,6.0,10.0,6.0,13.0,5.0,3.0,12.0,"'두맹이골목'은/는 제주특별자치도 제주시 일도이동 1006-11에 위치한 관광지로, 관광지에 속하며, 대분류: 인문(문화/예술/역사), 중분류: 체험관광지, 소분류: 이색거리입니다. 해당 관광지는 기준월(10.0) 동안 총 741.0명의 방문자를 기록했습니다. 2월 한 달 동안 55.0명이 방문했습니다. 요일별 방문자수는 월요일 6.0명, 화요일 10.0명, 수요일 6.0명, 목요일 13.0명, 금요일 5.0명, 토요일 3.0명, 일요일 12.0명입니다.",33.5120308,126.5349279
라온호텔앤리조트,제주특별자치도 제주시 한림읍 금능남로 127 ,제주시,관광지,인문(문화/예술/역사),휴양관광지,관광단지,619.0,10.0,21.0,4.0,2.0,3.0,3.0,1.0,6.0,2.0,"'라온호텔앤리조트'은/는 제주특별자치도 제주시 한림읍 금능남로 127 에 위치한 관광지로, 관광지에 속하며, 대분류: 인문(문화/예술/역사), 중분류: 휴양관광지, 소분류: 관광단지입니다. 해당 관광지는 기준월(10.0) 동안 총 619.0명의 방문자를 기록했습니다. 2월 한 달 동안 21.0명이 방문했습니다. 요일별 방문자수는 월요일 4.0명, 화요일 2.0명, 수요일 3.0명, 목요일 3.0명, 금요일 1.0명, 토요일 6.0명, 일요일 2.0명입니다.",33.3810152,126.2411754
라헨느리조트,제주특별자치도 제주시 명림로 384 ,제주시,숙박,인문(문화/예술/역사),휴양관광지,관광단지,364.0,10.0,18.0,1.0,2.0,3.0,3.0,2.0,3.0,4.0,"'라헨느리조트'은/는 제주특별자치도 제주시 명림로 384 에 위치한 관광지로, 숙박에 속하며, 대분류: 인문(문화/예술/역사), 중분류: 휴양관광지, 소분류: 관광단지입니다. 해당 관광지는 기준월(10.0) 동안 총 364.0명의 방문자를 기록했습니다. 2월 한 달 동안 18.0명이 방문했습니다. 요일별 방문자수는 월요일 1.0명, 화요일 2.0명, 수요일 3.0명, 목요일 3.0명, 금요일 2.0명, 토요일 3.0명, 일요일 4.0명입니다.",33.4521555,126.6155076
만장굴,제주특별자치도 제주시 구좌읍 만장굴길 182 (구좌읍),제주시,관광지,자연,자연관광지,동굴,43227.0,10.0,3539.0,609.0,619.0,503.0,573.0,463.0,334.0,438.0,"'만장굴'은/는 제주특별자치도 제주시 구좌읍 만장굴길 182 (구좌읍)에 위치한 관광지로, 관광지에 속하며, 대분류: 자연, 중분류: 자연관광지, 소분류: 동굴입니다. 해당 관광지는 기준월(10.0) 동안 총 43227.0명의 방문자를 기록했습니다. 2월 한 달 동안 3539.0명이 방문했습니다. 요일별 방문자수는 월요일 609.0명, 화요일 619.0명, 수요일 503.0명, 목요일 573.0명, 금요일 463.0명, 토요일 334.0명, 일요일 438.0명입니다.",33.52819720000001,126.7717618
맥파이브루어리,제주특별자치도 제주시 동회천1길 23 (회천동),제주시,관광지,인문(문화/예술/역사),산업관광지,식음료,823.0,10.0,51.0,6.0,8.0,8.0,3.0,7.0,4.0,15.0,"'맥파이브루어리'은/는 제주특별자치도 제주시 동회천1길 23 (회천동)에 위치한 관광지로, 관광지에 속하며, 대분류: 인문(문화/예술/역사), 중분류: 산업관광지, 소분류: 식음료입니다. 해당 관광지는 기준월(10.0) 동안 총 823.0명의 방문자를 기록했습니다. 2월 한 달 동안 51.0명이 방문했습니다. 요일별 방문자수는 월요일 6.0명, 화요일 8.0명, 수요일 8.0명, 목요일 3.0명, 금요일 7.0명, 토요일 4.0명, 일요일 15.0명입니다.",33.503206117821,126.61717764321
메이즈랜드,제주특별자치도 제주시 구좌읍 비자림로 2134-47 ,제주시,관광지,인문(문화/예술/역사),휴양관광지,테마공원,8368.0,10.0,793.0,141.0,112.0,130.0,143.0,85.0,83.0,99.0,"'메이즈랜드'은/는 제주특별자치도 제주시 구좌읍 비자림로 2134-47 에 위치한 관광지로, 관광지에 속하며, 대분류: 인문(문화/예술/역사), 중분류: 휴양관광지, 소분류: 테마공원입니다. 해당 관광지는 기준월(10.0) 동안 총 8368.0명의 방문자를 기록했습니다. 2월 한 달 동안 793.0명이 방문했습니다. 요일별 방문자수는 월요일 141.0명, 화요일 112.0명, 수요일 130.0명, 목요일 143.0명, 금요일 85.0명, 토요일 83.0명, 일요일 99.0명입니다.",33.4743111,126.7771579
명월성지,제주특별자치도 제주시 한림읍 명월리 2236 ,제주시,관광지,인문(문화/예술/역사),역사관광지,성,1048.0,10.0,74.0,4.0,20.0,7.0,13.0,11.0,10.0,9.0,"'명월성지'은/는 제주특별자치도 제주시 한림읍 명월리 2236 에 위치한 관광지로, 관광지에 속하며, 대분류: 인문(문화/예술/역사), 중분류: 역사관광지, 소분류: 성입니다. 해당 관광지는 기준월(10.0) 동안 총 1048.0명의 방문자를 기록했습니다. 2월 한 달 동안 74.0명이 방문했습니다. 요일별 방문자수는 월요일 4.0명, 화요일 20.0명, 수요일 7.0명, 목요일 13.0명, 금요일 11.0명, 토요일 10.0명, 일요일 9.0명입니다.",33.4004982,126.2609256
물뫼힐링팜,제주특별자치도 제주시 애월읍 예원로 51 ,제주시,관광지,인문(문화/예술/역사),체험관광지,이색체험,987.0,10.0,88.0,11.0,16.0,4.0,15.0,15.0,8.0,19.0,"'물뫼힐링팜'은/는 제주특별자치도 제주시 애월읍 예원로 51 에 위치한 관광지로, 관광지에 속하며, 대분류: 인문(문화/예술/역사), 중분류: 체험관광지, 소분류: 이색체험입니다. 해당 관광지는 기준월(10.0) 동안 총 987.0명의 방문자를 기록했습니다. 2월 한 달 동안 88.0명이 방문했습니다. 요일별 방문자수는 월요일 11.0명, 화요일 16.0명, 수요일 4.0명, 목요일 15.0명, 금요일 15.0명, 토요일 8.0명, 일요일 19.0명입니다.",33.4642593,126.3965364
미천굴,제주특별자치도 서귀포시 성산읍 중산간동로 4150-30 ,서귀포시,관광지,자연,자연관광지,동굴,1936.0,10.0,103.0,22.0,12.0,19.0,20.0,11.0,6.0,13.0,"'미천굴'은/는 제주특별자치도 서귀포시 성산읍 중산간동로 4150-30 에 위치한 관광지로, 관광지에 속하며, 대분류: 자연, 중분류: 자연관광지, 소분류: 동굴입니다. 해당 관광지는 기준월(10.0) 동안 총 1936.0명의 방문자를 기록했습니다. 2월 한 달 동안 103.0명이 방문했습니다. 요일별 방문자수는 월요일 22.0명, 화요일 12.0명, 수요일 19.0명, 목요일 20.0명, 금요일 11.0명, 토요일 6.0명, 일요일 13.0명입니다.",33.3831862,126.8418892
발자국화석공원,제주특별자치도 서귀포시 대정읍 형제해안로 192 ,서귀포시,관광지,자연,관광자원,기암괴석,1281.0,10.0,103.0,17.0,15.0,17.0,11.0,7.0,15.0,21.0,"'발자국화석공원'은/는 제주특별자치도 서귀포시 대정읍 형제해안로 192 에 위치한 관광지로, 관광지에 속하며, 대분류: 자연, 중분류: 관광자원, 소분류: 기암괴석입니다. 해당 관광지는 기준월(10.0) 동안 총 1281.0명의 방문자를 기록했습니다. 2월 한 달 동안 103.0명이 방문했습니다. 요일별 방문자수는 월요일 17.0명, 화요일 15.0명, 수요일 17.0명, 목요일 11.0명, 금요일 7.0명, 토요일 15.0명, 일요일 21.0명입니다.",33.2173222,126.2930456
방주교회,제주특별자치도 서귀포시 안덕면 산록남로762번길 113 ,서귀포시,관광지,인문(문화/예술/역사),역사관광지,종교성지,13913.0,10.0,1199.0,174.0,184.0,156.0,176.0,148.0,128.0,233.0,"'방주교회'은/는 제주특별자치도 서귀포시 안덕면 산록남로762번길 113 에 위치한 관광지로, 관광지에 속하며, 대분류: 인문(문화/예술/역사), 중분류: 역사관광지, 소분류: 종교성지입니다. 해당 관광지는 기준월(10.0) 동안 총 13913.0명의 방문자를 기록했습니다. 2월 한 달 동안 1199.0명이 방문했습니다. 요일별 방문자수는 월요일 174.0명, 화요일 184.0명, 수요일 156.0명, 목요일 176.0명, 금요일 148.0명, 토요일 128.0명, 일요일 233.0명입니다.",33.3051258,126.3872587
백제사,제주특별자치도 제주시 애월읍 광령남6길 54 (애월읍),제주시,관광지,인문(문화/예술/역사),역사관광지,사찰,432.0,10.0,30.0,5.0,1.0,3.0,2.0,4.0,6.0,9.0,"'백제사'은/는 제주특별자치도 제주시 애월읍 광령남6길 54 (애월읍)에 위치한 관광지로, 관광지에 속하며, 대분류: 인문(문화/예술/역사), 중분류: 역사관광지, 소분류: 사찰입니다. 해당 관광지는 기준월(10.0) 동안 총 432.0명의 방문자를 기록했습니다. 2월 한 달 동안 30.0명이 방문했습니다. 요일별 방문자수는 월요일 5.0명, 화요일 1.0명, 수요일 3.0명, 목요일 2.0명, 금요일 4.0명, 토요일 6.0명, 일요일 9.0명입니다.",33.4487759,126.4242169
법화사,제주특별자치도 서귀포시 하원북로35번길 15-28 법화사 ,서귀포시,관광지,인문(문화/예술/역사),역사관광지,사찰,1620.0,10.0,152.0,33.0,22.0,22.0,15.0,9.0,16.0,35.0,"'법화사'은/는 제주특별자치도 서귀포시 하원북로35번길 15-28 법화사 에 위치한 관광지로, 관광지에 속하며, 대분류: 인문(문화/예술/역사), 중분류: 역사관광지, 소분류: 사찰입니다. 해당 관광지는 기준월(10.0) 동안 총 1620.0명의 방문자를 기록했습니다. 2월 한 달 동안 152.0명이 방문했습니다. 요일별 방문자수는 월요일 33.0명, 화요일 22.0명, 수요일 22.0명, 목요일 15.0명, 금요일 9.0명, 토요일 16.0명, 일요일 35.0명입니다.",33.2651982,126.4577155
별방진,제주특별자치도 제주시 구좌읍 하도리 3354 (구좌읍),제주시,관광지,인문(문화/예술/역사),역사관광지,성,2260.0,10.0,89.0,13.0,10.0,14.0,10.0,10.0,8.0,24.0,"'별방진'은/는 제주특별자치도 제주시 구좌읍 하도리 3354 (구좌읍)에 위치한 관광지로, 관광지에 속하며, 대분류: 인문(문화/예술/역사), 중분류: 역사관광지, 소분류: 성입니다. 해당 관광지는 기준월(10.0) 동안 총 2260.0명의 방문자를 기록했습니다. 2월 한 달 동안 89.0명이 방문했습니다. 요일별 방문자수는 월요일 13.0명, 화요일 10.0명, 수요일 14.0명, 목요일 10.0명, 금요일 10.0명, 토요일 8.0명, 일요일 24.0명입니다.",33.5264493,126.8830512
보롬왓,제주특별자치도 서귀포시 번영로 2350-104 ,서귀포시,관광지,인문(문화/예술/역사),산업관광지,기타,17967.0,10.0,1617.0,292.0,271.0,158.0,226.0,243.0,172.0,255.0,"'보롬왓'은/는 제주특별자치도 서귀포시 번영로 2350-104 에 위치한 관광지로, 관광지에 속하며, 대분류: 인문(문화/예술/역사), 중분류: 산업관광지, 소분류: 기타입니다. 해당 관광지는 기준월(10.0) 동안 총 17967.0명의 방문자를 기록했습니다. 2월 한 달 동안 1617.0명이 방문했습니다. 요일별 방문자수는 월요일 292.0명, 화요일 271.0명, 수요일 158.0명, 목요일 226.0명, 금요일 243.0명, 토요일 172.0명, 일요일 255.0명입니다.",33.4134884,126.7525669
보통청춘기록실청춘사진관,제주특별자치도 제주시 한림읍 일주서로 5867 ,제주시,관광지,인문(문화/예술/역사),체험관광지,이색체험,786.0,10.0,35.0,9.0,5.0,3.0,4.0,6.0,3.0,5.0,"'보통청춘기록실청춘사진관'은/는 제주특별자치도 제주시 한림읍 일주서로 5867 에 위치한 관광지로, 관광지에 속하며, 대분류: 인문(문화/예술/역사), 중분류: 체험관광지, 소분류: 이색체험입니다. 해당 관광지는 기준월(10.0) 동안 총 786.0명의 방문자를 기록했습니다. 2월 한 달 동안 35.0명이 방문했습니다. 요일별 방문자수는 월요일 9.0명, 화요일 5.0명, 수요일 3.0명, 목요일 4.0명, 금요일 6.0명, 토요일 3.0명, 일요일 5.0명입니다.",33.4436616234369,126.293059624787
불탑사,제주특별자치도 제주시 원당로16길 41 (삼양일동),제주시,관광지,인문(문화/예술/역사),역사관광지,사찰,821.0,10.0,48.0,11.0,3.0,5.0,5.0,5.0,6.0,13.0,"'불탑사'은/는 제주특별자치도 제주시 원당로16길 41 (삼양일동)에 위치한 관광지로, 관광지에 속하며, 대분류: 인문(문화/예술/역사), 중분류: 역사관광지, 소분류: 사찰입니다. 해당 관광지는 기준월(10.0) 동안 총 821.0명의 방문자를 기록했습니다. 2월 한 달 동안 48.0명이 방문했습니다. 요일별 방문자수는 월요일 11.0명, 화요일 3.0명, 수요일 5.0명, 목요일 5.0명, 금요일 5.0명, 토요일 6.0명, 일요일 13.0명입니다.",33.5290725932684,126.598418345536
비스타리조트,제주특별자치도 제주시 서해안로 74 ,제주시,숙박,인문(문화/예술/역사),휴양관광지,관광단지,191.0,10.0,12.0,2.0,1.0,2.0,2.0,1.0,2.0,2.0,"'비스타리조트'은/는 제주특별자치도 제주시 서해안로 74 에 위치한 관광지로, 숙박에 속하며, 대분류: 인문(문화/예술/역사), 중분류: 휴양관광지, 소분류: 관광단지입니다. 해당 관광지는 기준월(10.0) 동안 총 191.0명의 방문자를 기록했습니다. 2월 한 달 동안 12.0명이 방문했습니다. 요일별 방문자수는 월요일 2.0명, 화요일 1.0명, 수요일 2.0명, 목요일 2.0명, 금요일 1.0명, 토요일 2.0명, 일요일 2.0명입니다.",33.5031197,126.457563
사라봉공원,제주특별자치도 제주시 사라봉동길 74 ,제주시,관광지,인문(문화/예술/역사),휴양관광지,공원,1849.0,10.0,143.0,22.0,25.0,18.0,14.0,21.0,19.0,24.0,"'사라봉공원'은/는 제주특별자치도 제주시 사라봉동길 74 에 위치한 관광지로, 관광지에 속하며, 대분류: 인문(문화/예술/역사), 중분류: 휴양관광지, 소분류: 공원입니다. 해당 관광지는 기준월(10.0) 동안 총 1849.0명의 방문자를 기록했습니다. 2월 한 달 동안 143.0명이 방문했습니다. 요일별 방문자수는 월요일 22.0명, 화요일 25.0명, 수요일 18.0명, 목요일 14.0명, 금요일 21.0명, 토요일 19.0명, 일요일 24.0명입니다.",33.5177204,126.5457574
산방굴사,제주특별자치도 서귀포시 안덕면 산방로 218-12 ,서귀포시,관광지,인문(문화/예술/역사),역사관광지,사찰,10646.0,10.0,776.0,150.0,131.0,80.0,99.0,100.0,84.0,132.0,"'산방굴사'은/는 제주특별자치도 서귀포시 안덕면 산방로 218-12 에 위치한 관광지로, 관광지에 속하며, 대분류: 인문(문화/예술/역사), 중분류: 역사관광지, 소분류: 사찰입니다. 해당 관광지는 기준월(10.0) 동안 총 10646.0명의 방문자를 기록했습니다. 2월 한 달 동안 776.0명이 방문했습니다. 요일별 방문자수는 월요일 150.0명, 화요일 131.0명, 수요일 80.0명, 목요일 99.0명, 금요일 100.0명, 토요일 84.0명, 일요일 132.0명입니다.",33.2423934,126.3139575
산방산랜드,제주특별자치도 서귀포시 안덕면 사계리 117-2,서귀포시,관광지,인문(문화/예술/역사),휴양관광지,테마공원,3336.0,10.0,373.0,67.0,65.0,29.0,29.0,23.0,60.0,100.0,"'산방산랜드'은/는 제주특별자치도 서귀포시 안덕면 사계리 117-2에 위치한 관광지로, 관광지에 속하며, 대분류: 인문(문화/예술/역사), 중분류: 휴양관광지, 소분류: 테마공원입니다. 해당 관광지는 기준월(10.0) 동안 총 3336.0명의 방문자를 기록했습니다. 2월 한 달 동안 373.0명이 방문했습니다. 요일별 방문자수는 월요일 67.0명, 화요일 65.0명, 수요일 29.0명, 목요일 29.0명, 금요일 23.0명, 토요일 60.0명, 일요일 100.0명입니다.",33.2341156018697,126.311707416564
삼매봉,제주특별자치도 서귀포시 서홍동 820-2,서귀포시,관광지,인문(문화/예술/역사),휴양관광지,공원,630.0,10.0,44.0,6.0,5.0,6.0,9.0,6.0,7.0,5.0,"'삼매봉'은/는 제주특별자치도 서귀포시 서홍동 820-2에 위치한 관광지로, 관광지에 속하며, 대분류: 인문(문화/예술/역사), 중분류: 휴양관광지, 소분류: 공원입니다. 해당 관광지는 기준월(10.0) 동안 총 630.0명의 방문자를 기록했습니다. 2월 한 달 동안 44.0명이 방문했습니다. 요일별 방문자수는 월요일 6.0명, 화요일 5.0명, 수요일 6.0명, 목요일 9.0명, 금요일 6.0명, 토요일 7.0명, 일요일 5.0명입니다.",33.2437181,126.5462844
서귀다원,제주특별자치도 서귀포시 516로 717 (상효동),서귀포시,관광지,인문(문화/예술/역사),산업관광지,기타,4111.0,10.0,236.0,35.0,21.0,37.0,38.0,32.0,32.0,41.0,"'서귀다원'은/는 제주특별자치도 서귀포시 516로 717 (상효동)에 위치한 관광지로, 관광지에 속하며, 대분류: 인문(문화/예술/역사), 중분류: 산업관광지, 소분류: 기타입니다. 해당 관광지는 기준월(10.0) 동안 총 4111.0명의 방문자를 기록했습니다. 2월 한 달 동안 236.0명이 방문했습니다. 요일별 방문자수는 월요일 35.0명, 화요일 21.0명, 수요일 37.0명, 목요일 38.0명, 금요일 32.0명, 토요일 32.0명, 일요일 41.0명입니다.",33.3211576,126.5716701
서귀본향당,제주특별자치도 서귀포시 이중섭로 23-11 (서귀동),서귀포시,관광지,인문(문화/예술/역사),역사관광지,유적지/사적지,783.0,10.0,35.0,6.0,7.0,5.0,4.0,3.0,5.0,5.0,"'서귀본향당'은/는 제주특별자치도 서귀포시 이중섭로 23-11 (서귀동)에 위치한 관광지로, 관광지에 속하며, 대분류: 인문(문화/예술/역사), 중분류: 역사관광지, 소분류: 유적지/사적지입니다. 해당 관광지는 기준월(10.0) 동안 총 783.0명의 방문자를 기록했습니다. 2월 한 달 동안 35.0명이 방문했습니다. 요일별 방문자수는 월요일 6.0명, 화요일 7.0명, 수요일 5.0명, 목요일 4.0명, 금요일 3.0명, 토요일 5.0명, 일요일 5.0명입니다.",33.2461722,126.5647482
서귀포치유의숲,제주특별자치도 서귀포시 산록남로 2271 (호근동),서귀포시,관광지,인문(문화/예술/역사),휴양관광지,헬스투어,11271.0,10.0,576.0,101.0,89.0,86.0,92.0,84.0,54.0,70.0,"'서귀포치유의숲'은/는 제주특별자치도 서귀포시 산록남로 2271 (호근동)에 위치한 관광지로, 관광지에 속하며, 대분류: 인문(문화/예술/역사), 중분류: 휴양관광지, 소분류: 헬스투어입니다. 해당 관광지는 기준월(10.0) 동안 총 11271.0명의 방문자를 기록했습니다. 2월 한 달 동안 576.0명이 방문했습니다. 요일별 방문자수는 월요일 101.0명, 화요일 89.0명, 수요일 86.0명, 목요일 92.0명, 금요일 84.0명, 토요일 54.0명, 일요일 70.0명입니다.",33.3025489,126.5245747
서프라이즈테마파크,제주특별자치도 제주시 조천읍 남조로 2243 ,제주시,관광지,인문(문화/예술/역사),휴양관광지,테마공원,1994.0,10.0,140.0,27.0,23.0,13.0,21.0,13.0,20.0,23.0,"'서프라이즈테마파크'은/는 제주특별자치도 제주시 조천읍 남조로 2243 에 위치한 관광지로, 관광지에 속하며, 대분류: 인문(문화/예술/역사), 중분류: 휴양관광지, 소분류: 테마공원입니다. 해당 관광지는 기준월(10.0) 동안 총 1994.0명의 방문자를 기록했습니다. 2월 한 달 동안 140.0명이 방문했습니다. 요일별 방문자수는 월요일 27.0명, 화요일 23.0명, 수요일 13.0명, 목요일 21.0명, 금요일 13.0명, 토요일 20.0명, 일요일 23.0명입니다.",33.4651605,126.6592588
선운정사,제주특별자치도 제주시 애월읍 구몰동길 65 ,제주시,관광지,인문(문화/예술/역사),역사관광지,사찰,2945.0,10.0,191.0,25.0,27.0,26.0,32.0,31.0,20.0,30.0,"'선운정사'은/는 제주특별자치도 제주시 애월읍 구몰동길 65 에 위치한 관광지로, 관광지에 속하며, 대분류: 인문(문화/예술/역사), 중분류: 역사관광지, 소분류: 사찰입니다. 해당 관광지는 기준월(10.0) 동안 총 2945.0명의 방문자를 기록했습니다. 2월 한 달 동안 191.0명이 방문했습니다. 요일별 방문자수는 월요일 25.0명, 화요일 27.0명, 수요일 26.0명, 목요일 32.0명, 금요일 31.0명, 토요일 20.0명, 일요일 30.0명입니다.",33.4293512,126.3070877
성김대건신부표착기념관,제주특별자치도 제주시 한경면 용수1길 108 ,제주시,문화시설,인문(문화/예술/역사),역사관광지,종교성지,1418.0,10.0,135.0,18.0,14.0,18.0,20.0,17.0,15.0,33.0,"'성김대건신부표착기념관'은/는 제주특별자치도 제주시 한경면 용수1길 108 에 위치한 관광지로, 문화시설에 속하며, 대분류: 인문(문화/예술/역사), 중분류: 역사관광지, 소분류: 종교성지입니다. 해당 관광지는 기준월(10.0) 동안 총 1418.0명의 방문자를 기록했습니다. 2월 한 달 동안 135.0명이 방문했습니다. 요일별 방문자수는 월요일 18.0명, 화요일 14.0명, 수요일 18.0명, 목요일 20.0명, 금요일 17.0명, 토요일 15.0명, 일요일 33.0명입니다.",33.322643,126.167682
성읍녹차마을,제주특별자치도 서귀포시 중산간동로 4778 녹차가공공장 ,서귀포시,관광지,인문(문화/예술/역사),체험관광지,농.산.어촌 체험,1271.0,10.0,78.0,15.0,12.0,12.0,13.0,8.0,6.0,12.0,"'성읍녹차마을'은/는 제주특별자치도 서귀포시 중산간동로 4778 녹차가공공장 에 위치한 관광지로, 관광지에 속하며, 대분류: 인문(문화/예술/역사), 중분류: 체험관광지, 소분류: 농.산.어촌 체험입니다. 해당 관광지는 기준월(10.0) 동안 총 1271.0명의 방문자를 기록했습니다. 2월 한 달 동안 78.0명이 방문했습니다. 요일별 방문자수는 월요일 15.0명, 화요일 12.0명, 수요일 12.0명, 목요일 13.0명, 금요일 8.0명, 토요일 6.0명, 일요일 12.0명입니다.",33.3810103,126.7901958
성읍랜드,제주특별자치도 서귀포시 표선면 번영로 2650 ,서귀포시,관광지,인문(문화/예술/역사),휴양관광지,테마공원,1912.0,10.0,115.0,27.0,15.0,11.0,17.0,11.0,15.0,19.0,"'성읍랜드'은/는 제주특별자치도 서귀포시 표선면 번영로 2650 에 위치한 관광지로, 관광지에 속하며, 대분류: 인문(문화/예술/역사), 중분류: 휴양관광지, 소분류: 테마공원입니다. 해당 관광지는 기준월(10.0) 동안 총 1912.0명의 방문자를 기록했습니다. 2월 한 달 동안 115.0명이 방문했습니다. 요일별 방문자수는 월요일 27.0명, 화요일 15.0명, 수요일 11.0명, 목요일 17.0명, 금요일 11.0명, 토요일 15.0명, 일요일 19.0명입니다.",33.398978,126.7869638
성읍민속마을,제주특별자치도 서귀포시 표선면 성읍정의현로 19 ,서귀포시,관광지,인문(문화/예술/역사),역사관광지,민속마을,8542.0,10.0,897.0,167.0,138.0,113.0,116.0,97.0,109.0,157.0,"'성읍민속마을'은/는 제주특별자치도 서귀포시 표선면 성읍정의현로 19 에 위치한 관광지로, 관광지에 속하며, 대분류: 인문(문화/예술/역사), 중분류: 역사관광지, 소분류: 민속마을입니다. 해당 관광지는 기준월(10.0) 동안 총 8542.0명의 방문자를 기록했습니다. 2월 한 달 동안 897.0명이 방문했습니다. 요일별 방문자수는 월요일 167.0명, 화요일 138.0명, 수요일 113.0명, 목요일 116.0명, 금요일 97.0명, 토요일 109.0명, 일요일 157.0명입니다.",33.3844862,126.8003558
성이시돌목장,제주특별자치도 제주시 한림읍 산록남로 53 ,제주시,관광지,인문(문화/예술/역사),체험관광지,농.산.어촌 체험,11292.0,10.0,1183.0,174.0,165.0,155.0,165.0,179.0,152.0,193.0,"'성이시돌목장'은/는 제주특별자치도 제주시 한림읍 산록남로 53 에 위치한 관광지로, 관광지에 속하며, 대분류: 인문(문화/예술/역사), 중분류: 체험관광지, 소분류: 농.산.어촌 체험입니다. 해당 관광지는 기준월(10.0) 동안 총 11292.0명의 방문자를 기록했습니다. 2월 한 달 동안 1183.0명이 방문했습니다. 요일별 방문자수는 월요일 174.0명, 화요일 165.0명, 수요일 155.0명, 목요일 165.0명, 금요일 179.0명, 토요일 152.0명, 일요일 193.0명입니다.",33.3459727,126.3215552
소노캄제주,제주특별자치도 서귀포시 표선면 일주동로 6347-17 ,서귀포시,숙박,인문(문화/예술/역사),휴양관광지,관광단지,1885.0,10.0,72.0,14.0,13.0,6.0,16.0,7.0,8.0,8.0,"'소노캄제주'은/는 제주특별자치도 서귀포시 표선면 일주동로 6347-17 에 위치한 관광지로, 숙박에 속하며, 대분류: 인문(문화/예술/역사), 중분류: 휴양관광지, 소분류: 관광단지입니다. 해당 관광지는 기준월(10.0) 동안 총 1885.0명의 방문자를 기록했습니다. 2월 한 달 동안 72.0명이 방문했습니다. 요일별 방문자수는 월요일 14.0명, 화요일 13.0명, 수요일 6.0명, 목요일 16.0명, 금요일 7.0명, 토요일 8.0명, 일요일 8.0명입니다.",33.3050378,126.7919081
소인국테마파크,제주특별자치도 서귀포시 안덕면 중산간서로 1878 ,서귀포시,관광지,인문(문화/예술/역사),휴양관광지,테마공원,3988.0,10.0,239.0,42.0,32.0,40.0,38.0,30.0,25.0,32.0,"'소인국테마파크'은/는 제주특별자치도 서귀포시 안덕면 중산간서로 1878 에 위치한 관광지로, 관광지에 속하며, 대분류: 인문(문화/예술/역사), 중분류: 휴양관광지, 소분류: 테마공원입니다. 해당 관광지는 기준월(10.0) 동안 총 3988.0명의 방문자를 기록했습니다. 2월 한 달 동안 239.0명이 방문했습니다. 요일별 방문자수는 월요일 42.0명, 화요일 32.0명, 수요일 40.0명, 목요일 38.0명, 금요일 30.0명, 토요일 25.0명, 일요일 32.0명입니다.",33.2903957,126.3226207
송악산진지동굴,제주특별자치도 서귀포시 대정읍 상모리 238 ,서귀포시,관광지,자연,자연관광지,동굴,2483.0,10.0,173.0,27.0,31.0,22.0,23.0,30.0,14.0,26.0,"'송악산진지동굴'은/는 제주특별자치도 서귀포시 대정읍 상모리 238 에 위치한 관광지로, 관광지에 속하며, 대분류: 자연, 중분류: 자연관광지, 소분류: 동굴입니다. 해당 관광지는 기준월(10.0) 동안 총 2483.0명의 방문자를 기록했습니다. 2월 한 달 동안 173.0명이 방문했습니다. 요일별 방문자수는 월요일 27.0명, 화요일 31.0명, 수요일 22.0명, 목요일 23.0명, 금요일 30.0명, 토요일 14.0명, 일요일 26.0명입니다.",33.1990931536649,126.29350293965
수목원테마파크,제주특별자치도 제주시 은수길 69 ,제주시,관광지,인문(문화/예술/역사),휴양관광지,테마공원,3236.0,10.0,228.0,40.0,29.0,43.0,32.0,35.0,15.0,34.0,"'수목원테마파크'은/는 제주특별자치도 제주시 은수길 69 에 위치한 관광지로, 관광지에 속하며, 대분류: 인문(문화/예술/역사), 중분류: 휴양관광지, 소분류: 테마공원입니다. 해당 관광지는 기준월(10.0) 동안 총 3236.0명의 방문자를 기록했습니다. 2월 한 달 동안 228.0명이 방문했습니다. 요일별 방문자수는 월요일 40.0명, 화요일 29.0명, 수요일 43.0명, 목요일 32.0명, 금요일 35.0명, 토요일 15.0명, 일요일 34.0명입니다.",33.4705937,126.4883601
순례자의교회,제주특별자치도 제주시 한경면 일주서로 3960-24 ,제주시,관광지,인문(문화/예술/역사),역사관광지,종교성지,2494.0,10.0,172.0,24.0,22.0,25.0,38.0,21.0,11.0,31.0,"'순례자의교회'은/는 제주특별자치도 제주시 한경면 일주서로 3960-24 에 위치한 관광지로, 관광지에 속하며, 대분류: 인문(문화/예술/역사), 중분류: 역사관광지, 소분류: 종교성지입니다. 해당 관광지는 기준월(10.0) 동안 총 2494.0명의 방문자를 기록했습니다. 2월 한 달 동안 172.0명이 방문했습니다. 요일별 방문자수는 월요일 24.0명, 화요일 22.0명, 수요일 25.0명, 목요일 38.0명, 금요일 21.0명, 토요일 11.0명, 일요일 31.0명입니다.",33.3198062,126.1805485
술다끄는집,제주특별자치도 서귀포시 성읍정의현로56번길 5 ,서귀포시,문화시설,인문(문화/예술/역사),체험관광지,이색체험,299.0,10.0,11.0,1.0,2.0,1.0,3.0,3.0,1.0,0.0,"'술다끄는집'은/는 제주특별자치도 서귀포시 성읍정의현로56번길 5 에 위치한 관광지로, 문화시설에 속하며, 대분류: 인문(문화/예술/역사), 중분류: 체험관광지, 소분류: 이색체험입니다. 해당 관광지는 기준월(10.0) 동안 총 299.0명의 방문자를 기록했습니다. 2월 한 달 동안 11.0명이 방문했습니다. 요일별 방문자수는 월요일 1.0명, 화요일 2.0명, 수요일 1.0명, 목요일 3.0명, 금요일 3.0명, 토요일 1.0명, 일요일 0.0명입니다.",33.3877472029397,126.801516243792
스누피가든,제주특별자치도 제주시 구좌읍 금백조로 930 스누피 공원,제주시,관광지,인문(문화/예술/역사),휴양관광지,테마공원,4482.0,10.0,345.0,51.0,71.0,39.0,79.0,37.0,31.0,37.0,"'스누피가든'은/는 제주특별자치도 제주시 구좌읍 금백조로 930 스누피 공원에 위치한 관광지로, 관광지에 속하며, 대분류: 인문(문화/예술/역사), 중분류: 휴양관광지, 소분류: 테마공원입니다. 해당 관광지는 기준월(10.0) 동안 총 4482.0명의 방문자를 기록했습니다. 2월 한 달 동안 345.0명이 방문했습니다. 요일별 방문자수는 월요일 51.0명, 화요일 71.0명, 수요일 39.0명, 목요일 79.0명, 금요일 37.0명, 토요일 31.0명, 일요일 37.0명입니다.",33.4435555,126.7785412
신비의도로,제주특별자치도 제주시 노형동 ,제주시,관광지,인문(문화/예술/역사),체험관광지,이색체험,4799.0,10.0,287.0,40.0,43.0,39.0,41.0,48.0,27.0,49.0,"'신비의도로'은/는 제주특별자치도 제주시 노형동 에 위치한 관광지로, 관광지에 속하며, 대분류: 인문(문화/예술/역사), 중분류: 체험관광지, 소분류: 이색체험입니다. 해당 관광지는 기준월(10.0) 동안 총 4799.0명의 방문자를 기록했습니다. 2월 한 달 동안 287.0명이 방문했습니다. 요일별 방문자수는 월요일 40.0명, 화요일 43.0명, 수요일 39.0명, 목요일 41.0명, 금요일 48.0명, 토요일 27.0명, 일요일 49.0명입니다.",33.4511084,126.4872373
신산공원,제주특별자치도 제주시 신산로 92-12 (일도이동),제주시,관광지,인문(문화/예술/역사),휴양관광지,공원,1336.0,10.0,132.0,12.0,14.0,11.0,24.0,28.0,21.0,22.0,"'신산공원'은/는 제주특별자치도 제주시 신산로 92-12 (일도이동)에 위치한 관광지로, 관광지에 속하며, 대분류: 인문(문화/예술/역사), 중분류: 휴양관광지, 소분류: 공원입니다. 해당 관광지는 기준월(10.0) 동안 총 1336.0명의 방문자를 기록했습니다. 2월 한 달 동안 132.0명이 방문했습니다. 요일별 방문자수는 월요일 12.0명, 화요일 14.0명, 수요일 11.0명, 목요일 24.0명, 금요일 28.0명, 토요일 21.0명, 일요일 22.0명입니다.",33.505296,126.5336622
신천리벽화마을,제주특별자치도 서귀포시 성산읍 신천리 478-1,서귀포시,관광지,인문(문화/예술/역사),체험관광지,이색체험,757.0,10.0,57.0,14.0,13.0,4.0,10.0,3.0,5.0,8.0,"'신천리벽화마을'은/는 제주특별자치도 서귀포시 성산읍 신천리 478-1에 위치한 관광지로, 관광지에 속하며, 대분류: 인문(문화/예술/역사), 중분류: 체험관광지, 소분류: 이색체험입니다. 해당 관광지는 기준월(10.0) 동안 총 757.0명의 방문자를 기록했습니다. 2월 한 달 동안 57.0명이 방문했습니다. 요일별 방문자수는 월요일 14.0명, 화요일 13.0명, 수요일 4.0명, 목요일 10.0명, 금요일 3.0명, 토요일 5.0명, 일요일 8.0명입니다.",33.3443858510457,126.849580035623
신풍리밭담길,제주특별자치도 서귀포시 성산읍 신풍하동로 39 ,서귀포시,레포츠,인문(문화/예술/역사),체험관광지,이색거리,745.0,10.0,56.0,15.0,3.0,6.0,4.0,10.0,6.0,12.0,"'신풍리밭담길'은/는 제주특별자치도 서귀포시 성산읍 신풍하동로 39 에 위치한 관광지로, 레포츠에 속하며, 대분류: 인문(문화/예술/역사), 중분류: 체험관광지, 소분류: 이색거리입니다. 해당 관광지는 기준월(10.0) 동안 총 745.0명의 방문자를 기록했습니다. 2월 한 달 동안 56.0명이 방문했습니다. 요일별 방문자수는 월요일 15.0명, 화요일 3.0명, 수요일 6.0명, 목요일 4.0명, 금요일 10.0명, 토요일 6.0명, 일요일 12.0명입니다.",33.3618881876801,126.840548960409
신화워터파크,제주특별자치도 서귀포시 신화역사로304번길 38 ,서귀포시,관광지,인문(문화/예술/역사),산업관광지,기타,2330.0,10.0,95.0,16.0,12.0,11.0,13.0,13.0,8.0,22.0,"'신화워터파크'은/는 제주특별자치도 서귀포시 신화역사로304번길 38 에 위치한 관광지로, 관광지에 속하며, 대분류: 인문(문화/예술/역사), 중분류: 산업관광지, 소분류: 기타입니다. 해당 관광지는 기준월(10.0) 동안 총 2330.0명의 방문자를 기록했습니다. 2월 한 달 동안 95.0명이 방문했습니다. 요일별 방문자수는 월요일 16.0명, 화요일 12.0명, 수요일 11.0명, 목요일 13.0명, 금요일 13.0명, 토요일 8.0명, 일요일 22.0명입니다.",33.3071802,126.3174379
신화테마파크,제주특별자치도 서귀포시 안덕면 신화역사로304번길 98 ,서귀포시,관광지,인문(문화/예술/역사),산업관광지,기타,3802.0,10.0,191.0,32.0,34.0,29.0,31.0,25.0,19.0,21.0,"'신화테마파크'은/는 제주특별자치도 서귀포시 안덕면 신화역사로304번길 98 에 위치한 관광지로, 관광지에 속하며, 대분류: 인문(문화/예술/역사), 중분류: 산업관광지, 소분류: 기타입니다. 해당 관광지는 기준월(10.0) 동안 총 3802.0명의 방문자를 기록했습니다. 2월 한 달 동안 191.0명이 방문했습니다. 요일별 방문자수는 월요일 32.0명, 화요일 34.0명, 수요일 29.0명, 목요일 31.0명, 금요일 25.0명, 토요일 19.0명, 일요일 21.0명입니다.",33.3060039,126.3118145
쌍용굴,제주특별자치도 제주시 한림읍 한림로 300 ,제주시,관광지,자연,자연관광지,동굴,1406.0,10.0,79.0,9.0,12.0,12.0,18.0,12.0,6.0,10.0,"'쌍용굴'은/는 제주특별자치도 제주시 한림읍 한림로 300 에 위치한 관광지로, 관광지에 속하며, 대분류: 자연, 중분류: 자연관광지, 소분류: 동굴입니다. 해당 관광지는 기준월(10.0) 동안 총 1406.0명의 방문자를 기록했습니다. 2월 한 달 동안 79.0명이 방문했습니다. 요일별 방문자수는 월요일 9.0명, 화요일 12.0명, 수요일 12.0명, 목요일 18.0명, 금요일 12.0명, 토요일 6.0명, 일요일 10.0명입니다.",33.3902248567191,126.239691183153
씨오르리조트,제주특별자치도 서귀포시 이어도로 989 ,서귀포시,숙박,인문(문화/예술/역사),휴양관광지,관광단지,393.0,10.0,13.0,2.0,2.0,2.0,4.0,0.0,3.0,0.0,"'씨오르리조트'은/는 제주특별자치도 서귀포시 이어도로 989 에 위치한 관광지로, 숙박에 속하며, 대분류: 인문(문화/예술/역사), 중분류: 휴양관광지, 소분류: 관광단지입니다. 해당 관광지는 기준월(10.0) 동안 총 393.0명의 방문자를 기록했습니다. 2월 한 달 동안 13.0명이 방문했습니다. 요일별 방문자수는 월요일 2.0명, 화요일 2.0명, 수요일 2.0명, 목요일 4.0명, 금요일 0.0명, 토요일 3.0명, 일요일 0.0명입니다.",33.2423556,126.518405
아날로그감귤밭,제주특별자치도 제주시 해안마을8길 46 (해안동),제주시,관광지,인문(문화/예술/역사),체험관광지,농.산.어촌 체험,2457.0,10.0,224.0,45.0,55.0,19.0,29.0,20.0,20.0,36.0,"'아날로그감귤밭'은/는 제주특별자치도 제주시 해안마을8길 46 (해안동)에 위치한 관광지로, 관광지에 속하며, 대분류: 인문(문화/예술/역사), 중분류: 체험관광지, 소분류: 농.산.어촌 체험입니다. 해당 관광지는 기준월(10.0) 동안 총 2457.0명의 방문자를 기록했습니다. 2월 한 달 동안 224.0명이 방문했습니다. 요일별 방문자수는 월요일 45.0명, 화요일 55.0명, 수요일 19.0명, 목요일 29.0명, 금요일 20.0명, 토요일 20.0명, 일요일 36.0명입니다.",33.455681,126.4509292
아침미소목장,제주특별자치도 제주시 첨단동길 160-20 (월평동),제주시,관광지,인문(문화/예술/역사),산업관광지,기타,2825.0,10.0,216.0,32.0,42.0,30.0,26.0,29.0,20.0,37.0,"'아침미소목장'은/는 제주특별자치도 제주시 첨단동길 160-20 (월평동)에 위치한 관광지로, 관광지에 속하며, 대분류: 인문(문화/예술/역사), 중분류: 산업관광지, 소분류: 기타입니다. 해당 관광지는 기준월(10.0) 동안 총 2825.0명의 방문자를 기록했습니다. 2월 한 달 동안 216.0명이 방문했습니다. 요일별 방문자수는 월요일 32.0명, 화요일 42.0명, 수요일 30.0명, 목요일 26.0명, 금요일 29.0명, 토요일 20.0명, 일요일 37.0명입니다.",33.4544337,126.5864979
약천사,제주특별자치도 서귀포시 이어도로 293-28 (대포동),서귀포시,관광지,인문(문화/예술/역사),역사관광지,사찰,4177.0,10.0,246.0,30.0,49.0,24.0,46.0,29.0,30.0,38.0,"'약천사'은/는 제주특별자치도 서귀포시 이어도로 293-28 (대포동)에 위치한 관광지로, 관광지에 속하며, 대분류: 인문(문화/예술/역사), 중분류: 역사관광지, 소분류: 사찰입니다. 해당 관광지는 기준월(10.0) 동안 총 4177.0명의 방문자를 기록했습니다. 2월 한 달 동안 246.0명이 방문했습니다. 요일별 방문자수는 월요일 30.0명, 화요일 49.0명, 수요일 24.0명, 목요일 46.0명, 금요일 29.0명, 토요일 30.0명, 일요일 38.0명입니다.",33.2461046,126.4495188
어영공원,제주특별자치도 제주시 서해안로 451 (용담삼동) ,제주시,관광지,인문(문화/예술/역사),휴양관광지,공원,1250.0,10.0,125.0,20.0,16.0,17.0,19.0,24.0,7.0,22.0,"'어영공원'은/는 제주특별자치도 제주시 서해안로 451 (용담삼동) 에 위치한 관광지로, 관광지에 속하며, 대분류: 인문(문화/예술/역사), 중분류: 휴양관광지, 소분류: 공원입니다. 해당 관광지는 기준월(10.0) 동안 총 1250.0명의 방문자를 기록했습니다. 2월 한 달 동안 125.0명이 방문했습니다. 요일별 방문자수는 월요일 20.0명, 화요일 16.0명, 수요일 17.0명, 목요일 19.0명, 금요일 24.0명, 토요일 7.0명, 일요일 22.0명입니다.",33.5177971,126.4877926
에코그린리조트,제주특별자치도 제주시 한림읍 귀덕6길 94 ,제주시,관광지,인문(문화/예술/역사),휴양관광지,관광단지,405.0,10.0,18.0,5.0,2.0,2.0,1.0,1.0,2.0,5.0,"'에코그린리조트'은/는 제주특별자치도 제주시 한림읍 귀덕6길 94 에 위치한 관광지로, 관광지에 속하며, 대분류: 인문(문화/예술/역사), 중분류: 휴양관광지, 소분류: 관광단지입니다. 해당 관광지는 기준월(10.0) 동안 총 405.0명의 방문자를 기록했습니다. 2월 한 달 동안 18.0명이 방문했습니다. 요일별 방문자수는 월요일 5.0명, 화요일 2.0명, 수요일 2.0명, 목요일 1.0명, 금요일 1.0명, 토요일 2.0명, 일요일 5.0명입니다.",33.4357006,126.2915662
에코랜드테마파크,제주특별자치도 제주시 조천읍 번영로 1278-169 ,제주시,관광지,인문(문화/예술/역사),휴양관광지,테마공원,14927.0,10.0,1275.0,217.0,211.0,179.0,204.0,168.0,125.0,171.0,"'에코랜드테마파크'은/는 제주특별자치도 제주시 조천읍 번영로 1278-169 에 위치한 관광지로, 관광지에 속하며, 대분류: 인문(문화/예술/역사), 중분류: 휴양관광지, 소분류: 테마공원입니다. 해당 관광지는 기준월(10.0) 동안 총 14927.0명의 방문자를 기록했습니다. 2월 한 달 동안 1275.0명이 방문했습니다. 요일별 방문자수는 월요일 217.0명, 화요일 211.0명, 수요일 179.0명, 목요일 204.0명, 금요일 168.0명, 토요일 125.0명, 일요일 171.0명입니다.",33.4553485144602,126.668852765522
연북정,제주특별자치도 제주시 조천읍 조천리 ,제주시,관광지,인문(문화/예술/역사),역사관광지,유적지/사적지,927.0,10.0,50.0,5.0,6.0,12.0,8.0,6.0,4.0,9.0,"'연북정'은/는 제주특별자치도 제주시 조천읍 조천리 에 위치한 관광지로, 관광지에 속하며, 대분류: 인문(문화/예술/역사), 중분류: 역사관광지, 소분류: 유적지/사적지입니다. 해당 관광지는 기준월(10.0) 동안 총 927.0명의 방문자를 기록했습니다. 2월 한 달 동안 50.0명이 방문했습니다. 요일별 방문자수는 월요일 5.0명, 화요일 6.0명, 수요일 12.0명, 목요일 8.0명, 금요일 6.0명, 토요일 4.0명, 일요일 9.0명입니다.",33.5401964,126.6359829
예술공간이아,제주특별자치도 제주시 중앙로14길 21 ,제주시,문화시설,인문(문화/예술/역사),체험관광지,이색체험,571.0,10.0,59.0,10.0,11.0,8.0,6.0,8.0,4.0,12.0,"'예술공간이아'은/는 제주특별자치도 제주시 중앙로14길 21 에 위치한 관광지로, 문화시설에 속하며, 대분류: 인문(문화/예술/역사), 중분류: 체험관광지, 소분류: 이색체험입니다. 해당 관광지는 기준월(10.0) 동안 총 571.0명의 방문자를 기록했습니다. 2월 한 달 동안 59.0명이 방문했습니다. 요일별 방문자수는 월요일 10.0명, 화요일 11.0명, 수요일 8.0명, 목요일 6.0명, 금요일 8.0명, 토요일 4.0명, 일요일 12.0명입니다.",33.5110697247099,126.522361679677
오현단,제주특별자치도 제주시 오현길 61 (이도일동),제주시,관광지,인문(문화/예술/역사),역사관광지,유적지/사적지,836.0,10.0,58.0,6.0,14.0,9.0,7.0,10.0,3.0,9.0,"'오현단'은/는 제주특별자치도 제주시 오현길 61 (이도일동)에 위치한 관광지로, 관광지에 속하며, 대분류: 인문(문화/예술/역사), 중분류: 역사관광지, 소분류: 유적지/사적지입니다. 해당 관광지는 기준월(10.0) 동안 총 836.0명의 방문자를 기록했습니다. 2월 한 달 동안 58.0명이 방문했습니다. 요일별 방문자수는 월요일 6.0명, 화요일 14.0명, 수요일 9.0명, 목요일 7.0명, 금요일 10.0명, 토요일 3.0명, 일요일 9.0명입니다.",33.5104855,126.5257264
와이리조트제주,제주특별자치도 서귀포시 안덕면 화순중앙로124번길 75 ,서귀포시,숙박,인문(문화/예술/역사),휴양관광지,관광단지,428.0,10.0,23.0,2.0,8.0,4.0,3.0,3.0,1.0,2.0,"'와이리조트제주'은/는 제주특별자치도 서귀포시 안덕면 화순중앙로124번길 75 에 위치한 관광지로, 숙박에 속하며, 대분류: 인문(문화/예술/역사), 중분류: 휴양관광지, 소분류: 관광단지입니다. 해당 관광지는 기준월(10.0) 동안 총 428.0명의 방문자를 기록했습니다. 2월 한 달 동안 23.0명이 방문했습니다. 요일별 방문자수는 월요일 2.0명, 화요일 8.0명, 수요일 4.0명, 목요일 3.0명, 금요일 3.0명, 토요일 1.0명, 일요일 2.0명입니다.",33.2425688372377,126.327938185422
외돌개,제주특별자치도 서귀포시 서흥동 791,서귀포시,관광지,자연,관광자원,기암괴석,8990.0,10.0,917.0,163.0,161.0,118.0,135.0,107.0,93.0,140.0,"'외돌개'은/는 제주특별자치도 서귀포시 서흥동 791에 위치한 관광지로, 관광지에 속하며, 대분류: 자연, 중분류: 관광자원, 소분류: 기암괴석입니다. 해당 관광지는 기준월(10.0) 동안 총 8990.0명의 방문자를 기록했습니다. 2월 한 달 동안 917.0명이 방문했습니다. 요일별 방문자수는 월요일 163.0명, 화요일 161.0명, 수요일 118.0명, 목요일 135.0명, 금요일 107.0명, 토요일 93.0명, 일요일 140.0명입니다.",33.2400761,126.5456641
용담레포츠공원,제주특별자치도 제주시 서해안로 580 (용담삼동) ,제주시,관광지,인문(문화/예술/역사),휴양관광지,공원,1821.0,10.0,164.0,38.0,25.0,16.0,16.0,19.0,20.0,30.0,"'용담레포츠공원'은/는 제주특별자치도 제주시 서해안로 580 (용담삼동) 에 위치한 관광지로, 관광지에 속하며, 대분류: 인문(문화/예술/역사), 중분류: 휴양관광지, 소분류: 공원입니다. 해당 관광지는 기준월(10.0) 동안 총 1821.0명의 방문자를 기록했습니다. 2월 한 달 동안 164.0명이 방문했습니다. 요일별 방문자수는 월요일 38.0명, 화요일 25.0명, 수요일 16.0명, 목요일 16.0명, 금요일 19.0명, 토요일 20.0명, 일요일 30.0명입니다.",33.518341,126.4989767
우도잠수함,제주특별자치도 서귀포시 성산읍 성산등용로 112-7 ,서귀포시,관광지,인문(문화/예술/역사),휴양관광지,유람선/잠수함관광,3184.0,10.0,221.0,40.0,30.0,22.0,38.0,27.0,26.0,38.0,"'우도잠수함'은/는 제주특별자치도 서귀포시 성산읍 성산등용로 112-7 에 위치한 관광지로, 관광지에 속하며, 대분류: 인문(문화/예술/역사), 중분류: 휴양관광지, 소분류: 유람선/잠수함관광입니다. 해당 관광지는 기준월(10.0) 동안 총 3184.0명의 방문자를 기록했습니다. 2월 한 달 동안 221.0명이 방문했습니다. 요일별 방문자수는 월요일 40.0명, 화요일 30.0명, 수요일 22.0명, 목요일 38.0명, 금요일 27.0명, 토요일 26.0명, 일요일 38.0명입니다.",33.4719126653253,126.933104794189
이상한나라의앨리스,제주특별자치도 서귀포시 안덕면 중산간서로 1881 ,서귀포시,관광지,인문(문화/예술/역사),체험관광지,이색체험,2759.0,10.0,171.0,28.0,25.0,16.0,22.0,30.0,16.0,34.0,"'이상한나라의앨리스'은/는 제주특별자치도 서귀포시 안덕면 중산간서로 1881 에 위치한 관광지로, 관광지에 속하며, 대분류: 인문(문화/예술/역사), 중분류: 체험관광지, 소분류: 이색체험입니다. 해당 관광지는 기준월(10.0) 동안 총 2759.0명의 방문자를 기록했습니다. 2월 한 달 동안 171.0명이 방문했습니다. 요일별 방문자수는 월요일 28.0명, 화요일 25.0명, 수요일 16.0명, 목요일 22.0명, 금요일 30.0명, 토요일 16.0명, 일요일 34.0명입니다.",33.4719126653253,126.933104794189
이중섭거주지,제주특별자치도 서귀포시 이중섭로 29 (서귀동),서귀포시,관광지,인문(문화/예술/역사),역사관광지,유적지/사적지,2522.0,10.0,164.0,23.0,28.0,24.0,15.0,23.0,23.0,28.0,"'이중섭거주지'은/는 제주특별자치도 서귀포시 이중섭로 29 (서귀동)에 위치한 관광지로, 관광지에 속하며, 대분류: 인문(문화/예술/역사), 중분류: 역사관광지, 소분류: 유적지/사적지입니다. 해당 관광지는 기준월(10.0) 동안 총 2522.0명의 방문자를 기록했습니다. 2월 한 달 동안 164.0명이 방문했습니다. 요일별 방문자수는 월요일 23.0명, 화요일 28.0명, 수요일 24.0명, 목요일 15.0명, 금요일 23.0명, 토요일 23.0명, 일요일 28.0명입니다.",33.2455473,126.5644088
일출랜드,제주특별자치도 서귀포시 성산읍 중산간동로 4150-30 ,서귀포시,관광지,인문(문화/예술/역사),휴양관광지,공원,4391.0,10.0,324.0,68.0,53.0,45.0,39.0,39.0,26.0,54.0,"'일출랜드'은/는 제주특별자치도 서귀포시 성산읍 중산간동로 4150-30 에 위치한 관광지로, 관광지에 속하며, 대분류: 인문(문화/예술/역사), 중분류: 휴양관광지, 소분류: 공원입니다. 해당 관광지는 기준월(10.0) 동안 총 4391.0명의 방문자를 기록했습니다. 2월 한 달 동안 324.0명이 방문했습니다. 요일별 방문자수는 월요일 68.0명, 화요일 53.0명, 수요일 45.0명, 목요일 39.0명, 금요일 39.0명, 토요일 26.0명, 일요일 54.0명입니다.",33.3831862,126.8418892
절부암,제주특별자치도 제주시 한경면 용수리 4241-5,제주시,관광지,자연,관광자원,기암괴석,520.0,10.0,40.0,6.0,3.0,4.0,10.0,6.0,3.0,8.0,"'절부암'은/는 제주특별자치도 제주시 한경면 용수리 4241-5에 위치한 관광지로, 관광지에 속하며, 대분류: 자연, 중분류: 관광자원, 소분류: 기암괴석입니다. 해당 관광지는 기준월(10.0) 동안 총 520.0명의 방문자를 기록했습니다. 2월 한 달 동안 40.0명이 방문했습니다. 요일별 방문자수는 월요일 6.0명, 화요일 3.0명, 수요일 4.0명, 목요일 10.0명, 금요일 6.0명, 토요일 3.0명, 일요일 8.0명입니다.",33.3239831,126.1671817
정의향교,제주특별자치도 서귀포시 표선면 성읍서문로 14 ,서귀포시,관광지,인문(문화/예술/역사),역사관광지,유적지/사적지,562.0,10.0,31.0,6.0,3.0,3.0,1.0,5.0,3.0,10.0,"'정의향교'은/는 제주특별자치도 서귀포시 표선면 성읍서문로 14 에 위치한 관광지로, 관광지에 속하며, 대분류: 인문(문화/예술/역사), 중분류: 역사관광지, 소분류: 유적지/사적지입니다. 해당 관광지는 기준월(10.0) 동안 총 562.0명의 방문자를 기록했습니다. 2월 한 달 동안 31.0명이 방문했습니다. 요일별 방문자수는 월요일 6.0명, 화요일 3.0명, 수요일 3.0명, 목요일 1.0명, 금요일 5.0명, 토요일 3.0명, 일요일 10.0명입니다.",33.3869287,126.799942
제주삼양동유적,제주특별자치도 제주시 선사로2길 13 ,제주시,관광지,인문(문화/예술/역사),역사관광지,유적지/사적지,1196.0,10.0,87.0,15.0,15.0,11.0,7.0,15.0,5.0,19.0,"'제주삼양동유적'은/는 제주특별자치도 제주시 선사로2길 13 에 위치한 관광지로, 관광지에 속하며, 대분류: 인문(문화/예술/역사), 중분류: 역사관광지, 소분류: 유적지/사적지입니다. 해당 관광지는 기준월(10.0) 동안 총 1196.0명의 방문자를 기록했습니다. 2월 한 달 동안 87.0명이 방문했습니다. 요일별 방문자수는 월요일 15.0명, 화요일 15.0명, 수요일 11.0명, 목요일 7.0명, 금요일 15.0명, 토요일 5.0명, 일요일 19.0명입니다.",33.5235045849897,126.587999545909
제주센트럴파크,제주특별자치도 제주시 조천읍 비자림로 606 ,제주시,관광지,인문(문화/예술/역사),휴양관광지,테마공원,2173.0,10.0,182.0,35.0,26.0,28.0,25.0,16.0,8.0,44.0,"'제주센트럴파크'은/는 제주특별자치도 제주시 조천읍 비자림로 606 에 위치한 관광지로, 관광지에 속하며, 대분류: 인문(문화/예술/역사), 중분류: 휴양관광지, 소분류: 테마공원입니다. 해당 관광지는 기준월(10.0) 동안 총 2173.0명의 방문자를 기록했습니다. 2월 한 달 동안 182.0명이 방문했습니다. 요일별 방문자수는 월요일 35.0명, 화요일 26.0명, 수요일 28.0명, 목요일 25.0명, 금요일 16.0명, 토요일 8.0명, 일요일 44.0명입니다.",33.4334415,126.6743965
제주유리의성,제주특별자치도 제주시 한경면 녹차분재로 462 ,제주시,관광지,인문(문화/예술/역사),휴양관광지,테마공원,4234.0,10.0,253.0,50.0,38.0,33.0,28.0,43.0,24.0,37.0,"'제주유리의성'은/는 제주특별자치도 제주시 한경면 녹차분재로 462 에 위치한 관광지로, 관광지에 속하며, 대분류: 인문(문화/예술/역사), 중분류: 휴양관광지, 소분류: 테마공원입니다. 해당 관광지는 기준월(10.0) 동안 총 4234.0명의 방문자를 기록했습니다. 2월 한 달 동안 253.0명이 방문했습니다. 요일별 방문자수는 월요일 50.0명, 화요일 38.0명, 수요일 33.0명, 목요일 28.0명, 금요일 43.0명, 토요일 24.0명, 일요일 37.0명입니다.",33.314546,126.2739234
제주공룡랜드,제주특별자치도 제주시 애월읍 광령평화2길 1 ,제주시,관광지,인문(문화/예술/역사),휴양관광지,테마공원,2609.0,10.0,153.0,30.0,22.0,21.0,16.0,16.0,16.0,32.0,"'제주공룡랜드'은/는 제주특별자치도 제주시 애월읍 광령평화2길 1 에 위치한 관광지로, 관광지에 속하며, 대분류: 인문(문화/예술/역사), 중분류: 휴양관광지, 소분류: 테마공원입니다. 해당 관광지는 기준월(10.0) 동안 총 2609.0명의 방문자를 기록했습니다. 2월 한 달 동안 153.0명이 방문했습니다. 요일별 방문자수는 월요일 30.0명, 화요일 22.0명, 수요일 21.0명, 목요일 16.0명, 금요일 16.0명, 토요일 16.0명, 일요일 32.0명입니다.",33.4427760245733,126.432360687436
제주러브랜드,제주특별자치도 제주시 1100로 2894-72 (연동),제주시,관광지,인문(문화/예술/역사),휴양관광지,테마공원,4360.0,10.0,322.0,58.0,56.0,44.0,33.0,47.0,35.0,49.0,"'제주러브랜드'은/는 제주특별자치도 제주시 1100로 2894-72 (연동)에 위치한 관광지로, 관광지에 속하며, 대분류: 인문(문화/예술/역사), 중분류: 휴양관광지, 소분류: 테마공원입니다. 해당 관광지는 기준월(10.0) 동안 총 4360.0명의 방문자를 기록했습니다. 2월 한 달 동안 322.0명이 방문했습니다. 요일별 방문자수는 월요일 58.0명, 화요일 56.0명, 수요일 44.0명, 목요일 33.0명, 금요일 47.0명, 토요일 35.0명, 일요일 49.0명입니다.",33.4517135,126.4901715
제주목관아,제주특별자치도 제주시 관덕로 25 (삼도이동),제주시,관광지,인문(문화/예술/역사),역사관광지,고궁,2575.0,10.0,168.0,30.0,24.0,27.0,20.0,29.0,11.0,27.0,"'제주목관아'은/는 제주특별자치도 제주시 관덕로 25 (삼도이동)에 위치한 관광지로, 관광지에 속하며, 대분류: 인문(문화/예술/역사), 중분류: 역사관광지, 소분류: 고궁입니다. 해당 관광지는 기준월(10.0) 동안 총 2575.0명의 방문자를 기록했습니다. 2월 한 달 동안 168.0명이 방문했습니다. 요일별 방문자수는 월요일 30.0명, 화요일 24.0명, 수요일 27.0명, 목요일 20.0명, 금요일 29.0명, 토요일 11.0명, 일요일 27.0명입니다.",33.5138664,126.5217134
제주민속촌,제주특별자치도 서귀포시 표선면 민속해안로 631-34 ,서귀포시,문화시설,인문(문화/예술/역사),역사관광지,민속마을,4966.0,10.0,496.0,59.0,79.0,56.0,98.0,99.0,34.0,71.0,"'제주민속촌'은/는 제주특별자치도 서귀포시 표선면 민속해안로 631-34 에 위치한 관광지로, 문화시설에 속하며, 대분류: 인문(문화/예술/역사), 중분류: 역사관광지, 소분류: 민속마을입니다. 해당 관광지는 기준월(10.0) 동안 총 4966.0명의 방문자를 기록했습니다. 2월 한 달 동안 496.0명이 방문했습니다. 요일별 방문자수는 월요일 59.0명, 화요일 79.0명, 수요일 56.0명, 목요일 98.0명, 금요일 99.0명, 토요일 34.0명, 일요일 71.0명입니다.",33.3225098,126.8418176
제주바다체험장,제주특별자치도 제주시 구좌읍 일주동로 1777 ,제주시,관광지,인문(문화/예술/역사),체험관광지,농.산.어촌 체험,1227.0,10.0,53.0,7.0,8.0,4.0,6.0,8.0,4.0,16.0,"'제주바다체험장'은/는 제주특별자치도 제주시 구좌읍 일주동로 1777 에 위치한 관광지로, 관광지에 속하며, 대분류: 인문(문화/예술/역사), 중분류: 체험관광지, 소분류: 농.산.어촌 체험입니다. 해당 관광지는 기준월(10.0) 동안 총 1227.0명의 방문자를 기록했습니다. 2월 한 달 동안 53.0명이 방문했습니다. 요일별 방문자수는 월요일 7.0명, 화요일 8.0명, 수요일 4.0명, 목요일 6.0명, 금요일 8.0명, 토요일 4.0명, 일요일 16.0명입니다.",33.5546738,126.7218438
제주별빛누리공원,제주특별자치도 제주시 선돌목동길 60 (오등동) ,제주시,관광지,인문(문화/예술/역사),휴양관광지,공원,1639.0,10.0,108.0,14.0,21.0,15.0,13.0,15.0,12.0,18.0,"'제주별빛누리공원'은/는 제주특별자치도 제주시 선돌목동길 60 (오등동) 에 위치한 관광지로, 관광지에 속하며, 대분류: 인문(문화/예술/역사), 중분류: 휴양관광지, 소분류: 공원입니다. 해당 관광지는 기준월(10.0) 동안 총 1639.0명의 방문자를 기록했습니다. 2월 한 달 동안 108.0명이 방문했습니다. 요일별 방문자수는 월요일 14.0명, 화요일 21.0명, 수요일 15.0명, 목요일 13.0명, 금요일 15.0명, 토요일 12.0명, 일요일 18.0명입니다.",33.4451439,126.5492347
제주성지,제주특별자치도 제주시 오현길 61 (이도일동),제주시,관광지,인문(문화/예술/역사),역사관광지,성,603.0,10.0,40.0,4.0,4.0,9.0,6.0,2.0,4.0,11.0,"'제주성지'은/는 제주특별자치도 제주시 오현길 61 (이도일동)에 위치한 관광지로, 관광지에 속하며, 대분류: 인문(문화/예술/역사), 중분류: 역사관광지, 소분류: 성입니다. 해당 관광지는 기준월(10.0) 동안 총 603.0명의 방문자를 기록했습니다. 2월 한 달 동안 40.0명이 방문했습니다. 요일별 방문자수는 월요일 4.0명, 화요일 4.0명, 수요일 9.0명, 목요일 6.0명, 금요일 2.0명, 토요일 4.0명, 일요일 11.0명입니다.",33.5104855,126.5257264
제주아이브리조트,제주특별자치도 서귀포시 산록남로 1966-34 (영남동),서귀포시,관광지,인문(문화/예술/역사),휴양관광지,관광단지,709.0,10.0,52.0,8.0,16.0,2.0,7.0,8.0,7.0,4.0,"'제주아이브리조트'은/는 제주특별자치도 서귀포시 산록남로 1966-34 (영남동)에 위치한 관광지로, 관광지에 속하며, 대분류: 인문(문화/예술/역사), 중분류: 휴양관광지, 소분류: 관광단지입니다. 해당 관광지는 기준월(10.0) 동안 총 709.0명의 방문자를 기록했습니다. 2월 한 달 동안 52.0명이 방문했습니다. 요일별 방문자수는 월요일 8.0명, 화요일 16.0명, 수요일 2.0명, 목요일 7.0명, 금요일 8.0명, 토요일 7.0명, 일요일 4.0명입니다.",33.288409,126.4968764
제주안전체험관,제주특별자치도 제주시 애월읍 평화로 1885 ,제주시,관광지,인문(문화/예술/역사),체험관광지,이색체험,2271.0,10.0,163.0,33.0,31.0,26.0,24.0,14.0,8.0,27.0,"'제주안전체험관'은/는 제주특별자치도 제주시 애월읍 평화로 1885 에 위치한 관광지로, 관광지에 속하며, 대분류: 인문(문화/예술/역사), 중분류: 체험관광지, 소분류: 이색체험입니다. 해당 관광지는 기준월(10.0) 동안 총 2271.0명의 방문자를 기록했습니다. 2월 한 달 동안 163.0명이 방문했습니다. 요일별 방문자수는 월요일 33.0명, 화요일 31.0명, 수요일 26.0명, 목요일 24.0명, 금요일 14.0명, 토요일 8.0명, 일요일 27.0명입니다.",33.3942008,126.3737312
제주양떼목장,제주특별자치도 제주시 애월읍 도치돌길 289-13 ,제주시,관광지,인문(문화/예술/역사),체험관광지,농.산.어촌 체험,1043.0,10.0,65.0,11.0,13.0,3.0,6.0,10.0,12.0,10.0,"'제주양떼목장'은/는 제주특별자치도 제주시 애월읍 도치돌길 289-13 에 위치한 관광지로, 관광지에 속하며, 대분류: 인문(문화/예술/역사), 중분류: 체험관광지, 소분류: 농.산.어촌 체험입니다. 해당 관광지는 기준월(10.0) 동안 총 1043.0명의 방문자를 기록했습니다. 2월 한 달 동안 65.0명이 방문했습니다. 요일별 방문자수는 월요일 11.0명, 화요일 13.0명, 수요일 3.0명, 목요일 6.0명, 금요일 10.0명, 토요일 12.0명, 일요일 10.0명입니다.",33.4109424,126.3653661
제주향교,제주특별자치도 제주시 서문로 43 (용담일동),제주시,관광지,인문(문화/예술/역사),역사관광지,유적지/사적지,773.0,10.0,62.0,12.0,7.0,12.0,10.0,10.0,3.0,8.0,"'제주향교'은/는 제주특별자치도 제주시 서문로 43 (용담일동)에 위치한 관광지로, 관광지에 속하며, 대분류: 인문(문화/예술/역사), 중분류: 역사관광지, 소분류: 유적지/사적지입니다. 해당 관광지는 기준월(10.0) 동안 총 773.0명의 방문자를 기록했습니다. 2월 한 달 동안 62.0명이 방문했습니다. 요일별 방문자수는 월요일 12.0명, 화요일 7.0명, 수요일 12.0명, 목요일 10.0명, 금요일 10.0명, 토요일 3.0명, 일요일 8.0명입니다.",33.5111677,126.5159523
제주허브동산,제주특별자치도 서귀포시 표선면 돈오름로 170 ,서귀포시,관광지,인문(문화/예술/역사),산업관광지,기타,3429.0,10.0,267.0,44.0,40.0,39.0,36.0,34.0,27.0,47.0,"'제주허브동산'은/는 제주특별자치도 서귀포시 표선면 돈오름로 170 에 위치한 관광지로, 관광지에 속하며, 대분류: 인문(문화/예술/역사), 중분류: 산업관광지, 소분류: 기타입니다. 해당 관광지는 기준월(10.0) 동안 총 3429.0명의 방문자를 기록했습니다. 2월 한 달 동안 267.0명이 방문했습니다. 요일별 방문자수는 월요일 44.0명, 화요일 40.0명, 수요일 39.0명, 목요일 36.0명, 금요일 34.0명, 토요일 27.0명, 일요일 47.0명입니다.",33.330435,126.8154056
제주힐링명상센터,제주특별자치도 제주시 애월읍 어음13길 196 ,제주시,관광지,인문(문화/예술/역사),체험관광지,이색체험,2763.0,10.0,215.0,33.0,35.0,31.0,36.0,21.0,25.0,34.0,"'제주힐링명상센터'은/는 제주특별자치도 제주시 애월읍 어음13길 196 에 위치한 관광지로, 관광지에 속하며, 대분류: 인문(문화/예술/역사), 중분류: 체험관광지, 소분류: 이색체험입니다. 해당 관광지는 기준월(10.0) 동안 총 2763.0명의 방문자를 기록했습니다. 2월 한 달 동안 215.0명이 방문했습니다. 요일별 방문자수는 월요일 33.0명, 화요일 35.0명, 수요일 31.0명, 목요일 36.0명, 금요일 21.0명, 토요일 25.0명, 일요일 34.0명입니다.",33.3955297,126.3610931
조랑말체험공원,제주특별자치도 서귀포시 표선면 녹산로 381-15 ,서귀포시,관광지,인문(문화/예술/역사),체험관광지,이색체험,1821.0,10.0,126.0,20.0,15.0,20.0,23.0,10.0,17.0,21.0,"'조랑말체험공원'은/는 제주특별자치도 서귀포시 표선면 녹산로 381-15 에 위치한 관광지로, 관광지에 속하며, 대분류: 인문(문화/예술/역사), 중분류: 체험관광지, 소분류: 이색체험입니다. 해당 관광지는 기준월(10.0) 동안 총 1821.0명의 방문자를 기록했습니다. 2월 한 달 동안 126.0명이 방문했습니다. 요일별 방문자수는 월요일 20.0명, 화요일 15.0명, 수요일 20.0명, 목요일 23.0명, 금요일 10.0명, 토요일 17.0명, 일요일 21.0명입니다.",33.3831928,126.7359802
조천만세동산,제주특별자치도 제주시 조천읍 조천리 1142-1,제주시,관광지,인문(문화/예술/역사),역사관광지,유적지/사적지,1237.0,10.0,70.0,11.0,14.0,8.0,12.0,9.0,6.0,10.0,"'조천만세동산'은/는 제주특별자치도 제주시 조천읍 조천리 1142-1에 위치한 관광지로, 관광지에 속하며, 대분류: 인문(문화/예술/역사), 중분류: 역사관광지, 소분류: 유적지/사적지입니다. 해당 관광지는 기준월(10.0) 동안 총 1237.0명의 방문자를 기록했습니다. 2월 한 달 동안 70.0명이 방문했습니다. 요일별 방문자수는 월요일 11.0명, 화요일 14.0명, 수요일 8.0명, 목요일 12.0명, 금요일 9.0명, 토요일 6.0명, 일요일 10.0명입니다.",33.5399846,126.6416165
중문관광단지,제주특별자치도 서귀포시 중문관광로 38 (중문관광단지안내소),서귀포시,관광지,인문(문화/예술/역사),휴양관광지,관광단지,7359.0,10.0,643.0,104.0,120.0,95.0,73.0,71.0,63.0,117.0,"'중문관광단지'은/는 제주특별자치도 서귀포시 중문관광로 38 (중문관광단지안내소)에 위치한 관광지로, 관광지에 속하며, 대분류: 인문(문화/예술/역사), 중분류: 휴양관광지, 소분류: 관광단지입니다. 해당 관광지는 기준월(10.0) 동안 총 7359.0명의 방문자를 기록했습니다. 2월 한 달 동안 643.0명이 방문했습니다. 요일별 방문자수는 월요일 104.0명, 화요일 120.0명, 수요일 95.0명, 목요일 73.0명, 금요일 71.0명, 토요일 63.0명, 일요일 117.0명입니다.",33.2482702,126.4104128
중문미로파크,제주특별자치도 서귀포시 상예동 3592-5 ,서귀포시,관광지,인문(문화/예술/역사),휴양관광지,테마공원,2467.0,10.0,145.0,20.0,20.0,29.0,19.0,17.0,13.0,27.0,"'중문미로파크'은/는 제주특별자치도 서귀포시 상예동 3592-5 에 위치한 관광지로, 관광지에 속하며, 대분류: 인문(문화/예술/역사), 중분류: 휴양관광지, 소분류: 테마공원입니다. 해당 관광지는 기준월(10.0) 동안 총 2467.0명의 방문자를 기록했습니다. 2월 한 달 동안 145.0명이 방문했습니다. 요일별 방문자수는 월요일 20.0명, 화요일 20.0명, 수요일 29.0명, 목요일 19.0명, 금요일 17.0명, 토요일 13.0명, 일요일 27.0명입니다.",33.2635326,126.3818174
차귀도유람선,제주특별자치도 제주시 한경면 노을해안로 1160 ,제주시,관광지,인문(문화/예술/역사),휴양관광지,유람선/잠수함관광,2279.0,10.0,240.0,46.0,39.0,26.0,42.0,23.0,33.0,31.0,"'차귀도유람선'은/는 제주특별자치도 제주시 한경면 노을해안로 1160 에 위치한 관광지로, 관광지에 속하며, 대분류: 인문(문화/예술/역사), 중분류: 휴양관광지, 소분류: 유람선/잠수함관광입니다. 해당 관광지는 기준월(10.0) 동안 총 2279.0명의 방문자를 기록했습니다. 2월 한 달 동안 240.0명이 방문했습니다. 요일별 방문자수는 월요일 46.0명, 화요일 39.0명, 수요일 26.0명, 목요일 42.0명, 금요일 23.0명, 토요일 33.0명, 일요일 31.0명입니다.",33.3089439,126.1655204
천왕사,제주특별자치도 제주시 1100로 2528-111 (노형동) ,제주시,관광지,인문(문화/예술/역사),역사관광지,사찰,2561.0,10.0,368.0,75.0,51.0,50.0,39.0,42.0,44.0,67.0,"'천왕사'은/는 제주특별자치도 제주시 1100로 2528-111 (노형동) 에 위치한 관광지로, 관광지에 속하며, 대분류: 인문(문화/예술/역사), 중분류: 역사관광지, 소분류: 사찰입니다. 해당 관광지는 기준월(10.0) 동안 총 2561.0명의 방문자를 기록했습니다. 2월 한 달 동안 368.0명이 방문했습니다. 요일별 방문자수는 월요일 75.0명, 화요일 51.0명, 수요일 50.0명, 목요일 39.0명, 금요일 42.0명, 토요일 44.0명, 일요일 67.0명입니다.",33.4087029,126.4944197
캔디원,제주특별자치도 제주시 조천읍 선교로 384 ,제주시,관광지,인문(문화/예술/역사),체험관광지,이색체험,1066.0,10.0,70.0,13.0,13.0,6.0,9.0,8.0,11.0,10.0,"'캔디원'은/는 제주특별자치도 제주시 조천읍 선교로 384 에 위치한 관광지로, 관광지에 속하며, 대분류: 인문(문화/예술/역사), 중분류: 체험관광지, 소분류: 이색체험입니다. 해당 관광지는 기준월(10.0) 동안 총 1066.0명의 방문자를 기록했습니다. 2월 한 달 동안 70.0명이 방문했습니다. 요일별 방문자수는 월요일 13.0명, 화요일 13.0명, 수요일 6.0명, 목요일 9.0명, 금요일 8.0명, 토요일 11.0명, 일요일 10.0명입니다.",33.4712877,126.707937
켄싱턴리조트서귀포,제주특별자치도 서귀포시 이어도로 684 ,서귀포시,숙박,인문(문화/예술/역사),휴양관광지,관광단지,431.0,10.0,19.0,2.0,1.0,3.0,4.0,5.0,1.0,3.0,"'켄싱턴리조트서귀포'은/는 제주특별자치도 서귀포시 이어도로 684 에 위치한 관광지로, 숙박에 속하며, 대분류: 인문(문화/예술/역사), 중분류: 휴양관광지, 소분류: 관광단지입니다. 해당 관광지는 기준월(10.0) 동안 총 431.0명의 방문자를 기록했습니다. 2월 한 달 동안 19.0명이 방문했습니다. 요일별 방문자수는 월요일 2.0명, 화요일 1.0명, 수요일 3.0명, 목요일 4.0명, 금요일 5.0명, 토요일 1.0명, 일요일 3.0명입니다.",33.2336794657051,126.489040381289
코델리아리조트,제주특별자치도 서귀포시 성산읍 일주동로4120번길 23-20 ,서귀포시,관광지,인문(문화/예술/역사),휴양관광지,관광단지,383.0,10.0,22.0,2.0,5.0,7.0,3.0,2.0,2.0,1.0,"'코델리아리조트'은/는 제주특별자치도 서귀포시 성산읍 일주동로4120번길 23-20 에 위치한 관광지로, 관광지에 속하며, 대분류: 인문(문화/예술/역사), 중분류: 휴양관광지, 소분류: 관광단지입니다. 해당 관광지는 기준월(10.0) 동안 총 383.0명의 방문자를 기록했습니다. 2월 한 달 동안 22.0명이 방문했습니다. 요일별 방문자수는 월요일 2.0명, 화요일 5.0명, 수요일 7.0명, 목요일 3.0명, 금요일 2.0명, 토요일 2.0명, 일요일 1.0명입니다.",33.4591059,126.9102124
토이파크,제주특별자치도 서귀포시 안덕면 동광로 267-7 ,서귀포시,관광지,인문(문화/예술/역사),문화시설,박물관,1141.0,10.0,62.0,14.0,4.0,6.0,10.0,7.0,7.0,14.0,"'토이파크'은/는 제주특별자치도 서귀포시 안덕면 동광로 267-7 에 위치한 관광지로, 관광지에 속하며, 대분류: 인문(문화/예술/역사), 중분류: 문화시설, 소분류: 박물관입니다. 해당 관광지는 기준월(10.0) 동안 총 1141.0명의 방문자를 기록했습니다. 2월 한 달 동안 62.0명이 방문했습니다. 요일별 방문자수는 월요일 14.0명, 화요일 4.0명, 수요일 6.0명, 목요일 10.0명, 금요일 7.0명, 토요일 7.0명, 일요일 14.0명입니다.",33.3189962,126.3456767
팜밸리리조트,제주특별자치도 서귀포시 중산간서로 193 (강정동),서귀포시,숙박,인문(문화/예술/역사),휴양관광지,관광단지,204.0,10.0,11.0,2.0,2.0,0.0,1.0,2.0,2.0,2.0,"'팜밸리리조트'은/는 제주특별자치도 서귀포시 중산간서로 193 (강정동)에 위치한 관광지로, 숙박에 속하며, 대분류: 인문(문화/예술/역사), 중분류: 휴양관광지, 소분류: 관광단지입니다. 해당 관광지는 기준월(10.0) 동안 총 204.0명의 방문자를 기록했습니다. 2월 한 달 동안 11.0명이 방문했습니다. 요일별 방문자수는 월요일 2.0명, 화요일 2.0명, 수요일 0.0명, 목요일 1.0명, 금요일 2.0명, 토요일 2.0명, 일요일 2.0명입니다.",33.2593043,126.4907423
평화통일불사리탑,제주특별자치도 제주시 조천읍 일주동로 884 (조천읍),제주시,관광지,인문(문화/예술/역사),역사관광지,사찰,1216.0,10.0,94.0,14.0,11.0,13.0,11.0,10.0,14.0,21.0,"'평화통일불사리탑'은/는 제주특별자치도 제주시 조천읍 일주동로 884 (조천읍)에 위치한 관광지로, 관광지에 속하며, 대분류: 인문(문화/예술/역사), 중분류: 역사관광지, 소분류: 사찰입니다. 해당 관광지는 기준월(10.0) 동안 총 1216.0명의 방문자를 기록했습니다. 2월 한 달 동안 94.0명이 방문했습니다. 요일별 방문자수는 월요일 14.0명, 화요일 11.0명, 수요일 13.0명, 목요일 11.0명, 금요일 10.0명, 토요일 14.0명, 일요일 21.0명입니다.",33.5315101305087,126.636877767573
포레스트사파리,제주특별자치도 제주시 조천읍 선교로 474-1 ,제주시,관광지,인문(문화/예술/역사),휴양관광지,테마공원,972.0,10.0,60.0,19.0,4.0,4.0,8.0,8.0,5.0,12.0,"'포레스트사파리'은/는 제주특별자치도 제주시 조천읍 선교로 474-1 에 위치한 관광지로, 관광지에 속하며, 대분류: 인문(문화/예술/역사), 중분류: 휴양관광지, 소분류: 테마공원입니다. 해당 관광지는 기준월(10.0) 동안 총 972.0명의 방문자를 기록했습니다. 2월 한 달 동안 60.0명이 방문했습니다. 요일별 방문자수는 월요일 19.0명, 화요일 4.0명, 수요일 4.0명, 목요일 8.0명, 금요일 8.0명, 토요일 5.0명, 일요일 12.0명입니다.",33.5315101305087,126.636877767573
하멜기념비,제주특별자치도 서귀포시 안덕면 사계리 112-3 ,서귀포시,관광지,인문(문화/예술/역사),건축/조형물,기념탑/기념비/전망대,1119.0,10.0,63.0,6.0,9.0,8.0,9.0,12.0,8.0,11.0,"'하멜기념비'은/는 제주특별자치도 서귀포시 안덕면 사계리 112-3 에 위치한 관광지로, 관광지에 속하며, 대분류: 인문(문화/예술/역사), 중분류: 건축/조형물, 소분류: 기념탑/기념비/전망대입니다. 해당 관광지는 기준월(10.0) 동안 총 1119.0명의 방문자를 기록했습니다. 2월 한 달 동안 63.0명이 방문했습니다. 요일별 방문자수는 월요일 6.0명, 화요일 9.0명, 수요일 8.0명, 목요일 9.0명, 금요일 12.0명, 토요일 8.0명, 일요일 11.0명입니다.",33.2334813,126.3146307
한림공원,제주특별자치도 제주시 한림읍 한림로 300 ,제주시,관광지,인문(문화/예술/역사),휴양관광지,공원,8246.0,10.0,523.0,94.0,114.0,75.0,67.0,66.0,47.0,60.0,"'한림공원'은/는 제주특별자치도 제주시 한림읍 한림로 300 에 위치한 관광지로, 관광지에 속하며, 대분류: 인문(문화/예술/역사), 중분류: 휴양관광지, 소분류: 공원입니다. 해당 관광지는 기준월(10.0) 동안 총 8246.0명의 방문자를 기록했습니다. 2월 한 달 동안 523.0명이 방문했습니다. 요일별 방문자수는 월요일 94.0명, 화요일 114.0명, 수요일 75.0명, 목요일 67.0명, 금요일 66.0명, 토요일 47.0명, 일요일 60.0명입니다.",33.3883099,126.2394248
한화리조트제주,제주특별자치도 제주시 명림로 575-107 ,제주시,숙박,인문(문화/예술/역사),휴양관광지,관광단지,1786.0,10.0,114.0,24.0,17.0,14.0,17.0,13.0,8.0,21.0,"'한화리조트제주'은/는 제주특별자치도 제주시 명림로 575-107 에 위치한 관광지로, 숙박에 속하며, 대분류: 인문(문화/예술/역사), 중분류: 휴양관광지, 소분류: 관광단지입니다. 해당 관광지는 기준월(10.0) 동안 총 1786.0명의 방문자를 기록했습니다. 2월 한 달 동안 114.0명이 방문했습니다. 요일별 방문자수는 월요일 24.0명, 화요일 17.0명, 수요일 14.0명, 목요일 17.0명, 금요일 13.0명, 토요일 8.0명, 일요일 21.0명입니다.",33.3902248567191,126.239691183153
함덕잠수함,제주특별자치도 제주시 조천읍 조함해안로 378 ,제주시,관광지,인문(문화/예술/역사),휴양관광지,유람선/잠수함관광,1403.0,10.0,56.0,12.0,8.0,10.0,8.0,6.0,3.0,9.0,"'함덕잠수함'은/는 제주특별자치도 제주시 조천읍 조함해안로 378 에 위치한 관광지로, 관광지에 속하며, 대분류: 인문(문화/예술/역사), 중분류: 휴양관광지, 소분류: 유람선/잠수함관광입니다. 해당 관광지는 기준월(10.0) 동안 총 1403.0명의 방문자를 기록했습니다. 2월 한 달 동안 56.0명이 방문했습니다. 요일별 방문자수는 월요일 12.0명, 화요일 8.0명, 수요일 10.0명, 목요일 8.0명, 금요일 6.0명, 토요일 3.0명, 일요일 9.0명입니다.",33.3902248567191,126.239691183153
해품은체험농장,제주특별자치도 서귀포시 성산읍 서성일로 1078-14 ,서귀포시,관광지,인문(문화/예술/역사),산업관광지,기타,609.0,10.0,41.0,9.0,5.0,4.0,6.0,8.0,4.0,5.0,"'해품은체험농장'은/는 제주특별자치도 서귀포시 성산읍 서성일로 1078-14 에 위치한 관광지로, 관광지에 속하며, 대분류: 인문(문화/예술/역사), 중분류: 산업관광지, 소분류: 기타입니다. 해당 관광지는 기준월(10.0) 동안 총 609.0명의 방문자를 기록했습니다. 2월 한 달 동안 41.0명이 방문했습니다. 요일별 방문자수는 월요일 9.0명, 화요일 5.0명, 수요일 4.0명, 목요일 6.0명, 금요일 8.0명, 토요일 4.0명, 일요일 5.0명입니다.",33.443438,126.8926365
협재굴,제주특별자치도 제주시 한림읍 한림로 300 (한림읍),제주시,관광지,자연,자연관광지,동굴,3351.0,10.0,216.0,43.0,38.0,29.0,25.0,28.0,10.0,43.0,"'협재굴'은/는 제주특별자치도 제주시 한림읍 한림로 300 (한림읍)에 위치한 관광지로, 관광지에 속하며, 대분류: 자연, 중분류: 자연관광지, 소분류: 동굴입니다. 해당 관광지는 기준월(10.0) 동안 총 3351.0명의 방문자를 기록했습니다. 2월 한 달 동안 216.0명이 방문했습니다. 요일별 방문자수는 월요일 43.0명, 화요일 38.0명, 수요일 29.0명, 목요일 25.0명, 금요일 28.0명, 토요일 10.0명, 일요일 43.0명입니다.",33.5478023263429,126.656819296374
화조원,제주특별자치도 제주시 애월읍 애원로 804 ,제주시,관광지,인문(문화/예술/역사),휴양관광지,테마공원,1388.0,10.0,78.0,16.0,7.0,11.0,10.0,8.0,10.0,16.0,"'화조원'은/는 제주특별자치도 제주시 애월읍 애원로 804 에 위치한 관광지로, 관광지에 속하며, 대분류: 인문(문화/예술/역사), 중분류: 휴양관광지, 소분류: 테마공원입니다. 해당 관광지는 기준월(10.0) 동안 총 1388.0명의 방문자를 기록했습니다. 2월 한 달 동안 78.0명이 방문했습니다. 요일별 방문자수는 월요일 16.0명, 화요일 7.0명, 수요일 11.0명, 목요일 10.0명, 금요일 8.0명, 토요일 10.0명, 일요일 16.0명입니다.",33.411109,126.3714311
황우지해안열두굴,제주특별자치도 서귀포시 남성로 93 (서홍동),서귀포시,관광지,자연,자연관광지,동굴,1220.0,10.0,76.0,10.0,14.0,7.0,12.0,9.0,7.0,17.0,"'황우지해안열두굴'은/는 제주특별자치도 서귀포시 남성로 93 (서홍동)에 위치한 관광지로, 관광지에 속하며, 대분류: 자연, 중분류: 자연관광지, 소분류: 동굴입니다. 해당 관광지는 기준월(10.0) 동안 총 1220.0명의 방문자를 기록했습니다. 2월 한 달 동안 76.0명이 방문했습니다. 요일별 방문자수는 월요일 10.0명, 화요일 14.0명, 수요일 7.0명, 목요일 12.0명, 금요일 9.0명, 토요일 7.0명, 일요일 17.0명입니다.",33.3902248567191,126.239691183153
효명사,제주특별자치도 서귀포시 516로 815-41 효명사 ,서귀포시,관광지,인문(문화/예술/역사),역사관광지,사찰,673.0,10.0,42.0,7.0,5.0,7.0,5.0,8.0,2.0,8.0,"'효명사'은/는 제주특별자치도 서귀포시 516로 815-41 효명사 에 위치한 관광지로, 관광지에 속하며, 대분류: 인문(문화/예술/역사), 중분류: 역사관광지, 소분류: 사찰입니다. 해당 관광지는 기준월(10.0) 동안 총 673.0명의 방문자를 기록했습니다. 2월 한 달 동안 42.0명이 방문했습니다. 요일별 방문자수는 월요일 7.0명, 화요일 5.0명, 수요일 7.0명, 목요일 5.0명, 금요일 8.0명, 토요일 2.0명, 일요일 8.0명입니다.",33.3227935,126.5956233
휴림,제주특별자치도 제주시 애월읍 광령남서길 40 ,제주시,관광지,인문(문화/예술/역사),휴양관광지,테마공원,1637.0,10.0,119.0,14.0,23.0,10.0,16.0,19.0,12.0,25.0,"'휴림'은/는 제주특별자치도 제주시 애월읍 광령남서길 40 에 위치한 관광지로, 관광지에 속하며, 대분류: 인문(문화/예술/역사), 중분류: 휴양관광지, 소분류: 테마공원입니다. 해당 관광지는 기준월(10.0) 동안 총 1637.0명의 방문자를 기록했습니다. 2월 한 달 동안 119.0명이 방문했습니다. 요일별 방문자수는 월요일 14.0명, 화요일 23.0명, 수요일 10.0명, 목요일 16.0명, 금요일 19.0명, 토요일 12.0명, 일요일 25.0명입니다.",33.443332,126.4292669
휴애리자연생활공원,제주특별자치도 서귀포시 남원읍 신례동로 256 ,서귀포시,관광지,인문(문화/예술/역사),휴양관광지,공원,13757.0,10.0,1315.0,237.0,187.0,160.0,166.0,185.0,159.0,221.0,"'휴애리자연생활공원'은/는 제주특별자치도 서귀포시 남원읍 신례동로 256 에 위치한 관광지로, 관광지에 속하며, 대분류: 인문(문화/예술/역사), 중분류: 휴양관광지, 소분류: 공원입니다. 해당 관광지는 기준월(10.0) 동안 총 13757.0명의 방문자를 기록했습니다. 2월 한 달 동안 1315.0명이 방문했습니다. 요일별 방문자수는 월요일 237.0명, 화요일 187.0명, 수요일 160.0명, 목요일 166.0명, 금요일 185.0명, 토요일 159.0명, 일요일 221.0명입니다.",33.3085347525753,126.634380832055
흑돼지거리,제주특별자치도 제주시 일도일동 ,제주시,관광지,인문(문화/예술/역사),체험관광지,이색거리,924.0,10.0,59.0,12.0,10.0,12.0,5.0,7.0,7.0,6.0,"'흑돼지거리'은/는 제주특별자치도 제주시 일도일동 에 위치한 관광지로, 관광지에 속하며, 대분류: 인문(문화/예술/역사), 중분류: 체험관광지, 소분류: 이색거리입니다. 해당 관광지는 기준월(10.0) 동안 총 924.0명의 방문자를 기록했습니다. 2월 한 달 동안 59.0명이 방문했습니다. 요일별 방문자수는 월요일 12.0명, 화요일 10.0명, 수요일 12.0명, 목요일 5.0명, 금요일 7.0명, 토요일 7.0명, 일요일 6.0명입니다.",33.5153591,126.5420032
5.16도로숲터널,제주특별자치도 서귀포시 남원읍 신례천로 267-110 ,서귀포시,관광지,인문(문화/예술/역사),건축/조형물,터널,1772.0,10.0,169.0,29.0,30.0,20.0,23.0,19.0,12.0,36.0,"'5.16도로숲터널'은/는 제주특별자치도 서귀포시 남원읍 신례천로 267-110 에 위치한 관광지로, 관광지에 속하며, 대분류: 인문(문화/예술/역사), 중분류: 건축/조형물, 소분류: 터널입니다. 해당 관광지는 기준월(10.0) 동안 총 1772.0명의 방문자를 기록했습니다. 2월 한 달 동안 169.0명이 방문했습니다. 요일별 방문자수는 월요일 29.0명, 화요일 30.0명, 수요일 20.0명, 목요일 23.0명, 금요일 19.0명, 토요일 12.0명, 일요일 36.0명입니다.",33.3330338,126.6180657
