관광지명,주소,장소 카테고리,대분류,중분류,소분류,총 방문자수,기준월,월별 방문자수,월요일방문자수,화요일방문자수,수요일방문자수,목요일방문자수,금요일방문자수,토요일방문자수,일요일방문자수,정보,위도,경도
갈중이,제주특별자치도 서귀포시 사계남로216번길 24-61 갈중이 ,관광지,인문(문화/예술/역사),체험관광지,전통체험,500.0,4.0,62.0,9.0,5.0,8.0,8.0,10.0,13.0,9.0,"'갈중이'은/는 제주특별자치도 서귀포시 사계남로216번길 24-61 갈중이 에 위치한 관광지로, 관광지에 속하며, 대분류: 인문(문화/예술/역사), 중분류: 체험관광지, 소분류: 전통체험입니다. 해당 관광지는 기준월(4.0) 동안 총 500.0명의 방문자를 기록했습니다. 7월 한 달 동안 62.0명이 방문했습니다. 요일별 방문자수는 월요일 9.0명, 화요일 5.0명, 수요일 8.0명, 목요일 8.0명, 금요일 10.0명, 토요일 13.0명, 일요일 9.0명입니다.",33.2350546,126.3136741
감수굴밭담길,제주특별자치도 제주시 구좌읍 평대7길 34 ,관광지,인문(문화/예술/역사),체험관광지,농.산.어촌 체험,551.0,4.0,45.0,4.0,6.0,9.0,6.0,4.0,10.0,6.0,"'감수굴밭담길'은/는 제주특별자치도 제주시 구좌읍 평대7길 34 에 위치한 관광지로, 관광지에 속하며, 대분류: 인문(문화/예술/역사), 중분류: 체험관광지, 소분류: 농.산.어촌 체험입니다. 해당 관광지는 기준월(4.0) 동안 총 551.0명의 방문자를 기록했습니다. 7월 한 달 동안 45.0명이 방문했습니다. 요일별 방문자수는 월요일 4.0명, 화요일 6.0명, 수요일 9.0명, 목요일 6.0명, 금요일 4.0명, 토요일 10.0명, 일요일 6.0명입니다.",,
고산일과해안도로,제주특별자치도 서귀포시 대정읍 신도리 3135-1 ,관광지,자연,자연관광지,자연생태관광지,542.0,4.0,74.0,9.0,8.0,12.0,11.0,5.0,19.0,10.0,"'고산일과해안도로'은/는 제주특별자치도 서귀포시 대정읍 신도리 3135-1 에 위치한 관광지로, 관광지에 속하며, 대분류: 자연, 중분류: 자연관광지, 소분류: 자연생태관광지입니다. 해당 관광지는 기준월(4.0) 동안 총 542.0명의 방문자를 기록했습니다. 7월 한 달 동안 74.0명이 방문했습니다. 요일별 방문자수는 월요일 9.0명, 화요일 8.0명, 수요일 12.0명, 목요일 11.0명, 금요일 5.0명, 토요일 19.0명, 일요일 10.0명입니다.",33.2575958,126.214254
금능포구,제주특별자치도 제주시 한림읍 금능리 ,관광지,인문(문화/예술/역사),체험관광지,농.산.어촌 체험,457.0,4.0,60.0,5.0,9.0,12.0,7.0,5.0,12.0,10.0,"'금능포구'은/는 제주특별자치도 제주시 한림읍 금능리 에 위치한 관광지로, 관광지에 속하며, 대분류: 인문(문화/예술/역사), 중분류: 체험관광지, 소분류: 농.산.어촌 체험입니다. 해당 관광지는 기준월(4.0) 동안 총 457.0명의 방문자를 기록했습니다. 7월 한 달 동안 60.0명이 방문했습니다. 요일별 방문자수는 월요일 5.0명, 화요일 9.0명, 수요일 12.0명, 목요일 7.0명, 금요일 5.0명, 토요일 12.0명, 일요일 10.0명입니다.",33.3700283,126.2392054
김경숙해바라기농장,제주특별자치도 제주시 번영로 854-1 (회천동) ,관광지,자연,자연관광지,자연생태관광지,4832.0,4.0,397.0,57.0,72.0,48.0,37.0,56.0,72.0,55.0,"'김경숙해바라기농장'은/는 제주특별자치도 제주시 번영로 854-1 (회천동) 에 위치한 관광지로, 관광지에 속하며, 대분류: 자연, 중분류: 자연관광지, 소분류: 자연생태관광지입니다. 해당 관광지는 기준월(4.0) 동안 총 4832.0명의 방문자를 기록했습니다. 7월 한 달 동안 397.0명이 방문했습니다. 요일별 방문자수는 월요일 57.0명, 화요일 72.0명, 수요일 48.0명, 목요일 37.0명, 금요일 56.0명, 토요일 72.0명, 일요일 55.0명입니다.",33.477406,126.62762
김녕사굴,제주특별자치도 제주시 구좌읍 덕평로 392-1 ,관광지,자연,자연관광지,동굴,2982.0,4.0,259.0,36.0,29.0,37.0,34.0,42.0,34.0,47.0,"'김녕사굴'은/는 제주특별자치도 제주시 구좌읍 덕평로 392-1 에 위치한 관광지로, 관광지에 속하며, 대분류: 자연, 중분류: 자연관광지, 소분류: 동굴입니다. 해당 관광지는 기준월(4.0) 동안 총 2982.0명의 방문자를 기록했습니다. 7월 한 달 동안 259.0명이 방문했습니다. 요일별 방문자수는 월요일 36.0명, 화요일 29.0명, 수요일 37.0명, 목요일 34.0명, 금요일 42.0명, 토요일 34.0명, 일요일 47.0명입니다.",33.5010103,126.7736187
노리매공원,제주특별자치도 서귀포시 대정읍 중산간서로 2260-15 ,관광지,인문(문화/예술/역사),휴양관광지,공원,3274.0,4.0,318.0,60.0,39.0,46.0,49.0,42.0,38.0,44.0,"'노리매공원'은/는 제주특별자치도 서귀포시 대정읍 중산간서로 2260-15 에 위치한 관광지로, 관광지에 속하며, 대분류: 인문(문화/예술/역사), 중분류: 휴양관광지, 소분류: 공원입니다. 해당 관광지는 기준월(4.0) 동안 총 3274.0명의 방문자를 기록했습니다. 7월 한 달 동안 318.0명이 방문했습니다. 요일별 방문자수는 월요일 60.0명, 화요일 39.0명, 수요일 46.0명, 목요일 49.0명, 금요일 42.0명, 토요일 38.0명, 일요일 44.0명입니다.",33.2831505,126.2873239
노을해안로,제주특별자치도 서귀포시 대정읍 영락리 ,관광지,자연,자연관광지,자연생태관광지,1349.0,4.0,154.0,23.0,24.0,17.0,26.0,16.0,29.0,19.0,"'노을해안로'은/는 제주특별자치도 서귀포시 대정읍 영락리 에 위치한 관광지로, 관광지에 속하며, 대분류: 자연, 중분류: 자연관광지, 소분류: 자연생태관광지입니다. 해당 관광지는 기준월(4.0) 동안 총 1349.0명의 방문자를 기록했습니다. 7월 한 달 동안 154.0명이 방문했습니다. 요일별 방문자수는 월요일 23.0명, 화요일 24.0명, 수요일 17.0명, 목요일 26.0명, 금요일 16.0명, 토요일 29.0명, 일요일 19.0명입니다.",33.2425714,126.2243799
누웨마루거리,제주특별자치도 제주시 신광로 47 (연동) ,관광지,인문(문화/예술/역사),체험관광지,이색거리,2082.0,4.0,192.0,26.0,33.0,29.0,20.0,26.0,28.0,30.0,"'누웨마루거리'은/는 제주특별자치도 제주시 신광로 47 (연동) 에 위치한 관광지로, 관광지에 속하며, 대분류: 인문(문화/예술/역사), 중분류: 체험관광지, 소분류: 이색거리입니다. 해당 관광지는 기준월(4.0) 동안 총 2082.0명의 방문자를 기록했습니다. 7월 한 달 동안 192.0명이 방문했습니다. 요일별 방문자수는 월요일 26.0명, 화요일 33.0명, 수요일 29.0명, 목요일 20.0명, 금요일 26.0명, 토요일 28.0명, 일요일 30.0명입니다.",,
다이나믹메이즈,제주특별자치도 서귀포시 표선면 번영로 2644 ,관광지,인문(문화/예술/역사),휴양관광지,테마공원,7386.0,4.0,547.0,85.0,70.0,68.0,74.0,93.0,75.0,82.0,"'다이나믹메이즈'은/는 제주특별자치도 서귀포시 표선면 번영로 2644 에 위치한 관광지로, 관광지에 속하며, 대분류: 인문(문화/예술/역사), 중분류: 휴양관광지, 소분류: 테마공원입니다. 해당 관광지는 기준월(4.0) 동안 총 7386.0명의 방문자를 기록했습니다. 7월 한 달 동안 547.0명이 방문했습니다. 요일별 방문자수는 월요일 85.0명, 화요일 70.0명, 수요일 68.0명, 목요일 74.0명, 금요일 93.0명, 토요일 75.0명, 일요일 82.0명입니다.",33.3991423,126.7851051
닭머르해안길,제주특별자치도 제주시 조천읍 신촌북3길 62-1 ,관광지,자연,자연관광지,자연생태관광지,12241.0,4.0,896.0,112.0,144.0,121.0,128.0,111.0,127.0,153.0,"'닭머르해안길'은/는 제주특별자치도 제주시 조천읍 신촌북3길 62-1 에 위치한 관광지로, 관광지에 속하며, 대분류: 자연, 중분류: 자연관광지, 소분류: 자연생태관광지입니다. 해당 관광지는 기준월(4.0) 동안 총 12241.0명의 방문자를 기록했습니다. 7월 한 달 동안 896.0명이 방문했습니다. 요일별 방문자수는 월요일 112.0명, 화요일 144.0명, 수요일 121.0명, 목요일 128.0명, 금요일 111.0명, 토요일 127.0명, 일요일 153.0명입니다.",33.5378704,126.6132214
답다니탑망대,제주특별자치도 제주시 우도면 우도해안길 602 ,관광지,인문(문화/예술/역사),건축/조형물,유명건물,713.0,4.0,79.0,8.0,15.0,8.0,10.0,11.0,14.0,13.0,"'답다니탑망대'은/는 제주특별자치도 제주시 우도면 우도해안길 602 에 위치한 관광지로, 관광지에 속하며, 대분류: 인문(문화/예술/역사), 중분류: 건축/조형물, 소분류: 유명건물입니다. 해당 관광지는 기준월(4.0) 동안 총 713.0명의 방문자를 기록했습니다. 7월 한 달 동안 79.0명이 방문했습니다. 요일별 방문자수는 월요일 8.0명, 화요일 15.0명, 수요일 8.0명, 목요일 10.0명, 금요일 11.0명, 토요일 14.0명, 일요일 13.0명입니다.",,
대정향교,제주특별자치도 서귀포시 안덕면 향교로 165-17 ,관광지,인문(문화/예술/역사),역사관광지,유적지/사적지,1020.0,4.0,109.0,19.0,13.0,20.0,13.0,21.0,8.0,15.0,"'대정향교'은/는 제주특별자치도 서귀포시 안덕면 향교로 165-17 에 위치한 관광지로, 관광지에 속하며, 대분류: 인문(문화/예술/역사), 중분류: 역사관광지, 소분류: 유적지/사적지입니다. 해당 관광지는 기준월(4.0) 동안 총 1020.0명의 방문자를 기록했습니다. 7월 한 달 동안 109.0명이 방문했습니다. 요일별 방문자수는 월요일 19.0명, 화요일 13.0명, 수요일 20.0명, 목요일 13.0명, 금요일 21.0명, 토요일 8.0명, 일요일 15.0명입니다.",33.2394319,126.2883184
더마파크,제주특별자치도 제주시 한림읍 월림7길 155 ,관광지,인문(문화/예술/역사),휴양관광지,테마공원,3972.0,4.0,332.0,58.0,52.0,32.0,52.0,54.0,45.0,39.0,"'더마파크'은/는 제주특별자치도 제주시 한림읍 월림7길 155 에 위치한 관광지로, 관광지에 속하며, 대분류: 인문(문화/예술/역사), 중분류: 휴양관광지, 소분류: 테마공원입니다. 해당 관광지는 기준월(4.0) 동안 총 3972.0명의 방문자를 기록했습니다. 7월 한 달 동안 332.0명이 방문했습니다. 요일별 방문자수는 월요일 58.0명, 화요일 52.0명, 수요일 32.0명, 목요일 52.0명, 금요일 54.0명, 토요일 45.0명, 일요일 39.0명입니다.",33.3508962,126.2482536
도치돌알파카목장,제주특별자치도 제주시 애월읍 도치돌길 293 ,관광지,인문(문화/예술/역사),체험관광지,농.산.어촌 체험,1675.0,4.0,180.0,32.0,24.0,30.0,18.0,18.0,37.0,21.0,"'도치돌알파카목장'은/는 제주특별자치도 제주시 애월읍 도치돌길 293 에 위치한 관광지로, 관광지에 속하며, 대분류: 인문(문화/예술/역사), 중분류: 체험관광지, 소분류: 농.산.어촌 체험입니다. 해당 관광지는 기준월(4.0) 동안 총 1675.0명의 방문자를 기록했습니다. 7월 한 달 동안 180.0명이 방문했습니다. 요일별 방문자수는 월요일 32.0명, 화요일 24.0명, 수요일 30.0명, 목요일 18.0명, 금요일 18.0명, 토요일 37.0명, 일요일 21.0명입니다.",,
돈내코,제주특별자치도 서귀포시 돈내코로 137 ,관광지,자연,자연관광지,계곡,6251.0,4.0,351.0,42.0,54.0,40.0,44.0,52.0,55.0,64.0,"'돈내코'은/는 제주특별자치도 서귀포시 돈내코로 137 에 위치한 관광지로, 관광지에 속하며, 대분류: 자연, 중분류: 자연관광지, 소분류: 계곡입니다. 해당 관광지는 기준월(4.0) 동안 총 6251.0명의 방문자를 기록했습니다. 7월 한 달 동안 351.0명이 방문했습니다. 요일별 방문자수는 월요일 42.0명, 화요일 54.0명, 수요일 40.0명, 목요일 44.0명, 금요일 52.0명, 토요일 55.0명, 일요일 64.0명입니다.",33.3510774,126.620716
돈내코힐리조트,제주특별자치도 서귀포시 돈내코로 180 (상효동),숙박,숙박,숙박시설,게스트하우스,422.0,4.0,59.0,12.0,5.0,13.0,7.0,9.0,7.0,6.0,"'돈내코힐리조트'은/는 제주특별자치도 서귀포시 돈내코로 180 (상효동)에 위치한 관광지로, 숙박에 속하며, 대분류: 숙박, 중분류: 숙박시설, 소분류: 게스트하우스입니다. 해당 관광지는 기준월(4.0) 동안 총 422.0명의 방문자를 기록했습니다. 7월 한 달 동안 59.0명이 방문했습니다. 요일별 방문자수는 월요일 12.0명, 화요일 5.0명, 수요일 13.0명, 목요일 7.0명, 금요일 9.0명, 토요일 7.0명, 일요일 6.0명입니다.",,
두맹이골목,제주특별자치도 제주시 일도이동 1006-11,관광지,인문(문화/예술/역사),체험관광지,이색거리,741.0,4.0,77.0,10.0,9.0,12.0,8.0,17.0,9.0,12.0,"'두맹이골목'은/는 제주특별자치도 제주시 일도이동 1006-11에 위치한 관광지로, 관광지에 속하며, 대분류: 인문(문화/예술/역사), 중분류: 체험관광지, 소분류: 이색거리입니다. 해당 관광지는 기준월(4.0) 동안 총 741.0명의 방문자를 기록했습니다. 7월 한 달 동안 77.0명이 방문했습니다. 요일별 방문자수는 월요일 10.0명, 화요일 9.0명, 수요일 12.0명, 목요일 8.0명, 금요일 17.0명, 토요일 9.0명, 일요일 12.0명입니다.",33.5120308,126.5349279
라온호텔앤리조트,제주특별자치도 제주시 한림읍 금능남로 127 ,관광지,인문(문화/예술/역사),휴양관광지,관광단지,619.0,4.0,54.0,11.0,7.0,7.0,2.0,8.0,10.0,9.0,"'라온호텔앤리조트'은/는 제주특별자치도 제주시 한림읍 금능남로 127 에 위치한 관광지로, 관광지에 속하며, 대분류: 인문(문화/예술/역사), 중분류: 휴양관광지, 소분류: 관광단지입니다. 해당 관광지는 기준월(4.0) 동안 총 619.0명의 방문자를 기록했습니다. 7월 한 달 동안 54.0명이 방문했습니다. 요일별 방문자수는 월요일 11.0명, 화요일 7.0명, 수요일 7.0명, 목요일 2.0명, 금요일 8.0명, 토요일 10.0명, 일요일 9.0명입니다.",33.3810152,126.2411754
마라도등대,"제주특별자치도 서귀포시 대정읍 마라로 (165, 마라도항로표지관리소) ",관광지,자연,자연관광지,등대,834.0,4.0,106.0,16.0,15.0,15.0,11.0,15.0,19.0,15.0,"'마라도등대'은/는 제주특별자치도 서귀포시 대정읍 마라로 (165, 마라도항로표지관리소) 에 위치한 관광지로, 관광지에 속하며, 대분류: 자연, 중분류: 자연관광지, 소분류: 등대입니다. 해당 관광지는 기준월(4.0) 동안 총 834.0명의 방문자를 기록했습니다. 7월 한 달 동안 106.0명이 방문했습니다. 요일별 방문자수는 월요일 16.0명, 화요일 15.0명, 수요일 15.0명, 목요일 11.0명, 금요일 15.0명, 토요일 19.0명, 일요일 15.0명입니다.",33.1697336,126.271453
만장굴,제주특별자치도 제주시 구좌읍 만장굴길 182 (구좌읍),관광지,자연,자연관광지,동굴,43227.0,4.0,3912.0,676.0,663.0,615.0,538.0,516.0,405.0,499.0,"'만장굴'은/는 제주특별자치도 제주시 구좌읍 만장굴길 182 (구좌읍)에 위치한 관광지로, 관광지에 속하며, 대분류: 자연, 중분류: 자연관광지, 소분류: 동굴입니다. 해당 관광지는 기준월(4.0) 동안 총 43227.0명의 방문자를 기록했습니다. 7월 한 달 동안 3912.0명이 방문했습니다. 요일별 방문자수는 월요일 676.0명, 화요일 663.0명, 수요일 615.0명, 목요일 538.0명, 금요일 516.0명, 토요일 405.0명, 일요일 499.0명입니다.",33.52819720000001,126.7717618
맥파이브루어리,제주특별자치도 제주시 동회천1길 23 (회천동),관광지,인문(문화/예술/역사),산업관광지,식음료,823.0,4.0,135.0,17.0,16.0,17.0,27.0,16.0,23.0,19.0,"'맥파이브루어리'은/는 제주특별자치도 제주시 동회천1길 23 (회천동)에 위치한 관광지로, 관광지에 속하며, 대분류: 인문(문화/예술/역사), 중분류: 산업관광지, 소분류: 식음료입니다. 해당 관광지는 기준월(4.0) 동안 총 823.0명의 방문자를 기록했습니다. 7월 한 달 동안 135.0명이 방문했습니다. 요일별 방문자수는 월요일 17.0명, 화요일 16.0명, 수요일 17.0명, 목요일 27.0명, 금요일 16.0명, 토요일 23.0명, 일요일 19.0명입니다.",,
메이즈랜드,제주특별자치도 제주시 구좌읍 비자림로 2134-47 ,관광지,인문(문화/예술/역사),휴양관광지,테마공원,8368.0,4.0,710.0,110.0,99.0,107.0,103.0,110.0,88.0,93.0,"'메이즈랜드'은/는 제주특별자치도 제주시 구좌읍 비자림로 2134-47 에 위치한 관광지로, 관광지에 속하며, 대분류: 인문(문화/예술/역사), 중분류: 휴양관광지, 소분류: 테마공원입니다. 해당 관광지는 기준월(4.0) 동안 총 8368.0명의 방문자를 기록했습니다. 7월 한 달 동안 710.0명이 방문했습니다. 요일별 방문자수는 월요일 110.0명, 화요일 99.0명, 수요일 107.0명, 목요일 103.0명, 금요일 110.0명, 토요일 88.0명, 일요일 93.0명입니다.",33.4743111,126.7771579
무수천,제주특별자치도 제주시 애월읍 무수천길 (애월읍) 일대,관광지,자연,자연관광지,계곡,814.0,4.0,57.0,6.0,11.0,6.0,10.0,8.0,10.0,6.0,"'무수천'은/는 제주특별자치도 제주시 애월읍 무수천길 (애월읍) 일대에 위치한 관광지로, 관광지에 속하며, 대분류: 자연, 중분류: 자연관광지, 소분류: 계곡입니다. 해당 관광지는 기준월(4.0) 동안 총 814.0명의 방문자를 기록했습니다. 7월 한 달 동안 57.0명이 방문했습니다. 요일별 방문자수는 월요일 6.0명, 화요일 11.0명, 수요일 6.0명, 목요일 10.0명, 금요일 8.0명, 토요일 10.0명, 일요일 6.0명입니다.",33.4633826,126.4445845
물뫼힐링팜,제주특별자치도 제주시 애월읍 예원로 51 ,관광지,인문(문화/예술/역사),체험관광지,이색체험,987.0,4.0,90.0,11.0,12.0,16.0,13.0,15.0,14.0,9.0,"'물뫼힐링팜'은/는 제주특별자치도 제주시 애월읍 예원로 51 에 위치한 관광지로, 관광지에 속하며, 대분류: 인문(문화/예술/역사), 중분류: 체험관광지, 소분류: 이색체험입니다. 해당 관광지는 기준월(4.0) 동안 총 987.0명의 방문자를 기록했습니다. 7월 한 달 동안 90.0명이 방문했습니다. 요일별 방문자수는 월요일 11.0명, 화요일 12.0명, 수요일 16.0명, 목요일 13.0명, 금요일 15.0명, 토요일 14.0명, 일요일 9.0명입니다.",33.4642593,126.3965364
미천굴,제주특별자치도 서귀포시 성산읍 중산간동로 4150-30 ,관광지,자연,자연관광지,동굴,1936.0,4.0,159.0,21.0,14.0,25.0,27.0,26.0,27.0,19.0,"'미천굴'은/는 제주특별자치도 서귀포시 성산읍 중산간동로 4150-30 에 위치한 관광지로, 관광지에 속하며, 대분류: 자연, 중분류: 자연관광지, 소분류: 동굴입니다. 해당 관광지는 기준월(4.0) 동안 총 1936.0명의 방문자를 기록했습니다. 7월 한 달 동안 159.0명이 방문했습니다. 요일별 방문자수는 월요일 21.0명, 화요일 14.0명, 수요일 25.0명, 목요일 27.0명, 금요일 26.0명, 토요일 27.0명, 일요일 19.0명입니다.",33.3831862,126.8418892
바다해호텔,제주특별자치도 서귀포시 천지연로 3-1 (서귀동),숙박,숙박,숙박시설,게스트하우스,552.0,4.0,60.0,7.0,9.0,12.0,8.0,9.0,7.0,8.0,"'바다해호텔'은/는 제주특별자치도 서귀포시 천지연로 3-1 (서귀동)에 위치한 관광지로, 숙박에 속하며, 대분류: 숙박, 중분류: 숙박시설, 소분류: 게스트하우스입니다. 해당 관광지는 기준월(4.0) 동안 총 552.0명의 방문자를 기록했습니다. 7월 한 달 동안 60.0명이 방문했습니다. 요일별 방문자수는 월요일 7.0명, 화요일 9.0명, 수요일 12.0명, 목요일 8.0명, 금요일 9.0명, 토요일 7.0명, 일요일 8.0명입니다.",33.2414444,126.565685
발자국화석공원,제주특별자치도 서귀포시 대정읍 형제해안로 192 ,관광지,자연,관광자원,기암괴석,1281.0,4.0,218.0,37.0,42.0,35.0,31.0,26.0,27.0,20.0,"'발자국화석공원'은/는 제주특별자치도 서귀포시 대정읍 형제해안로 192 에 위치한 관광지로, 관광지에 속하며, 대분류: 자연, 중분류: 관광자원, 소분류: 기암괴석입니다. 해당 관광지는 기준월(4.0) 동안 총 1281.0명의 방문자를 기록했습니다. 7월 한 달 동안 218.0명이 방문했습니다. 요일별 방문자수는 월요일 37.0명, 화요일 42.0명, 수요일 35.0명, 목요일 31.0명, 금요일 26.0명, 토요일 27.0명, 일요일 20.0명입니다.",33.2173222,126.2930456
방선문,제주특별자치도 제주시 오라이동 39-1,관광지,자연,자연관광지,계곡,623.0,4.0,68.0,8.0,16.0,11.0,7.0,10.0,8.0,8.0,"'방선문'은/는 제주특별자치도 제주시 오라이동 39-1에 위치한 관광지로, 관광지에 속하며, 대분류: 자연, 중분류: 자연관광지, 소분류: 계곡입니다. 해당 관광지는 기준월(4.0) 동안 총 623.0명의 방문자를 기록했습니다. 7월 한 달 동안 68.0명이 방문했습니다. 요일별 방문자수는 월요일 8.0명, 화요일 16.0명, 수요일 11.0명, 목요일 7.0명, 금요일 10.0명, 토요일 8.0명, 일요일 8.0명입니다.",33.4712097,126.5020906
방주교회,제주특별자치도 서귀포시 안덕면 산록남로762번길 113 ,관광지,인문(문화/예술/역사),역사관광지,종교성지,13913.0,4.0,1139.0,160.0,170.0,155.0,152.0,178.0,170.0,154.0,"'방주교회'은/는 제주특별자치도 서귀포시 안덕면 산록남로762번길 113 에 위치한 관광지로, 관광지에 속하며, 대분류: 인문(문화/예술/역사), 중분류: 역사관광지, 소분류: 종교성지입니다. 해당 관광지는 기준월(4.0) 동안 총 13913.0명의 방문자를 기록했습니다. 7월 한 달 동안 1139.0명이 방문했습니다. 요일별 방문자수는 월요일 160.0명, 화요일 170.0명, 수요일 155.0명, 목요일 152.0명, 금요일 178.0명, 토요일 170.0명, 일요일 154.0명입니다.",33.3051258,126.3872587
백패커스홈,제주특별자치도 서귀포시 중정로 24-7 (서귀동),숙박,숙박,숙박시설,게스트하우스,315.0,4.0,41.0,6.0,5.0,4.0,7.0,9.0,4.0,6.0,"'백패커스홈'은/는 제주특별자치도 서귀포시 중정로 24-7 (서귀동)에 위치한 관광지로, 숙박에 속하며, 대분류: 숙박, 중분류: 숙박시설, 소분류: 게스트하우스입니다. 해당 관광지는 기준월(4.0) 동안 총 315.0명의 방문자를 기록했습니다. 7월 한 달 동안 41.0명이 방문했습니다. 요일별 방문자수는 월요일 6.0명, 화요일 5.0명, 수요일 4.0명, 목요일 7.0명, 금요일 9.0명, 토요일 4.0명, 일요일 6.0명입니다.",33.2472869,126.5590809
보통청춘기록실청춘사진관,제주특별자치도 제주시 한림읍 일주서로 5867 ,관광지,인문(문화/예술/역사),체험관광지,이색체험,786.0,4.0,100.0,15.0,17.0,12.0,15.0,6.0,21.0,14.0,"'보통청춘기록실청춘사진관'은/는 제주특별자치도 제주시 한림읍 일주서로 5867 에 위치한 관광지로, 관광지에 속하며, 대분류: 인문(문화/예술/역사), 중분류: 체험관광지, 소분류: 이색체험입니다. 해당 관광지는 기준월(4.0) 동안 총 786.0명의 방문자를 기록했습니다. 7월 한 달 동안 100.0명이 방문했습니다. 요일별 방문자수는 월요일 15.0명, 화요일 17.0명, 수요일 12.0명, 목요일 15.0명, 금요일 6.0명, 토요일 21.0명, 일요일 14.0명입니다.",,
북촌리4.3길,제주특별자치도 제주시 조천읍 북촌3길 3 ,관광지,자연,자연관광지,자연생태관광지,836.0,4.0,114.0,18.0,16.0,19.0,16.0,15.0,16.0,14.0,"'북촌리4.3길'은/는 제주특별자치도 제주시 조천읍 북촌3길 3 에 위치한 관광지로, 관광지에 속하며, 대분류: 자연, 중분류: 자연관광지, 소분류: 자연생태관광지입니다. 해당 관광지는 기준월(4.0) 동안 총 836.0명의 방문자를 기록했습니다. 7월 한 달 동안 114.0명이 방문했습니다. 요일별 방문자수는 월요일 18.0명, 화요일 16.0명, 수요일 19.0명, 목요일 16.0명, 금요일 15.0명, 토요일 16.0명, 일요일 14.0명입니다.",,
붉은오름자연휴양림,제주특별자치도 서귀포시 표선면 남조로 1487-73 ,관광지,자연,자연관광지,자연휴양림,3950.0,4.0,236.0,30.0,31.0,35.0,44.0,32.0,31.0,33.0,"'붉은오름자연휴양림'은/는 제주특별자치도 서귀포시 표선면 남조로 1487-73 에 위치한 관광지로, 관광지에 속하며, 대분류: 자연, 중분류: 자연관광지, 소분류: 자연휴양림입니다. 해당 관광지는 기준월(4.0) 동안 총 3950.0명의 방문자를 기록했습니다. 7월 한 달 동안 236.0명이 방문했습니다. 요일별 방문자수는 월요일 30.0명, 화요일 31.0명, 수요일 35.0명, 목요일 44.0명, 금요일 32.0명, 토요일 31.0명, 일요일 33.0명입니다.",,
브릭216,제주특별자치도 서귀포시 이어도로 216 (대포동),숙박,숙박,숙박시설,게스트하우스,296.0,4.0,40.0,7.0,7.0,9.0,2.0,6.0,4.0,5.0,"'브릭216'은/는 제주특별자치도 서귀포시 이어도로 216 (대포동)에 위치한 관광지로, 숙박에 속하며, 대분류: 숙박, 중분류: 숙박시설, 소분류: 게스트하우스입니다. 해당 관광지는 기준월(4.0) 동안 총 296.0명의 방문자를 기록했습니다. 7월 한 달 동안 40.0명이 방문했습니다. 요일별 방문자수는 월요일 7.0명, 화요일 7.0명, 수요일 9.0명, 목요일 2.0명, 금요일 6.0명, 토요일 4.0명, 일요일 5.0명입니다.",33.240855,126.4434116
사라봉공원,제주특별자치도 제주시 사라봉동길 74 ,관광지,인문(문화/예술/역사),휴양관광지,공원,1849.0,4.0,191.0,29.0,23.0,40.0,24.0,14.0,36.0,25.0,"'사라봉공원'은/는 제주특별자치도 제주시 사라봉동길 74 에 위치한 관광지로, 관광지에 속하며, 대분류: 인문(문화/예술/역사), 중분류: 휴양관광지, 소분류: 공원입니다. 해당 관광지는 기준월(4.0) 동안 총 1849.0명의 방문자를 기록했습니다. 7월 한 달 동안 191.0명이 방문했습니다. 요일별 방문자수는 월요일 29.0명, 화요일 23.0명, 수요일 40.0명, 목요일 24.0명, 금요일 14.0명, 토요일 36.0명, 일요일 25.0명입니다.",33.5177204,126.5457574
산방산랜드,제주특별자치도 서귀포시 안덕면 사계리 117-2,관광지,인문(문화/예술/역사),휴양관광지,테마공원,3336.0,4.0,193.0,21.0,24.0,28.0,25.0,27.0,27.0,41.0,"'산방산랜드'은/는 제주특별자치도 서귀포시 안덕면 사계리 117-2에 위치한 관광지로, 관광지에 속하며, 대분류: 인문(문화/예술/역사), 중분류: 휴양관광지, 소분류: 테마공원입니다. 해당 관광지는 기준월(4.0) 동안 총 3336.0명의 방문자를 기록했습니다. 7월 한 달 동안 193.0명이 방문했습니다. 요일별 방문자수는 월요일 21.0명, 화요일 24.0명, 수요일 28.0명, 목요일 25.0명, 금요일 27.0명, 토요일 27.0명, 일요일 41.0명입니다.",,
산지등대,제주특별자치도 제주시 사라봉동길 108-1 (건입동),관광지,자연,자연관광지,등대,1222.0,4.0,105.0,10.0,21.0,7.0,12.0,15.0,23.0,17.0,"'산지등대'은/는 제주특별자치도 제주시 사라봉동길 108-1 (건입동)에 위치한 관광지로, 관광지에 속하며, 대분류: 자연, 중분류: 자연관광지, 소분류: 등대입니다. 해당 관광지는 기준월(4.0) 동안 총 1222.0명의 방문자를 기록했습니다. 7월 한 달 동안 105.0명이 방문했습니다. 요일별 방문자수는 월요일 10.0명, 화요일 21.0명, 수요일 7.0명, 목요일 12.0명, 금요일 15.0명, 토요일 23.0명, 일요일 17.0명입니다.",33.5213689,126.5456439
산지천,제주특별자치도 제주시 건입동 ,관광지,자연,자연관광지,계곡,2021.0,4.0,246.0,44.0,24.0,31.0,26.0,36.0,37.0,48.0,"'산지천'은/는 제주특별자치도 제주시 건입동 에 위치한 관광지로, 관광지에 속하며, 대분류: 자연, 중분류: 자연관광지, 소분류: 계곡입니다. 해당 관광지는 기준월(4.0) 동안 총 2021.0명의 방문자를 기록했습니다. 7월 한 달 동안 246.0명이 방문했습니다. 요일별 방문자수는 월요일 44.0명, 화요일 24.0명, 수요일 31.0명, 목요일 26.0명, 금요일 36.0명, 토요일 37.0명, 일요일 48.0명입니다.",33.5153591,126.5420032
삼매봉,제주특별자치도 서귀포시 서홍동 820-2,관광지,인문(문화/예술/역사),휴양관광지,공원,630.0,4.0,54.0,11.0,6.0,11.0,5.0,6.0,7.0,8.0,"'삼매봉'은/는 제주특별자치도 서귀포시 서홍동 820-2에 위치한 관광지로, 관광지에 속하며, 대분류: 인문(문화/예술/역사), 중분류: 휴양관광지, 소분류: 공원입니다. 해당 관광지는 기준월(4.0) 동안 총 630.0명의 방문자를 기록했습니다. 7월 한 달 동안 54.0명이 방문했습니다. 요일별 방문자수는 월요일 11.0명, 화요일 6.0명, 수요일 11.0명, 목요일 5.0명, 금요일 6.0명, 토요일 7.0명, 일요일 8.0명입니다.",33.2437181,126.5462844
삼양해안도로,제주특별자치도 제주시 삼양삼동 2582-1 ,관광지,자연,자연관광지,자연생태관광지,481.0,4.0,55.0,8.0,2.0,9.0,6.0,6.0,13.0,11.0,"'삼양해안도로'은/는 제주특별자치도 제주시 삼양삼동 2582-1 에 위치한 관광지로, 관광지에 속하며, 대분류: 자연, 중분류: 자연관광지, 소분류: 자연생태관광지입니다. 해당 관광지는 기준월(4.0) 동안 총 481.0명의 방문자를 기록했습니다. 7월 한 달 동안 55.0명이 방문했습니다. 요일별 방문자수는 월요일 8.0명, 화요일 2.0명, 수요일 9.0명, 목요일 6.0명, 금요일 6.0명, 토요일 13.0명, 일요일 11.0명입니다.",33.52099949999999,126.5841277
서귀본향당,제주특별자치도 서귀포시 이중섭로 23-11 (서귀동),관광지,인문(문화/예술/역사),역사관광지,유적지/사적지,783.0,4.0,126.0,24.0,25.0,20.0,16.0,15.0,17.0,9.0,"'서귀본향당'은/는 제주특별자치도 서귀포시 이중섭로 23-11 (서귀동)에 위치한 관광지로, 관광지에 속하며, 대분류: 인문(문화/예술/역사), 중분류: 역사관광지, 소분류: 유적지/사적지입니다. 해당 관광지는 기준월(4.0) 동안 총 783.0명의 방문자를 기록했습니다. 7월 한 달 동안 126.0명이 방문했습니다. 요일별 방문자수는 월요일 24.0명, 화요일 25.0명, 수요일 20.0명, 목요일 16.0명, 금요일 15.0명, 토요일 17.0명, 일요일 9.0명입니다.",33.2461722,126.5647482
서귀포치유의숲,제주특별자치도 서귀포시 산록남로 2271 (호근동),관광지,인문(문화/예술/역사),휴양관광지,헬스투어,11271.0,4.0,1379.0,208.0,185.0,230.0,193.0,184.0,188.0,191.0,"'서귀포치유의숲'은/는 제주특별자치도 서귀포시 산록남로 2271 (호근동)에 위치한 관광지로, 관광지에 속하며, 대분류: 인문(문화/예술/역사), 중분류: 휴양관광지, 소분류: 헬스투어입니다. 해당 관광지는 기준월(4.0) 동안 총 11271.0명의 방문자를 기록했습니다. 7월 한 달 동안 1379.0명이 방문했습니다. 요일별 방문자수는 월요일 208.0명, 화요일 185.0명, 수요일 230.0명, 목요일 193.0명, 금요일 184.0명, 토요일 188.0명, 일요일 191.0명입니다.",33.3025489,126.5245747
서귀포자연휴양림,제주특별자치도 서귀포시 1100로 882 ,관광지,자연,자연관광지,자연휴양림,2851.0,4.0,308.0,38.0,45.0,45.0,47.0,44.0,42.0,47.0,"'서귀포자연휴양림'은/는 제주특별자치도 서귀포시 1100로 882 에 위치한 관광지로, 관광지에 속하며, 대분류: 자연, 중분류: 자연관광지, 소분류: 자연휴양림입니다. 해당 관광지는 기준월(4.0) 동안 총 2851.0명의 방문자를 기록했습니다. 7월 한 달 동안 308.0명이 방문했습니다. 요일별 방문자수는 월요일 38.0명, 화요일 45.0명, 수요일 45.0명, 목요일 47.0명, 금요일 44.0명, 토요일 42.0명, 일요일 47.0명입니다.",33.3107796,126.4597767
서프라이즈테마파크,제주특별자치도 제주시 조천읍 남조로 2243 ,관광지,인문(문화/예술/역사),휴양관광지,테마공원,1994.0,4.0,165.0,26.0,22.0,35.0,16.0,16.0,22.0,28.0,"'서프라이즈테마파크'은/는 제주특별자치도 제주시 조천읍 남조로 2243 에 위치한 관광지로, 관광지에 속하며, 대분류: 인문(문화/예술/역사), 중분류: 휴양관광지, 소분류: 테마공원입니다. 해당 관광지는 기준월(4.0) 동안 총 1994.0명의 방문자를 기록했습니다. 7월 한 달 동안 165.0명이 방문했습니다. 요일별 방문자수는 월요일 26.0명, 화요일 22.0명, 수요일 35.0명, 목요일 16.0명, 금요일 16.0명, 토요일 22.0명, 일요일 28.0명입니다.",33.4651605,126.6592588
성읍녹차마을,제주특별자치도 서귀포시 중산간동로 4778 녹차가공공장 ,관광지,인문(문화/예술/역사),체험관광지,농.산.어촌 체험,1271.0,4.0,161.0,15.0,25.0,34.0,26.0,21.0,17.0,23.0,"'성읍녹차마을'은/는 제주특별자치도 서귀포시 중산간동로 4778 녹차가공공장 에 위치한 관광지로, 관광지에 속하며, 대분류: 인문(문화/예술/역사), 중분류: 체험관광지, 소분류: 농.산.어촌 체험입니다. 해당 관광지는 기준월(4.0) 동안 총 1271.0명의 방문자를 기록했습니다. 7월 한 달 동안 161.0명이 방문했습니다. 요일별 방문자수는 월요일 15.0명, 화요일 25.0명, 수요일 34.0명, 목요일 26.0명, 금요일 21.0명, 토요일 17.0명, 일요일 23.0명입니다.",33.3810103,126.7901958
성읍랜드,제주특별자치도 서귀포시 표선면 번영로 2650 ,관광지,인문(문화/예술/역사),휴양관광지,테마공원,1912.0,4.0,167.0,21.0,32.0,25.0,19.0,23.0,29.0,18.0,"'성읍랜드'은/는 제주특별자치도 서귀포시 표선면 번영로 2650 에 위치한 관광지로, 관광지에 속하며, 대분류: 인문(문화/예술/역사), 중분류: 휴양관광지, 소분류: 테마공원입니다. 해당 관광지는 기준월(4.0) 동안 총 1912.0명의 방문자를 기록했습니다. 7월 한 달 동안 167.0명이 방문했습니다. 요일별 방문자수는 월요일 21.0명, 화요일 32.0명, 수요일 25.0명, 목요일 19.0명, 금요일 23.0명, 토요일 29.0명, 일요일 18.0명입니다.",33.398978,126.7869638
성읍민속마을,제주특별자치도 서귀포시 표선면 성읍정의현로 19 ,관광지,인문(문화/예술/역사),역사관광지,민속마을,8542.0,4.0,767.0,139.0,110.0,128.0,109.0,93.0,98.0,90.0,"'성읍민속마을'은/는 제주특별자치도 서귀포시 표선면 성읍정의현로 19 에 위치한 관광지로, 관광지에 속하며, 대분류: 인문(문화/예술/역사), 중분류: 역사관광지, 소분류: 민속마을입니다. 해당 관광지는 기준월(4.0) 동안 총 8542.0명의 방문자를 기록했습니다. 7월 한 달 동안 767.0명이 방문했습니다. 요일별 방문자수는 월요일 139.0명, 화요일 110.0명, 수요일 128.0명, 목요일 109.0명, 금요일 93.0명, 토요일 98.0명, 일요일 90.0명입니다.",33.3844862,126.8003558
성이시돌목장,제주특별자치도 제주시 한림읍 산록남로 53 ,관광지,인문(문화/예술/역사),체험관광지,농.산.어촌 체험,11292.0,4.0,1088.0,152.0,150.0,132.0,137.0,134.0,202.0,181.0,"'성이시돌목장'은/는 제주특별자치도 제주시 한림읍 산록남로 53 에 위치한 관광지로, 관광지에 속하며, 대분류: 인문(문화/예술/역사), 중분류: 체험관광지, 소분류: 농.산.어촌 체험입니다. 해당 관광지는 기준월(4.0) 동안 총 11292.0명의 방문자를 기록했습니다. 7월 한 달 동안 1088.0명이 방문했습니다. 요일별 방문자수는 월요일 152.0명, 화요일 150.0명, 수요일 132.0명, 목요일 137.0명, 금요일 134.0명, 토요일 202.0명, 일요일 181.0명입니다.",33.3459727,126.3215552
소인국테마파크,제주특별자치도 서귀포시 안덕면 중산간서로 1878 ,관광지,인문(문화/예술/역사),휴양관광지,테마공원,3988.0,4.0,438.0,67.0,69.0,64.0,70.0,44.0,64.0,60.0,"'소인국테마파크'은/는 제주특별자치도 서귀포시 안덕면 중산간서로 1878 에 위치한 관광지로, 관광지에 속하며, 대분류: 인문(문화/예술/역사), 중분류: 휴양관광지, 소분류: 테마공원입니다. 해당 관광지는 기준월(4.0) 동안 총 3988.0명의 방문자를 기록했습니다. 7월 한 달 동안 438.0명이 방문했습니다. 요일별 방문자수는 월요일 67.0명, 화요일 69.0명, 수요일 64.0명, 목요일 70.0명, 금요일 44.0명, 토요일 64.0명, 일요일 60.0명입니다.",33.2903957,126.3226207
송악산진지동굴,제주특별자치도 서귀포시 대정읍 상모리 238 ,관광지,자연,자연관광지,동굴,2483.0,4.0,209.0,53.0,30.0,27.0,32.0,18.0,26.0,23.0,"'송악산진지동굴'은/는 제주특별자치도 서귀포시 대정읍 상모리 238 에 위치한 관광지로, 관광지에 속하며, 대분류: 자연, 중분류: 자연관광지, 소분류: 동굴입니다. 해당 관광지는 기준월(4.0) 동안 총 2483.0명의 방문자를 기록했습니다. 7월 한 달 동안 209.0명이 방문했습니다. 요일별 방문자수는 월요일 53.0명, 화요일 30.0명, 수요일 27.0명, 목요일 32.0명, 금요일 18.0명, 토요일 26.0명, 일요일 23.0명입니다.",,
송악산둘레길,제주특별자치도 서귀포시 대정읍 상모리 245,관광지,레포츠,육상 레포츠,트래킹,18146.0,4.0,371.0,50.0,58.0,70.0,39.0,47.0,45.0,62.0,"'송악산둘레길'은/는 제주특별자치도 서귀포시 대정읍 상모리 245에 위치한 관광지로, 관광지에 속하며, 대분류: 레포츠, 중분류: 육상 레포츠, 소분류: 트래킹입니다. 해당 관광지는 기준월(4.0) 동안 총 18146.0명의 방문자를 기록했습니다. 7월 한 달 동안 371.0명이 방문했습니다. 요일별 방문자수는 월요일 50.0명, 화요일 58.0명, 수요일 70.0명, 목요일 39.0명, 금요일 47.0명, 토요일 45.0명, 일요일 62.0명입니다.",33.2077419,126.2909048
쇠소깍,제주특별자치도 서귀포시 쇠소깍로 128 (하효동),관광지,자연,자연관광지,계곡,38097.0,4.0,3642.0,561.0,543.0,470.0,475.0,508.0,496.0,589.0,"'쇠소깍'은/는 제주특별자치도 서귀포시 쇠소깍로 128 (하효동)에 위치한 관광지로, 관광지에 속하며, 대분류: 자연, 중분류: 자연관광지, 소분류: 계곡입니다. 해당 관광지는 기준월(4.0) 동안 총 38097.0명의 방문자를 기록했습니다. 7월 한 달 동안 3642.0명이 방문했습니다. 요일별 방문자수는 월요일 561.0명, 화요일 543.0명, 수요일 470.0명, 목요일 475.0명, 금요일 508.0명, 토요일 496.0명, 일요일 589.0명입니다.",33.2522494,126.6230068
수목원테마파크,제주특별자치도 제주시 은수길 69 ,관광지,인문(문화/예술/역사),휴양관광지,테마공원,3236.0,4.0,314.0,71.0,43.0,41.0,46.0,54.0,23.0,36.0,"'수목원테마파크'은/는 제주특별자치도 제주시 은수길 69 에 위치한 관광지로, 관광지에 속하며, 대분류: 인문(문화/예술/역사), 중분류: 휴양관광지, 소분류: 테마공원입니다. 해당 관광지는 기준월(4.0) 동안 총 3236.0명의 방문자를 기록했습니다. 7월 한 달 동안 314.0명이 방문했습니다. 요일별 방문자수는 월요일 71.0명, 화요일 43.0명, 수요일 41.0명, 목요일 46.0명, 금요일 54.0명, 토요일 23.0명, 일요일 36.0명입니다.",33.4705937,126.4883601
순례자의교회,제주특별자치도 제주시 한경면 일주서로 3960-24 ,관광지,인문(문화/예술/역사),역사관광지,종교성지,2494.0,4.0,238.0,23.0,30.0,31.0,31.0,38.0,43.0,42.0,"'순례자의교회'은/는 제주특별자치도 제주시 한경면 일주서로 3960-24 에 위치한 관광지로, 관광지에 속하며, 대분류: 인문(문화/예술/역사), 중분류: 역사관광지, 소분류: 종교성지입니다. 해당 관광지는 기준월(4.0) 동안 총 2494.0명의 방문자를 기록했습니다. 7월 한 달 동안 238.0명이 방문했습니다. 요일별 방문자수는 월요일 23.0명, 화요일 30.0명, 수요일 31.0명, 목요일 31.0명, 금요일 38.0명, 토요일 43.0명, 일요일 42.0명입니다.",33.3198062,126.1805485
쉬리의언덕,제주특별자치도 서귀포시 색달동 3093-1,관광지,자연,자연관광지,자연생태관광지,1722.0,4.0,209.0,29.0,22.0,28.0,33.0,26.0,40.0,31.0,"'쉬리의언덕'은/는 제주특별자치도 서귀포시 색달동 3093-1에 위치한 관광지로, 관광지에 속하며, 대분류: 자연, 중분류: 자연관광지, 소분류: 자연생태관광지입니다. 해당 관광지는 기준월(4.0) 동안 총 1722.0명의 방문자를 기록했습니다. 7월 한 달 동안 209.0명이 방문했습니다. 요일별 방문자수는 월요일 29.0명, 화요일 22.0명, 수요일 28.0명, 목요일 33.0명, 금요일 26.0명, 토요일 40.0명, 일요일 31.0명입니다.",33.245437,126.405584
스누피가든,제주특별자치도 제주시 구좌읍 금백조로 930 스누피 공원,관광지,인문(문화/예술/역사),휴양관광지,테마공원,4482.0,4.0,421.0,63.0,65.0,62.0,66.0,62.0,50.0,53.0,"'스누피가든'은/는 제주특별자치도 제주시 구좌읍 금백조로 930 스누피 공원에 위치한 관광지로, 관광지에 속하며, 대분류: 인문(문화/예술/역사), 중분류: 휴양관광지, 소분류: 테마공원입니다. 해당 관광지는 기준월(4.0) 동안 총 4482.0명의 방문자를 기록했습니다. 7월 한 달 동안 421.0명이 방문했습니다. 요일별 방문자수는 월요일 63.0명, 화요일 65.0명, 수요일 62.0명, 목요일 66.0명, 금요일 62.0명, 토요일 50.0명, 일요일 53.0명입니다.",33.4435555,126.7785412
신비의도로,제주특별자치도 제주시 노형동 ,관광지,인문(문화/예술/역사),체험관광지,이색체험,4799.0,4.0,448.0,63.0,46.0,55.0,73.0,47.0,83.0,81.0,"'신비의도로'은/는 제주특별자치도 제주시 노형동 에 위치한 관광지로, 관광지에 속하며, 대분류: 인문(문화/예술/역사), 중분류: 체험관광지, 소분류: 이색체험입니다. 해당 관광지는 기준월(4.0) 동안 총 4799.0명의 방문자를 기록했습니다. 7월 한 달 동안 448.0명이 방문했습니다. 요일별 방문자수는 월요일 63.0명, 화요일 46.0명, 수요일 55.0명, 목요일 73.0명, 금요일 47.0명, 토요일 83.0명, 일요일 81.0명입니다.",33.4511084,126.4872373
신산공원,제주특별자치도 제주시 신산로 92-12 (일도이동),관광지,인문(문화/예술/역사),휴양관광지,공원,1336.0,4.0,156.0,37.0,21.0,21.0,20.0,13.0,22.0,22.0,"'신산공원'은/는 제주특별자치도 제주시 신산로 92-12 (일도이동)에 위치한 관광지로, 관광지에 속하며, 대분류: 인문(문화/예술/역사), 중분류: 휴양관광지, 소분류: 공원입니다. 해당 관광지는 기준월(4.0) 동안 총 1336.0명의 방문자를 기록했습니다. 7월 한 달 동안 156.0명이 방문했습니다. 요일별 방문자수는 월요일 37.0명, 화요일 21.0명, 수요일 21.0명, 목요일 20.0명, 금요일 13.0명, 토요일 22.0명, 일요일 22.0명입니다.",33.505296,126.5336622
신창풍차해안도로,제주특별자치도 제주시 한경면 신창리 1322-1 ,관광지,자연,자연관광지,자연생태관광지,8862.0,4.0,690.0,102.0,105.0,88.0,108.0,92.0,101.0,94.0,"'신창풍차해안도로'은/는 제주특별자치도 제주시 한경면 신창리 1322-1 에 위치한 관광지로, 관광지에 속하며, 대분류: 자연, 중분류: 자연관광지, 소분류: 자연생태관광지입니다. 해당 관광지는 기준월(4.0) 동안 총 8862.0명의 방문자를 기록했습니다. 7월 한 달 동안 690.0명이 방문했습니다. 요일별 방문자수는 월요일 102.0명, 화요일 105.0명, 수요일 88.0명, 목요일 108.0명, 금요일 92.0명, 토요일 101.0명, 일요일 94.0명입니다.",33.3434277,126.1739088
신천리벽화마을,제주특별자치도 서귀포시 성산읍 신천리 478-1,관광지,인문(문화/예술/역사),체험관광지,이색체험,757.0,4.0,101.0,12.0,8.0,17.0,17.0,24.0,11.0,12.0,"'신천리벽화마을'은/는 제주특별자치도 서귀포시 성산읍 신천리 478-1에 위치한 관광지로, 관광지에 속하며, 대분류: 인문(문화/예술/역사), 중분류: 체험관광지, 소분류: 이색체험입니다. 해당 관광지는 기준월(4.0) 동안 총 757.0명의 방문자를 기록했습니다. 7월 한 달 동안 101.0명이 방문했습니다. 요일별 방문자수는 월요일 12.0명, 화요일 8.0명, 수요일 17.0명, 목요일 17.0명, 금요일 24.0명, 토요일 11.0명, 일요일 12.0명입니다.",,
신풍리밭담길,제주특별자치도 서귀포시 성산읍 신풍하동로 39 ,레포츠,인문(문화/예술/역사),체험관광지,이색거리,745.0,4.0,89.0,16.0,13.0,13.0,12.0,14.0,10.0,11.0,"'신풍리밭담길'은/는 제주특별자치도 서귀포시 성산읍 신풍하동로 39 에 위치한 관광지로, 레포츠에 속하며, 대분류: 인문(문화/예술/역사), 중분류: 체험관광지, 소분류: 이색거리입니다. 해당 관광지는 기준월(4.0) 동안 총 745.0명의 방문자를 기록했습니다. 7월 한 달 동안 89.0명이 방문했습니다. 요일별 방문자수는 월요일 16.0명, 화요일 13.0명, 수요일 13.0명, 목요일 12.0명, 금요일 14.0명, 토요일 10.0명, 일요일 11.0명입니다.",,
싱계물공원,제주특별자치도 제주시 한경면 신창리 1322-1 ,관광지,자연,자연관광지,자연생태관광지,4067.0,4.0,450.0,60.0,60.0,71.0,93.0,43.0,62.0,61.0,"'싱계물공원'은/는 제주특별자치도 제주시 한경면 신창리 1322-1 에 위치한 관광지로, 관광지에 속하며, 대분류: 자연, 중분류: 자연관광지, 소분류: 자연생태관광지입니다. 해당 관광지는 기준월(4.0) 동안 총 4067.0명의 방문자를 기록했습니다. 7월 한 달 동안 450.0명이 방문했습니다. 요일별 방문자수는 월요일 60.0명, 화요일 60.0명, 수요일 71.0명, 목요일 93.0명, 금요일 43.0명, 토요일 62.0명, 일요일 61.0명입니다.",,
쌍용굴,제주특별자치도 제주시 한림읍 한림로 300 ,관광지,자연,자연관광지,동굴,1406.0,4.0,143.0,26.0,24.0,15.0,16.0,15.0,29.0,18.0,"'쌍용굴'은/는 제주특별자치도 제주시 한림읍 한림로 300 에 위치한 관광지로, 관광지에 속하며, 대분류: 자연, 중분류: 자연관광지, 소분류: 동굴입니다. 해당 관광지는 기준월(4.0) 동안 총 1406.0명의 방문자를 기록했습니다. 7월 한 달 동안 143.0명이 방문했습니다. 요일별 방문자수는 월요일 26.0명, 화요일 24.0명, 수요일 15.0명, 목요일 16.0명, 금요일 15.0명, 토요일 29.0명, 일요일 18.0명입니다.",,
아날로그감귤밭,제주특별자치도 제주시 해안마을8길 46 (해안동),관광지,인문(문화/예술/역사),체험관광지,농.산.어촌 체험,2457.0,4.0,199.0,28.0,25.0,31.0,25.0,35.0,31.0,24.0,"'아날로그감귤밭'은/는 제주특별자치도 제주시 해안마을8길 46 (해안동)에 위치한 관광지로, 관광지에 속하며, 대분류: 인문(문화/예술/역사), 중분류: 체험관광지, 소분류: 농.산.어촌 체험입니다. 해당 관광지는 기준월(4.0) 동안 총 2457.0명의 방문자를 기록했습니다. 7월 한 달 동안 199.0명이 방문했습니다. 요일별 방문자수는 월요일 28.0명, 화요일 25.0명, 수요일 31.0명, 목요일 25.0명, 금요일 35.0명, 토요일 31.0명, 일요일 24.0명입니다.",33.455681,126.4509292
안덕계곡,제주특별자치도 서귀포시 안덕면 일주서로 1524 ,관광지,자연,자연관광지,계곡,4621.0,4.0,487.0,100.0,66.0,61.0,69.0,59.0,71.0,61.0,"'안덕계곡'은/는 제주특별자치도 서귀포시 안덕면 일주서로 1524 에 위치한 관광지로, 관광지에 속하며, 대분류: 자연, 중분류: 자연관광지, 소분류: 계곡입니다. 해당 관광지는 기준월(4.0) 동안 총 4621.0명의 방문자를 기록했습니다. 7월 한 달 동안 487.0명이 방문했습니다. 요일별 방문자수는 월요일 100.0명, 화요일 66.0명, 수요일 61.0명, 목요일 69.0명, 금요일 59.0명, 토요일 71.0명, 일요일 61.0명입니다.",33.258442,126.3529777
어영공원,제주특별자치도 제주시 서해안로 451 (용담삼동) ,관광지,인문(문화/예술/역사),휴양관광지,공원,1250.0,4.0,120.0,21.0,15.0,17.0,26.0,13.0,21.0,7.0,"'어영공원'은/는 제주특별자치도 제주시 서해안로 451 (용담삼동) 에 위치한 관광지로, 관광지에 속하며, 대분류: 인문(문화/예술/역사), 중분류: 휴양관광지, 소분류: 공원입니다. 해당 관광지는 기준월(4.0) 동안 총 1250.0명의 방문자를 기록했습니다. 7월 한 달 동안 120.0명이 방문했습니다. 요일별 방문자수는 월요일 21.0명, 화요일 15.0명, 수요일 17.0명, 목요일 26.0명, 금요일 13.0명, 토요일 21.0명, 일요일 7.0명입니다.",33.5177971,126.4877926
엉덩물계곡,제주특별자치도 서귀포시 중문관광로 192 (중문동),관광지,자연,자연관광지,계곡,5162.0,4.0,756.0,104.0,102.0,101.0,107.0,90.0,136.0,116.0,"'엉덩물계곡'은/는 제주특별자치도 서귀포시 중문관광로 192 (중문동)에 위치한 관광지로, 관광지에 속하며, 대분류: 자연, 중분류: 자연관광지, 소분류: 계곡입니다. 해당 관광지는 기준월(4.0) 동안 총 5162.0명의 방문자를 기록했습니다. 7월 한 달 동안 756.0명이 방문했습니다. 요일별 방문자수는 월요일 104.0명, 화요일 102.0명, 수요일 101.0명, 목요일 107.0명, 금요일 90.0명, 토요일 136.0명, 일요일 116.0명입니다.",33.2473317,126.4180777
에코그린리조트,제주특별자치도 제주시 한림읍 귀덕6길 94 ,관광지,인문(문화/예술/역사),휴양관광지,관광단지,405.0,4.0,45.0,4.0,10.0,2.0,10.0,8.0,7.0,4.0,"'에코그린리조트'은/는 제주특별자치도 제주시 한림읍 귀덕6길 94 에 위치한 관광지로, 관광지에 속하며, 대분류: 인문(문화/예술/역사), 중분류: 휴양관광지, 소분류: 관광단지입니다. 해당 관광지는 기준월(4.0) 동안 총 405.0명의 방문자를 기록했습니다. 7월 한 달 동안 45.0명이 방문했습니다. 요일별 방문자수는 월요일 4.0명, 화요일 10.0명, 수요일 2.0명, 목요일 10.0명, 금요일 8.0명, 토요일 7.0명, 일요일 4.0명입니다.",33.4357006,126.2915662
에코랜드테마파크,제주특별자치도 제주시 조천읍 번영로 1278-169 ,관광지,인문(문화/예술/역사),휴양관광지,테마공원,14927.0,4.0,1273.0,197.0,195.0,200.0,183.0,159.0,160.0,179.0,"'에코랜드테마파크'은/는 제주특별자치도 제주시 조천읍 번영로 1278-169 에 위치한 관광지로, 관광지에 속하며, 대분류: 인문(문화/예술/역사), 중분류: 휴양관광지, 소분류: 테마공원입니다. 해당 관광지는 기준월(4.0) 동안 총 14927.0명의 방문자를 기록했습니다. 7월 한 달 동안 1273.0명이 방문했습니다. 요일별 방문자수는 월요일 197.0명, 화요일 195.0명, 수요일 200.0명, 목요일 183.0명, 금요일 159.0명, 토요일 160.0명, 일요일 179.0명입니다.",,
엠버리조트,제주특별자치도 제주시 1100로 2671-51 (노형동),숙박,숙박,숙박시설,게스트하우스,47.0,4.0,4.0,0.0,0.0,2.0,0.0,0.0,2.0,0.0,"'엠버리조트'은/는 제주특별자치도 제주시 1100로 2671-51 (노형동)에 위치한 관광지로, 숙박에 속하며, 대분류: 숙박, 중분류: 숙박시설, 소분류: 게스트하우스입니다. 해당 관광지는 기준월(4.0) 동안 총 47.0명의 방문자를 기록했습니다. 7월 한 달 동안 4.0명이 방문했습니다. 요일별 방문자수는 월요일 0.0명, 화요일 0.0명, 수요일 2.0명, 목요일 0.0명, 금요일 0.0명, 토요일 2.0명, 일요일 0.0명입니다.",33.4236848,126.4889875
연북정,제주특별자치도 제주시 조천읍 조천리 ,관광지,인문(문화/예술/역사),역사관광지,유적지/사적지,927.0,4.0,121.0,11.0,25.0,17.0,15.0,16.0,18.0,19.0,"'연북정'은/는 제주특별자치도 제주시 조천읍 조천리 에 위치한 관광지로, 관광지에 속하며, 대분류: 인문(문화/예술/역사), 중분류: 역사관광지, 소분류: 유적지/사적지입니다. 해당 관광지는 기준월(4.0) 동안 총 927.0명의 방문자를 기록했습니다. 7월 한 달 동안 121.0명이 방문했습니다. 요일별 방문자수는 월요일 11.0명, 화요일 25.0명, 수요일 17.0명, 목요일 15.0명, 금요일 16.0명, 토요일 18.0명, 일요일 19.0명입니다.",33.5401964,126.6359829
오현단,제주특별자치도 제주시 오현길 61 (이도일동),관광지,인문(문화/예술/역사),역사관광지,유적지/사적지,836.0,4.0,106.0,16.0,24.0,9.0,19.0,13.0,8.0,17.0,"'오현단'은/는 제주특별자치도 제주시 오현길 61 (이도일동)에 위치한 관광지로, 관광지에 속하며, 대분류: 인문(문화/예술/역사), 중분류: 역사관광지, 소분류: 유적지/사적지입니다. 해당 관광지는 기준월(4.0) 동안 총 836.0명의 방문자를 기록했습니다. 7월 한 달 동안 106.0명이 방문했습니다. 요일별 방문자수는 월요일 16.0명, 화요일 24.0명, 수요일 9.0명, 목요일 19.0명, 금요일 13.0명, 토요일 8.0명, 일요일 17.0명입니다.",33.5104855,126.5257264
외돌개,제주특별자치도 서귀포시 서흥동 791,관광지,자연,관광자원,기암괴석,8990.0,4.0,889.0,135.0,144.0,138.0,110.0,133.0,122.0,107.0,"'외돌개'은/는 제주특별자치도 서귀포시 서흥동 791에 위치한 관광지로, 관광지에 속하며, 대분류: 자연, 중분류: 관광자원, 소분류: 기암괴석입니다. 해당 관광지는 기준월(4.0) 동안 총 8990.0명의 방문자를 기록했습니다. 7월 한 달 동안 889.0명이 방문했습니다. 요일별 방문자수는 월요일 135.0명, 화요일 144.0명, 수요일 138.0명, 목요일 110.0명, 금요일 133.0명, 토요일 122.0명, 일요일 107.0명입니다.",33.2400761,126.5456641
용담레포츠공원,제주특별자치도 제주시 서해안로 580 (용담삼동) ,관광지,인문(문화/예술/역사),휴양관광지,공원,1821.0,4.0,215.0,28.0,27.0,28.0,25.0,29.0,36.0,42.0,"'용담레포츠공원'은/는 제주특별자치도 제주시 서해안로 580 (용담삼동) 에 위치한 관광지로, 관광지에 속하며, 대분류: 인문(문화/예술/역사), 중분류: 휴양관광지, 소분류: 공원입니다. 해당 관광지는 기준월(4.0) 동안 총 1821.0명의 방문자를 기록했습니다. 7월 한 달 동안 215.0명이 방문했습니다. 요일별 방문자수는 월요일 28.0명, 화요일 27.0명, 수요일 28.0명, 목요일 25.0명, 금요일 29.0명, 토요일 36.0명, 일요일 42.0명입니다.",33.518341,126.4989767
용연,제주특별자치도 제주시 용담일동 2581-4,관광지,자연,자연관광지,계곡,4859.0,4.0,489.0,71.0,77.0,80.0,83.0,53.0,63.0,62.0,"'용연'은/는 제주특별자치도 제주시 용담일동 2581-4에 위치한 관광지로, 관광지에 속하며, 대분류: 자연, 중분류: 자연관광지, 소분류: 계곡입니다. 해당 관광지는 기준월(4.0) 동안 총 4859.0명의 방문자를 기록했습니다. 7월 한 달 동안 489.0명이 방문했습니다. 요일별 방문자수는 월요일 71.0명, 화요일 77.0명, 수요일 80.0명, 목요일 83.0명, 금요일 53.0명, 토요일 63.0명, 일요일 62.0명입니다.",33.5152142,126.5139637
우도등대,제주특별자치도 제주시 우도면 우도봉길 105 (우도면) 부근,관광지,자연,자연관광지,등대,1336.0,4.0,200.0,14.0,40.0,22.0,37.0,27.0,30.0,30.0,"'우도등대'은/는 제주특별자치도 제주시 우도면 우도봉길 105 (우도면) 부근에 위치한 관광지로, 관광지에 속하며, 대분류: 자연, 중분류: 자연관광지, 소분류: 등대입니다. 해당 관광지는 기준월(4.0) 동안 총 1336.0명의 방문자를 기록했습니다. 7월 한 달 동안 200.0명이 방문했습니다. 요일별 방문자수는 월요일 14.0명, 화요일 40.0명, 수요일 22.0명, 목요일 37.0명, 금요일 27.0명, 토요일 30.0명, 일요일 30.0명입니다.",33.4928776,126.9654349
월령선인장군락지,제주특별자치도 제주시 한림읍 월령3길 27-4 ,관광지,자연,자연관광지,자연생태관광지,5452.0,4.0,602.0,98.0,85.0,88.0,63.0,80.0,103.0,85.0,"'월령선인장군락지'은/는 제주특별자치도 제주시 한림읍 월령3길 27-4 에 위치한 관광지로, 관광지에 속하며, 대분류: 자연, 중분류: 자연관광지, 소분류: 자연생태관광지입니다. 해당 관광지는 기준월(4.0) 동안 총 5452.0명의 방문자를 기록했습니다. 7월 한 달 동안 602.0명이 방문했습니다. 요일별 방문자수는 월요일 98.0명, 화요일 85.0명, 수요일 88.0명, 목요일 63.0명, 금요일 80.0명, 토요일 103.0명, 일요일 85.0명입니다.",33.3778976,126.2157287
월정리해안도로,제주특별자치도 제주시 구좌읍 월정리 652-4 ,관광지,자연,자연관광지,자연생태관광지,1135.0,4.0,112.0,18.0,12.0,17.0,19.0,12.0,17.0,17.0,"'월정리해안도로'은/는 제주특별자치도 제주시 구좌읍 월정리 652-4 에 위치한 관광지로, 관광지에 속하며, 대분류: 자연, 중분류: 자연관광지, 소분류: 자연생태관광지입니다. 해당 관광지는 기준월(4.0) 동안 총 1135.0명의 방문자를 기록했습니다. 7월 한 달 동안 112.0명이 방문했습니다. 요일별 방문자수는 월요일 18.0명, 화요일 12.0명, 수요일 17.0명, 목요일 19.0명, 금요일 12.0명, 토요일 17.0명, 일요일 17.0명입니다.",33.5562207,126.7958759
이상한나라의앨리스,제주특별자치도 서귀포시 안덕면 중산간서로 1881 ,관광지,인문(문화/예술/역사),체험관광지,이색체험,2759.0,4.0,273.0,37.0,33.0,28.0,23.0,49.0,41.0,62.0,"'이상한나라의앨리스'은/는 제주특별자치도 서귀포시 안덕면 중산간서로 1881 에 위치한 관광지로, 관광지에 속하며, 대분류: 인문(문화/예술/역사), 중분류: 체험관광지, 소분류: 이색체험입니다. 해당 관광지는 기준월(4.0) 동안 총 2759.0명의 방문자를 기록했습니다. 7월 한 달 동안 273.0명이 방문했습니다. 요일별 방문자수는 월요일 37.0명, 화요일 33.0명, 수요일 28.0명, 목요일 23.0명, 금요일 49.0명, 토요일 41.0명, 일요일 62.0명입니다.",,
이중섭거주지,제주특별자치도 서귀포시 이중섭로 29 (서귀동),관광지,인문(문화/예술/역사),역사관광지,유적지/사적지,2522.0,4.0,235.0,32.0,30.0,40.0,26.0,31.0,44.0,32.0,"'이중섭거주지'은/는 제주특별자치도 서귀포시 이중섭로 29 (서귀동)에 위치한 관광지로, 관광지에 속하며, 대분류: 인문(문화/예술/역사), 중분류: 역사관광지, 소분류: 유적지/사적지입니다. 해당 관광지는 기준월(4.0) 동안 총 2522.0명의 방문자를 기록했습니다. 7월 한 달 동안 235.0명이 방문했습니다. 요일별 방문자수는 월요일 32.0명, 화요일 30.0명, 수요일 40.0명, 목요일 26.0명, 금요일 31.0명, 토요일 44.0명, 일요일 32.0명입니다.",33.2455473,126.5644088
이호테우말등대,제주특별자치도 제주시 이호일동 375-43 ,관광지,자연,자연관광지,등대,5223.0,4.0,500.0,79.0,71.0,88.0,61.0,61.0,75.0,65.0,"'이호테우말등대'은/는 제주특별자치도 제주시 이호일동 375-43 에 위치한 관광지로, 관광지에 속하며, 대분류: 자연, 중분류: 자연관광지, 소분류: 등대입니다. 해당 관광지는 기준월(4.0) 동안 총 5223.0명의 방문자를 기록했습니다. 7월 한 달 동안 500.0명이 방문했습니다. 요일별 방문자수는 월요일 79.0명, 화요일 71.0명, 수요일 88.0명, 목요일 61.0명, 금요일 61.0명, 토요일 75.0명, 일요일 65.0명입니다.",33.5021517,126.4564112
일출랜드,제주특별자치도 서귀포시 성산읍 중산간동로 4150-30 ,관광지,인문(문화/예술/역사),휴양관광지,공원,4391.0,4.0,421.0,50.0,75.0,67.0,64.0,46.0,63.0,56.0,"'일출랜드'은/는 제주특별자치도 서귀포시 성산읍 중산간동로 4150-30 에 위치한 관광지로, 관광지에 속하며, 대분류: 인문(문화/예술/역사), 중분류: 휴양관광지, 소분류: 공원입니다. 해당 관광지는 기준월(4.0) 동안 총 4391.0명의 방문자를 기록했습니다. 7월 한 달 동안 421.0명이 방문했습니다. 요일별 방문자수는 월요일 50.0명, 화요일 75.0명, 수요일 67.0명, 목요일 64.0명, 금요일 46.0명, 토요일 63.0명, 일요일 56.0명입니다.",33.3831862,126.8418892
장생의숲길,제주특별자치도 제주시 명림로 584 (봉개동) ,관광지,자연,자연관광지,자연휴양림,1756.0,4.0,209.0,28.0,40.0,17.0,21.0,31.0,38.0,34.0,"'장생의숲길'은/는 제주특별자치도 제주시 명림로 584 (봉개동) 에 위치한 관광지로, 관광지에 속하며, 대분류: 자연, 중분류: 자연관광지, 소분류: 자연휴양림입니다. 해당 관광지는 기준월(4.0) 동안 총 1756.0명의 방문자를 기록했습니다. 7월 한 달 동안 209.0명이 방문했습니다. 요일별 방문자수는 월요일 28.0명, 화요일 40.0명, 수요일 17.0명, 목요일 21.0명, 금요일 31.0명, 토요일 38.0명, 일요일 34.0명입니다.",,
절부암,제주특별자치도 제주시 한경면 용수리 4241-5,관광지,자연,관광자원,기암괴석,520.0,4.0,62.0,6.0,7.0,10.0,6.0,10.0,15.0,8.0,"'절부암'은/는 제주특별자치도 제주시 한경면 용수리 4241-5에 위치한 관광지로, 관광지에 속하며, 대분류: 자연, 중분류: 관광자원, 소분류: 기암괴석입니다. 해당 관광지는 기준월(4.0) 동안 총 520.0명의 방문자를 기록했습니다. 7월 한 달 동안 62.0명이 방문했습니다. 요일별 방문자수는 월요일 6.0명, 화요일 7.0명, 수요일 10.0명, 목요일 6.0명, 금요일 10.0명, 토요일 15.0명, 일요일 8.0명입니다.",33.3239831,126.1671817
정의향교,제주특별자치도 서귀포시 표선면 성읍서문로 14 ,관광지,인문(문화/예술/역사),역사관광지,유적지/사적지,562.0,4.0,60.0,8.0,2.0,7.0,10.0,11.0,14.0,8.0,"'정의향교'은/는 제주특별자치도 서귀포시 표선면 성읍서문로 14 에 위치한 관광지로, 관광지에 속하며, 대분류: 인문(문화/예술/역사), 중분류: 역사관광지, 소분류: 유적지/사적지입니다. 해당 관광지는 기준월(4.0) 동안 총 562.0명의 방문자를 기록했습니다. 7월 한 달 동안 60.0명이 방문했습니다. 요일별 방문자수는 월요일 8.0명, 화요일 2.0명, 수요일 7.0명, 목요일 10.0명, 금요일 11.0명, 토요일 14.0명, 일요일 8.0명입니다.",33.3869287,126.799942
제주삼양동유적,제주특별자치도 제주시 선사로2길 13 ,관광지,인문(문화/예술/역사),역사관광지,유적지/사적지,1196.0,4.0,124.0,30.0,13.0,12.0,19.0,18.0,13.0,19.0,"'제주삼양동유적'은/는 제주특별자치도 제주시 선사로2길 13 에 위치한 관광지로, 관광지에 속하며, 대분류: 인문(문화/예술/역사), 중분류: 역사관광지, 소분류: 유적지/사적지입니다. 해당 관광지는 기준월(4.0) 동안 총 1196.0명의 방문자를 기록했습니다. 7월 한 달 동안 124.0명이 방문했습니다. 요일별 방문자수는 월요일 30.0명, 화요일 13.0명, 수요일 12.0명, 목요일 19.0명, 금요일 18.0명, 토요일 13.0명, 일요일 19.0명입니다.",,
제주센트럴파크,제주특별자치도 제주시 조천읍 비자림로 606 ,관광지,인문(문화/예술/역사),휴양관광지,테마공원,2173.0,4.0,197.0,27.0,36.0,30.0,29.0,21.0,20.0,34.0,"'제주센트럴파크'은/는 제주특별자치도 제주시 조천읍 비자림로 606 에 위치한 관광지로, 관광지에 속하며, 대분류: 인문(문화/예술/역사), 중분류: 휴양관광지, 소분류: 테마공원입니다. 해당 관광지는 기준월(4.0) 동안 총 2173.0명의 방문자를 기록했습니다. 7월 한 달 동안 197.0명이 방문했습니다. 요일별 방문자수는 월요일 27.0명, 화요일 36.0명, 수요일 30.0명, 목요일 29.0명, 금요일 21.0명, 토요일 20.0명, 일요일 34.0명입니다.",33.4334415,126.6743965
제주유리의성,제주특별자치도 제주시 한경면 녹차분재로 462 ,관광지,인문(문화/예술/역사),휴양관광지,테마공원,4234.0,4.0,443.0,71.0,71.0,62.0,67.0,53.0,51.0,68.0,"'제주유리의성'은/는 제주특별자치도 제주시 한경면 녹차분재로 462 에 위치한 관광지로, 관광지에 속하며, 대분류: 인문(문화/예술/역사), 중분류: 휴양관광지, 소분류: 테마공원입니다. 해당 관광지는 기준월(4.0) 동안 총 4234.0명의 방문자를 기록했습니다. 7월 한 달 동안 443.0명이 방문했습니다. 요일별 방문자수는 월요일 71.0명, 화요일 71.0명, 수요일 62.0명, 목요일 67.0명, 금요일 53.0명, 토요일 51.0명, 일요일 68.0명입니다.",33.314546,126.2739234
제주공룡랜드,제주특별자치도 제주시 애월읍 광령평화2길 1 ,관광지,인문(문화/예술/역사),휴양관광지,테마공원,2609.0,4.0,171.0,22.0,27.0,26.0,16.0,23.0,25.0,32.0,"'제주공룡랜드'은/는 제주특별자치도 제주시 애월읍 광령평화2길 1 에 위치한 관광지로, 관광지에 속하며, 대분류: 인문(문화/예술/역사), 중분류: 휴양관광지, 소분류: 테마공원입니다. 해당 관광지는 기준월(4.0) 동안 총 2609.0명의 방문자를 기록했습니다. 7월 한 달 동안 171.0명이 방문했습니다. 요일별 방문자수는 월요일 22.0명, 화요일 27.0명, 수요일 26.0명, 목요일 16.0명, 금요일 23.0명, 토요일 25.0명, 일요일 32.0명입니다.",,
제주곶자왈도립공원,제주특별자치도 서귀포시 에듀시티로 178 ,관광지,자연,자연관광지,도립공원,4018.0,4.0,473.0,73.0,70.0,64.0,68.0,66.0,64.0,68.0,"'제주곶자왈도립공원'은/는 제주특별자치도 서귀포시 에듀시티로 178 에 위치한 관광지로, 관광지에 속하며, 대분류: 자연, 중분류: 자연관광지, 소분류: 도립공원입니다. 해당 관광지는 기준월(4.0) 동안 총 4018.0명의 방문자를 기록했습니다. 7월 한 달 동안 473.0명이 방문했습니다. 요일별 방문자수는 월요일 73.0명, 화요일 70.0명, 수요일 64.0명, 목요일 68.0명, 금요일 66.0명, 토요일 64.0명, 일요일 68.0명입니다.",33.289275,126.2749677
제주러브랜드,제주특별자치도 제주시 1100로 2894-72 (연동),관광지,인문(문화/예술/역사),휴양관광지,테마공원,4360.0,4.0,301.0,35.0,40.0,44.0,52.0,48.0,39.0,43.0,"'제주러브랜드'은/는 제주특별자치도 제주시 1100로 2894-72 (연동)에 위치한 관광지로, 관광지에 속하며, 대분류: 인문(문화/예술/역사), 중분류: 휴양관광지, 소분류: 테마공원입니다. 해당 관광지는 기준월(4.0) 동안 총 4360.0명의 방문자를 기록했습니다. 7월 한 달 동안 301.0명이 방문했습니다. 요일별 방문자수는 월요일 35.0명, 화요일 40.0명, 수요일 44.0명, 목요일 52.0명, 금요일 48.0명, 토요일 39.0명, 일요일 43.0명입니다.",33.4517135,126.4901715
제주바다체험장,제주특별자치도 제주시 구좌읍 일주동로 1777 ,관광지,인문(문화/예술/역사),체험관광지,농.산.어촌 체험,1227.0,4.0,150.0,18.0,22.0,25.0,18.0,20.0,21.0,26.0,"'제주바다체험장'은/는 제주특별자치도 제주시 구좌읍 일주동로 1777 에 위치한 관광지로, 관광지에 속하며, 대분류: 인문(문화/예술/역사), 중분류: 체험관광지, 소분류: 농.산.어촌 체험입니다. 해당 관광지는 기준월(4.0) 동안 총 1227.0명의 방문자를 기록했습니다. 7월 한 달 동안 150.0명이 방문했습니다. 요일별 방문자수는 월요일 18.0명, 화요일 22.0명, 수요일 25.0명, 목요일 18.0명, 금요일 20.0명, 토요일 21.0명, 일요일 26.0명입니다.",33.5546738,126.7218438
제주별빛누리공원,제주특별자치도 제주시 선돌목동길 60 (오등동) ,관광지,인문(문화/예술/역사),휴양관광지,공원,1639.0,4.0,157.0,20.0,26.0,18.0,23.0,19.0,25.0,26.0,"'제주별빛누리공원'은/는 제주특별자치도 제주시 선돌목동길 60 (오등동) 에 위치한 관광지로, 관광지에 속하며, 대분류: 인문(문화/예술/역사), 중분류: 휴양관광지, 소분류: 공원입니다. 해당 관광지는 기준월(4.0) 동안 총 1639.0명의 방문자를 기록했습니다. 7월 한 달 동안 157.0명이 방문했습니다. 요일별 방문자수는 월요일 20.0명, 화요일 26.0명, 수요일 18.0명, 목요일 23.0명, 금요일 19.0명, 토요일 25.0명, 일요일 26.0명입니다.",33.4451439,126.5492347
제주아이브리조트,제주특별자치도 서귀포시 산록남로 1966-34 (영남동),관광지,인문(문화/예술/역사),휴양관광지,관광단지,709.0,4.0,85.0,12.0,13.0,13.0,8.0,14.0,14.0,11.0,"'제주아이브리조트'은/는 제주특별자치도 서귀포시 산록남로 1966-34 (영남동)에 위치한 관광지로, 관광지에 속하며, 대분류: 인문(문화/예술/역사), 중분류: 휴양관광지, 소분류: 관광단지입니다. 해당 관광지는 기준월(4.0) 동안 총 709.0명의 방문자를 기록했습니다. 7월 한 달 동안 85.0명이 방문했습니다. 요일별 방문자수는 월요일 12.0명, 화요일 13.0명, 수요일 13.0명, 목요일 8.0명, 금요일 14.0명, 토요일 14.0명, 일요일 11.0명입니다.",33.288409,126.4968764
제주안전체험관,제주특별자치도 제주시 애월읍 평화로 1885 ,관광지,인문(문화/예술/역사),체험관광지,이색체험,2271.0,4.0,193.0,25.0,34.0,24.0,34.0,39.0,19.0,18.0,"'제주안전체험관'은/는 제주특별자치도 제주시 애월읍 평화로 1885 에 위치한 관광지로, 관광지에 속하며, 대분류: 인문(문화/예술/역사), 중분류: 체험관광지, 소분류: 이색체험입니다. 해당 관광지는 기준월(4.0) 동안 총 2271.0명의 방문자를 기록했습니다. 7월 한 달 동안 193.0명이 방문했습니다. 요일별 방문자수는 월요일 25.0명, 화요일 34.0명, 수요일 24.0명, 목요일 34.0명, 금요일 39.0명, 토요일 19.0명, 일요일 18.0명입니다.",33.3942008,126.3737312
제주양떼목장,제주특별자치도 제주시 애월읍 도치돌길 289-13 ,관광지,인문(문화/예술/역사),체험관광지,농.산.어촌 체험,1043.0,4.0,111.0,10.0,10.0,28.0,15.0,13.0,14.0,21.0,"'제주양떼목장'은/는 제주특별자치도 제주시 애월읍 도치돌길 289-13 에 위치한 관광지로, 관광지에 속하며, 대분류: 인문(문화/예술/역사), 중분류: 체험관광지, 소분류: 농.산.어촌 체험입니다. 해당 관광지는 기준월(4.0) 동안 총 1043.0명의 방문자를 기록했습니다. 7월 한 달 동안 111.0명이 방문했습니다. 요일별 방문자수는 월요일 10.0명, 화요일 10.0명, 수요일 28.0명, 목요일 15.0명, 금요일 13.0명, 토요일 14.0명, 일요일 21.0명입니다.",33.4109424,126.3653661
제주절물자연휴양림,제주특별자치도 제주시 명림로 584 ,관광지,자연,자연관광지,자연휴양림,14568.0,4.0,931.0,129.0,131.0,155.0,138.0,130.0,131.0,117.0,"'제주절물자연휴양림'은/는 제주특별자치도 제주시 명림로 584 에 위치한 관광지로, 관광지에 속하며, 대분류: 자연, 중분류: 자연관광지, 소분류: 자연휴양림입니다. 해당 관광지는 기준월(4.0) 동안 총 14568.0명의 방문자를 기록했습니다. 7월 한 달 동안 931.0명이 방문했습니다. 요일별 방문자수는 월요일 129.0명, 화요일 131.0명, 수요일 155.0명, 목요일 138.0명, 금요일 130.0명, 토요일 131.0명, 일요일 117.0명입니다.",33.4302354,126.6227963
제주향교,제주특별자치도 제주시 서문로 43 (용담일동),관광지,인문(문화/예술/역사),역사관광지,유적지/사적지,773.0,4.0,105.0,15.0,26.0,8.0,12.0,17.0,10.0,17.0,"'제주향교'은/는 제주특별자치도 제주시 서문로 43 (용담일동)에 위치한 관광지로, 관광지에 속하며, 대분류: 인문(문화/예술/역사), 중분류: 역사관광지, 소분류: 유적지/사적지입니다. 해당 관광지는 기준월(4.0) 동안 총 773.0명의 방문자를 기록했습니다. 7월 한 달 동안 105.0명이 방문했습니다. 요일별 방문자수는 월요일 15.0명, 화요일 26.0명, 수요일 8.0명, 목요일 12.0명, 금요일 17.0명, 토요일 10.0명, 일요일 17.0명입니다.",33.5111677,126.5159523
제주힐링명상센터,제주특별자치도 제주시 애월읍 어음13길 196 ,관광지,인문(문화/예술/역사),체험관광지,이색체험,2763.0,4.0,285.0,75.0,47.0,26.0,40.0,34.0,32.0,31.0,"'제주힐링명상센터'은/는 제주특별자치도 제주시 애월읍 어음13길 196 에 위치한 관광지로, 관광지에 속하며, 대분류: 인문(문화/예술/역사), 중분류: 체험관광지, 소분류: 이색체험입니다. 해당 관광지는 기준월(4.0) 동안 총 2763.0명의 방문자를 기록했습니다. 7월 한 달 동안 285.0명이 방문했습니다. 요일별 방문자수는 월요일 75.0명, 화요일 47.0명, 수요일 26.0명, 목요일 40.0명, 금요일 34.0명, 토요일 32.0명, 일요일 31.0명입니다.",33.3955297,126.3610931
조랑말체험공원,제주특별자치도 서귀포시 표선면 녹산로 381-15 ,관광지,인문(문화/예술/역사),체험관광지,이색체험,1821.0,4.0,198.0,31.0,24.0,31.0,28.0,19.0,42.0,23.0,"'조랑말체험공원'은/는 제주특별자치도 서귀포시 표선면 녹산로 381-15 에 위치한 관광지로, 관광지에 속하며, 대분류: 인문(문화/예술/역사), 중분류: 체험관광지, 소분류: 이색체험입니다. 해당 관광지는 기준월(4.0) 동안 총 1821.0명의 방문자를 기록했습니다. 7월 한 달 동안 198.0명이 방문했습니다. 요일별 방문자수는 월요일 31.0명, 화요일 24.0명, 수요일 31.0명, 목요일 28.0명, 금요일 19.0명, 토요일 42.0명, 일요일 23.0명입니다.",33.3831928,126.7359802
조천만세동산,제주특별자치도 제주시 조천읍 조천리 1142-1,관광지,인문(문화/예술/역사),역사관광지,유적지/사적지,1237.0,4.0,126.0,21.0,18.0,14.0,19.0,13.0,22.0,19.0,"'조천만세동산'은/는 제주특별자치도 제주시 조천읍 조천리 1142-1에 위치한 관광지로, 관광지에 속하며, 대분류: 인문(문화/예술/역사), 중분류: 역사관광지, 소분류: 유적지/사적지입니다. 해당 관광지는 기준월(4.0) 동안 총 1237.0명의 방문자를 기록했습니다. 7월 한 달 동안 126.0명이 방문했습니다. 요일별 방문자수는 월요일 21.0명, 화요일 18.0명, 수요일 14.0명, 목요일 19.0명, 금요일 13.0명, 토요일 22.0명, 일요일 19.0명입니다.",33.5399846,126.6416165
조천함덕해안도로,제주특별자치도 제주시 조천읍 조함해안로 525 ,관광지,자연,자연관광지,자연생태관광지,1614.0,4.0,157.0,27.0,25.0,24.0,24.0,18.0,20.0,19.0,"'조천함덕해안도로'은/는 제주특별자치도 제주시 조천읍 조함해안로 525 에 위치한 관광지로, 관광지에 속하며, 대분류: 자연, 중분류: 자연관광지, 소분류: 자연생태관광지입니다. 해당 관광지는 기준월(4.0) 동안 총 1614.0명의 방문자를 기록했습니다. 7월 한 달 동안 157.0명이 방문했습니다. 요일별 방문자수는 월요일 27.0명, 화요일 25.0명, 수요일 24.0명, 목요일 24.0명, 금요일 18.0명, 토요일 20.0명, 일요일 19.0명입니다.",33.5313895,126.6429191
종달리해안도로,제주특별자치도 제주시 구좌읍 종달리 ,관광지,자연,자연관광지,자연생태관광지,1858.0,4.0,175.0,23.0,26.0,20.0,23.0,21.0,23.0,39.0,"'종달리해안도로'은/는 제주특별자치도 제주시 구좌읍 종달리 에 위치한 관광지로, 관광지에 속하며, 대분류: 자연, 중분류: 자연관광지, 소분류: 자연생태관광지입니다. 해당 관광지는 기준월(4.0) 동안 총 1858.0명의 방문자를 기록했습니다. 7월 한 달 동안 175.0명이 방문했습니다. 요일별 방문자수는 월요일 23.0명, 화요일 26.0명, 수요일 20.0명, 목요일 23.0명, 금요일 21.0명, 토요일 23.0명, 일요일 39.0명입니다.",33.4828963,126.9017162
종달리수국길,제주특별자치도 제주시 구좌읍 종달리 112-4 ,관광지,자연,자연관광지,자연생태관광지,4291.0,4.0,556.0,73.0,87.0,70.0,79.0,72.0,91.0,84.0,"'종달리수국길'은/는 제주특별자치도 제주시 구좌읍 종달리 112-4 에 위치한 관광지로, 관광지에 속하며, 대분류: 자연, 중분류: 자연관광지, 소분류: 자연생태관광지입니다. 해당 관광지는 기준월(4.0) 동안 총 4291.0명의 방문자를 기록했습니다. 7월 한 달 동안 556.0명이 방문했습니다. 요일별 방문자수는 월요일 73.0명, 화요일 87.0명, 수요일 70.0명, 목요일 79.0명, 금요일 72.0명, 토요일 91.0명, 일요일 84.0명입니다.",33.5290971,126.8463777
중문관광단지,제주특별자치도 서귀포시 중문관광로 38 (중문관광단지안내소),관광지,인문(문화/예술/역사),휴양관광지,관광단지,7359.0,4.0,714.0,110.0,102.0,103.0,104.0,106.0,82.0,107.0,"'중문관광단지'은/는 제주특별자치도 서귀포시 중문관광로 38 (중문관광단지안내소)에 위치한 관광지로, 관광지에 속하며, 대분류: 인문(문화/예술/역사), 중분류: 휴양관광지, 소분류: 관광단지입니다. 해당 관광지는 기준월(4.0) 동안 총 7359.0명의 방문자를 기록했습니다. 7월 한 달 동안 714.0명이 방문했습니다. 요일별 방문자수는 월요일 110.0명, 화요일 102.0명, 수요일 103.0명, 목요일 104.0명, 금요일 106.0명, 토요일 82.0명, 일요일 107.0명입니다.",33.2482702,126.4104128
중문미로파크,제주특별자치도 서귀포시 상예동 3592-5 ,관광지,인문(문화/예술/역사),휴양관광지,테마공원,2467.0,4.0,225.0,29.0,33.0,30.0,32.0,34.0,40.0,27.0,"'중문미로파크'은/는 제주특별자치도 서귀포시 상예동 3592-5 에 위치한 관광지로, 관광지에 속하며, 대분류: 인문(문화/예술/역사), 중분류: 휴양관광지, 소분류: 테마공원입니다. 해당 관광지는 기준월(4.0) 동안 총 2467.0명의 방문자를 기록했습니다. 7월 한 달 동안 225.0명이 방문했습니다. 요일별 방문자수는 월요일 29.0명, 화요일 33.0명, 수요일 30.0명, 목요일 32.0명, 금요일 34.0명, 토요일 40.0명, 일요일 27.0명입니다.",33.2635326,126.3818174
추자도등대,제주특별자치도 제주시 추자면 영흥4길 43 (추자면),관광지,자연,자연관광지,등대,319.0,4.0,45.0,7.0,5.0,6.0,5.0,8.0,8.0,6.0,"'추자도등대'은/는 제주특별자치도 제주시 추자면 영흥4길 43 (추자면)에 위치한 관광지로, 관광지에 속하며, 대분류: 자연, 중분류: 자연관광지, 소분류: 등대입니다. 해당 관광지는 기준월(4.0) 동안 총 319.0명의 방문자를 기록했습니다. 7월 한 달 동안 45.0명이 방문했습니다. 요일별 방문자수는 월요일 7.0명, 화요일 5.0명, 수요일 6.0명, 목요일 5.0명, 금요일 8.0명, 토요일 8.0명, 일요일 6.0명입니다.",33.957785,126.2982082
취다선리조트,제주특별자치도 서귀포시 성산읍 해맞이해안로 2688 ,숙박,숙박,숙박시설,게스트하우스,1342.0,4.0,136.0,21.0,23.0,26.0,20.0,17.0,11.0,18.0,"'취다선리조트'은/는 제주특별자치도 서귀포시 성산읍 해맞이해안로 2688 에 위치한 관광지로, 숙박에 속하며, 대분류: 숙박, 중분류: 숙박시설, 소분류: 게스트하우스입니다. 해당 관광지는 기준월(4.0) 동안 총 1342.0명의 방문자를 기록했습니다. 7월 한 달 동안 136.0명이 방문했습니다. 요일별 방문자수는 월요일 21.0명, 화요일 23.0명, 수요일 26.0명, 목요일 20.0명, 금요일 17.0명, 토요일 11.0명, 일요일 18.0명입니다.",33.4718627,126.9128692
캔디원,제주특별자치도 제주시 조천읍 선교로 384 ,관광지,인문(문화/예술/역사),체험관광지,이색체험,1066.0,4.0,98.0,16.0,11.0,10.0,12.0,11.0,17.0,21.0,"'캔디원'은/는 제주특별자치도 제주시 조천읍 선교로 384 에 위치한 관광지로, 관광지에 속하며, 대분류: 인문(문화/예술/역사), 중분류: 체험관광지, 소분류: 이색체험입니다. 해당 관광지는 기준월(4.0) 동안 총 1066.0명의 방문자를 기록했습니다. 7월 한 달 동안 98.0명이 방문했습니다. 요일별 방문자수는 월요일 16.0명, 화요일 11.0명, 수요일 10.0명, 목요일 12.0명, 금요일 11.0명, 토요일 17.0명, 일요일 21.0명입니다.",33.4712877,126.707937
코델리아리조트,제주특별자치도 서귀포시 성산읍 일주동로4120번길 23-20 ,관광지,인문(문화/예술/역사),휴양관광지,관광단지,383.0,4.0,39.0,6.0,9.0,6.0,4.0,6.0,5.0,3.0,"'코델리아리조트'은/는 제주특별자치도 서귀포시 성산읍 일주동로4120번길 23-20 에 위치한 관광지로, 관광지에 속하며, 대분류: 인문(문화/예술/역사), 중분류: 휴양관광지, 소분류: 관광단지입니다. 해당 관광지는 기준월(4.0) 동안 총 383.0명의 방문자를 기록했습니다. 7월 한 달 동안 39.0명이 방문했습니다. 요일별 방문자수는 월요일 6.0명, 화요일 9.0명, 수요일 6.0명, 목요일 4.0명, 금요일 6.0명, 토요일 5.0명, 일요일 3.0명입니다.",33.4591059,126.9102124
펜션연리,제주특별자치도 서귀포시 논짓물로 50 (하예동),숙박,숙박,숙박시설,게스트하우스,132.0,4.0,10.0,1.0,1.0,2.0,1.0,1.0,2.0,2.0,"'펜션연리'은/는 제주특별자치도 서귀포시 논짓물로 50 (하예동)에 위치한 관광지로, 숙박에 속하며, 대분류: 숙박, 중분류: 숙박시설, 소분류: 게스트하우스입니다. 해당 관광지는 기준월(4.0) 동안 총 132.0명의 방문자를 기록했습니다. 7월 한 달 동안 10.0명이 방문했습니다. 요일별 방문자수는 월요일 1.0명, 화요일 1.0명, 수요일 2.0명, 목요일 1.0명, 금요일 1.0명, 토요일 2.0명, 일요일 2.0명입니다.",33.2403591,126.3863078
포레스트사파리,제주특별자치도 제주시 조천읍 선교로 474-1 ,관광지,인문(문화/예술/역사),휴양관광지,테마공원,972.0,4.0,141.0,18.0,17.0,14.0,23.0,28.0,20.0,21.0,"'포레스트사파리'은/는 제주특별자치도 제주시 조천읍 선교로 474-1 에 위치한 관광지로, 관광지에 속하며, 대분류: 인문(문화/예술/역사), 중분류: 휴양관광지, 소분류: 테마공원입니다. 해당 관광지는 기준월(4.0) 동안 총 972.0명의 방문자를 기록했습니다. 7월 한 달 동안 141.0명이 방문했습니다. 요일별 방문자수는 월요일 18.0명, 화요일 17.0명, 수요일 14.0명, 목요일 23.0명, 금요일 28.0명, 토요일 20.0명, 일요일 21.0명입니다.",,
한림공원,제주특별자치도 제주시 한림읍 한림로 300 ,관광지,인문(문화/예술/역사),휴양관광지,공원,8246.0,4.0,945.0,135.0,149.0,123.0,129.0,142.0,141.0,126.0,"'한림공원'은/는 제주특별자치도 제주시 한림읍 한림로 300 에 위치한 관광지로, 관광지에 속하며, 대분류: 인문(문화/예술/역사), 중분류: 휴양관광지, 소분류: 공원입니다. 해당 관광지는 기준월(4.0) 동안 총 8246.0명의 방문자를 기록했습니다. 7월 한 달 동안 945.0명이 방문했습니다. 요일별 방문자수는 월요일 135.0명, 화요일 149.0명, 수요일 123.0명, 목요일 129.0명, 금요일 142.0명, 토요일 141.0명, 일요일 126.0명입니다.",33.3883099,126.2394248
해맞이해안로,제주특별자치도 제주시 구좌읍 김녕리 ,관광지,자연,자연관광지,자연생태관광지,1205.0,4.0,140.0,25.0,16.0,17.0,21.0,16.0,30.0,15.0,"'해맞이해안로'은/는 제주특별자치도 제주시 구좌읍 김녕리 에 위치한 관광지로, 관광지에 속하며, 대분류: 자연, 중분류: 자연관광지, 소분류: 자연생태관광지입니다. 해당 관광지는 기준월(4.0) 동안 총 1205.0명의 방문자를 기록했습니다. 7월 한 달 동안 140.0명이 방문했습니다. 요일별 방문자수는 월요일 25.0명, 화요일 16.0명, 수요일 17.0명, 목요일 21.0명, 금요일 16.0명, 토요일 30.0명, 일요일 15.0명입니다.",33.5389636,126.7494481
협재굴,제주특별자치도 제주시 한림읍 한림로 300 (한림읍),관광지,자연,자연관광지,동굴,3351.0,4.0,328.0,63.0,57.0,39.0,37.0,39.0,50.0,43.0,"'협재굴'은/는 제주특별자치도 제주시 한림읍 한림로 300 (한림읍)에 위치한 관광지로, 관광지에 속하며, 대분류: 자연, 중분류: 자연관광지, 소분류: 동굴입니다. 해당 관광지는 기준월(4.0) 동안 총 3351.0명의 방문자를 기록했습니다. 7월 한 달 동안 328.0명이 방문했습니다. 요일별 방문자수는 월요일 63.0명, 화요일 57.0명, 수요일 39.0명, 목요일 37.0명, 금요일 39.0명, 토요일 50.0명, 일요일 43.0명입니다.",,
형제해안도로,제주특별자치도 서귀포시 안덕면 사계리 3682 ,관광지,자연,자연관광지,자연생태관광지,1084.0,4.0,88.0,12.0,18.0,6.0,14.0,10.0,15.0,13.0,"'형제해안도로'은/는 제주특별자치도 서귀포시 안덕면 사계리 3682 에 위치한 관광지로, 관광지에 속하며, 대분류: 자연, 중분류: 자연관광지, 소분류: 자연생태관광지입니다. 해당 관광지는 기준월(4.0) 동안 총 1084.0명의 방문자를 기록했습니다. 7월 한 달 동안 88.0명이 방문했습니다. 요일별 방문자수는 월요일 12.0명, 화요일 18.0명, 수요일 6.0명, 목요일 14.0명, 금요일 10.0명, 토요일 15.0명, 일요일 13.0명입니다.",33.2010015,126.2801453
호텔서귀피안,제주특별자치도 서귀포시 보목로64번길 178 (보목동),숙박,숙박,숙박시설,게스트하우스,147.0,4.0,11.0,4.0,3.0,1.0,1.0,0.0,1.0,1.0,"'호텔서귀피안'은/는 제주특별자치도 서귀포시 보목로64번길 178 (보목동)에 위치한 관광지로, 숙박에 속하며, 대분류: 숙박, 중분류: 숙박시설, 소분류: 게스트하우스입니다. 해당 관광지는 기준월(4.0) 동안 총 147.0명의 방문자를 기록했습니다. 7월 한 달 동안 11.0명이 방문했습니다. 요일별 방문자수는 월요일 4.0명, 화요일 3.0명, 수요일 1.0명, 목요일 1.0명, 금요일 0.0명, 토요일 1.0명, 일요일 1.0명입니다.",33.2444011,126.5906654
혼인지,제주특별자치도 서귀포시 성산읍 혼인지로 39-22 (성산읍),관광지,자연,자연관광지,자연생태관광지,3739.0,4.0,369.0,60.0,56.0,54.0,49.0,51.0,55.0,44.0,"'혼인지'은/는 제주특별자치도 서귀포시 성산읍 혼인지로 39-22 (성산읍)에 위치한 관광지로, 관광지에 속하며, 대분류: 자연, 중분류: 자연관광지, 소분류: 자연생태관광지입니다. 해당 관광지는 기준월(4.0) 동안 총 3739.0명의 방문자를 기록했습니다. 7월 한 달 동안 369.0명이 방문했습니다. 요일별 방문자수는 월요일 60.0명, 화요일 56.0명, 수요일 54.0명, 목요일 49.0명, 금요일 51.0명, 토요일 55.0명, 일요일 44.0명입니다.",33.41514350000001,126.8938099
화조원,제주특별자치도 제주시 애월읍 애원로 804 ,관광지,인문(문화/예술/역사),휴양관광지,테마공원,1388.0,4.0,144.0,22.0,20.0,13.0,24.0,34.0,13.0,18.0,"'화조원'은/는 제주특별자치도 제주시 애월읍 애원로 804 에 위치한 관광지로, 관광지에 속하며, 대분류: 인문(문화/예술/역사), 중분류: 휴양관광지, 소분류: 테마공원입니다. 해당 관광지는 기준월(4.0) 동안 총 1388.0명의 방문자를 기록했습니다. 7월 한 달 동안 144.0명이 방문했습니다. 요일별 방문자수는 월요일 22.0명, 화요일 20.0명, 수요일 13.0명, 목요일 24.0명, 금요일 34.0명, 토요일 13.0명, 일요일 18.0명입니다.",33.411109,126.3714311
환상숲곶자왈공원,제주특별자치도 제주시 한경면 저지리 2848-2 ,관광지,자연,자연관광지,자연휴양림,6303.0,4.0,677.0,102.0,113.0,112.0,89.0,93.0,83.0,85.0,"'환상숲곶자왈공원'은/는 제주특별자치도 제주시 한경면 저지리 2848-2 에 위치한 관광지로, 관광지에 속하며, 대분류: 자연, 중분류: 자연관광지, 소분류: 자연휴양림입니다. 해당 관광지는 기준월(4.0) 동안 총 6303.0명의 방문자를 기록했습니다. 7월 한 달 동안 677.0명이 방문했습니다. 요일별 방문자수는 월요일 102.0명, 화요일 113.0명, 수요일 112.0명, 목요일 89.0명, 금요일 93.0명, 토요일 83.0명, 일요일 85.0명입니다.",,
황우지해안열두굴,제주특별자치도 서귀포시 남성로 93 (서홍동),관광지,자연,자연관광지,동굴,1220.0,4.0,155.0,23.0,29.0,18.0,16.0,25.0,25.0,19.0,"'황우지해안열두굴'은/는 제주특별자치도 서귀포시 남성로 93 (서홍동)에 위치한 관광지로, 관광지에 속하며, 대분류: 자연, 중분류: 자연관광지, 소분류: 동굴입니다. 해당 관광지는 기준월(4.0) 동안 총 1220.0명의 방문자를 기록했습니다. 7월 한 달 동안 155.0명이 방문했습니다. 요일별 방문자수는 월요일 23.0명, 화요일 29.0명, 수요일 18.0명, 목요일 16.0명, 금요일 25.0명, 토요일 25.0명, 일요일 19.0명입니다.",,
휴림,제주특별자치도 제주시 애월읍 광령남서길 40 ,관광지,인문(문화/예술/역사),휴양관광지,테마공원,1637.0,4.0,204.0,32.0,24.0,35.0,30.0,31.0,26.0,26.0,"'휴림'은/는 제주특별자치도 제주시 애월읍 광령남서길 40 에 위치한 관광지로, 관광지에 속하며, 대분류: 인문(문화/예술/역사), 중분류: 휴양관광지, 소분류: 테마공원입니다. 해당 관광지는 기준월(4.0) 동안 총 1637.0명의 방문자를 기록했습니다. 7월 한 달 동안 204.0명이 방문했습니다. 요일별 방문자수는 월요일 32.0명, 화요일 24.0명, 수요일 35.0명, 목요일 30.0명, 금요일 31.0명, 토요일 26.0명, 일요일 26.0명입니다.",33.443332,126.4292669
휴애리자연생활공원,제주특별자치도 서귀포시 남원읍 신례동로 256 ,관광지,인문(문화/예술/역사),휴양관광지,공원,13757.0,4.0,1048.0,175.0,161.0,165.0,145.0,137.0,129.0,136.0,"'휴애리자연생활공원'은/는 제주특별자치도 서귀포시 남원읍 신례동로 256 에 위치한 관광지로, 관광지에 속하며, 대분류: 인문(문화/예술/역사), 중분류: 휴양관광지, 소분류: 공원입니다. 해당 관광지는 기준월(4.0) 동안 총 13757.0명의 방문자를 기록했습니다. 7월 한 달 동안 1048.0명이 방문했습니다. 요일별 방문자수는 월요일 175.0명, 화요일 161.0명, 수요일 165.0명, 목요일 145.0명, 금요일 137.0명, 토요일 129.0명, 일요일 136.0명입니다.",,
흑돼지거리,제주특별자치도 제주시 일도일동 ,관광지,인문(문화/예술/역사),체험관광지,이색거리,924.0,4.0,131.0,18.0,11.0,22.0,21.0,19.0,23.0,17.0,"'흑돼지거리'은/는 제주특별자치도 제주시 일도일동 에 위치한 관광지로, 관광지에 속하며, 대분류: 인문(문화/예술/역사), 중분류: 체험관광지, 소분류: 이색거리입니다. 해당 관광지는 기준월(4.0) 동안 총 924.0명의 방문자를 기록했습니다. 7월 한 달 동안 131.0명이 방문했습니다. 요일별 방문자수는 월요일 18.0명, 화요일 11.0명, 수요일 22.0명, 목요일 21.0명, 금요일 19.0명, 토요일 23.0명, 일요일 17.0명입니다.",33.5153591,126.5420032
1100고지습지,제주특별자치도 서귀포시 1100로 1555 ,관광지,자연,자연관광지,자연생태관광지,14221.0,4.0,472.0,72.0,73.0,56.0,62.0,59.0,79.0,71.0,"'1100고지습지'은/는 제주특별자치도 서귀포시 1100로 1555 에 위치한 관광지로, 관광지에 속하며, 대분류: 자연, 중분류: 자연관광지, 소분류: 자연생태관광지입니다. 해당 관광지는 기준월(4.0) 동안 총 14221.0명의 방문자를 기록했습니다. 7월 한 달 동안 472.0명이 방문했습니다. 요일별 방문자수는 월요일 72.0명, 화요일 73.0명, 수요일 56.0명, 목요일 62.0명, 금요일 59.0명, 토요일 79.0명, 일요일 71.0명입니다.",33.3575237,126.4628967
