관광지명,주소,주소_시,장소 카테고리,대분류,중분류,소분류,총 방문자수,기준월,월별 방문자수,월요일방문자수,화요일방문자수,수요일방문자수,목요일방문자수,금요일방문자수,토요일방문자수,일요일방문자수,정보,위도,경도
갈중이,제주특별자치도 서귀포시 사계남로216번길 24-61 갈중이 ,서귀포시,관광지,인문(문화/예술/역사),체험관광지,전통체험,500.0,1.0,36.0,7.0,7.0,5.0,3.0,1.0,2.0,11.0,"'갈중이'은/는 제주특별자치도 서귀포시 사계남로216번길 24-61 갈중이 에 위치한 관광지로, 관광지에 속하며, 대분류: 인문(문화/예술/역사), 중분류: 체험관광지, 소분류: 전통체험입니다. 해당 관광지는 기준월(1.0) 동안 총 500.0명의 방문자를 기록했습니다. 1월 한 달 동안 36.0명이 방문했습니다. 요일별 방문자수는 월요일 7.0명, 화요일 7.0명, 수요일 5.0명, 목요일 3.0명, 금요일 1.0명, 토요일 2.0명, 일요일 11.0명입니다.",33.2350546,126.3136741
감귤박물관,제주특별자치도 서귀포시 효돈순환로 441 (신효동),서귀포시,문화시설,인문(문화/예술/역사),문화시설,박물관,3589.0,1.0,359.0,66.0,66.0,49.0,42.0,42.0,32.0,62.0,"'감귤박물관'은/는 제주특별자치도 서귀포시 효돈순환로 441 (신효동)에 위치한 관광지로, 문화시설에 속하며, 대분류: 인문(문화/예술/역사), 중분류: 문화시설, 소분류: 박물관입니다. 해당 관광지는 기준월(1.0) 동안 총 3589.0명의 방문자를 기록했습니다. 1월 한 달 동안 359.0명이 방문했습니다. 요일별 방문자수는 월요일 66.0명, 화요일 66.0명, 수요일 49.0명, 목요일 42.0명, 금요일 42.0명, 토요일 32.0명, 일요일 62.0명입니다.",33.27127979999999,126.6076749
감수굴밭담길,제주특별자치도 제주시 구좌읍 평대7길 34 ,제주시,관광지,인문(문화/예술/역사),체험관광지,농.산.어촌 체험,551.0,1.0,63.0,10.0,7.0,10.0,9.0,6.0,11.0,10.0,"'감수굴밭담길'은/는 제주특별자치도 제주시 구좌읍 평대7길 34 에 위치한 관광지로, 관광지에 속하며, 대분류: 인문(문화/예술/역사), 중분류: 체험관광지, 소분류: 농.산.어촌 체험입니다. 해당 관광지는 기준월(1.0) 동안 총 551.0명의 방문자를 기록했습니다. 1월 한 달 동안 63.0명이 방문했습니다. 요일별 방문자수는 월요일 10.0명, 화요일 7.0명, 수요일 10.0명, 목요일 9.0명, 금요일 6.0명, 토요일 11.0명, 일요일 10.0명입니다.",33.5310269077995,126.843267842652
건강과성박물관,제주특별자치도 서귀포시 안덕면 일주서로 1611 ,서귀포시,문화시설,인문(문화/예술/역사),문화시설,박물관,1775.0,1.0,227.0,42.0,42.0,33.0,25.0,32.0,17.0,36.0,"'건강과성박물관'은/는 제주특별자치도 서귀포시 안덕면 일주서로 1611 에 위치한 관광지로, 문화시설에 속하며, 대분류: 인문(문화/예술/역사), 중분류: 문화시설, 소분류: 박물관입니다. 해당 관광지는 기준월(1.0) 동안 총 1775.0명의 방문자를 기록했습니다. 1월 한 달 동안 227.0명이 방문했습니다. 요일별 방문자수는 월요일 42.0명, 화요일 42.0명, 수요일 33.0명, 목요일 25.0명, 금요일 32.0명, 토요일 17.0명, 일요일 36.0명입니다.",33.2547254,126.3455651
관덕정,제주특별자치도 제주시 관덕로 19 (삼도이동),제주시,관광지,인문(문화/예술/역사),역사관광지,고궁,5642.0,1.0,474.0,73.0,75.0,63.0,68.0,67.0,57.0,71.0,"'관덕정'은/는 제주특별자치도 제주시 관덕로 19 (삼도이동)에 위치한 관광지로, 관광지에 속하며, 대분류: 인문(문화/예술/역사), 중분류: 역사관광지, 소분류: 고궁입니다. 해당 관광지는 기준월(1.0) 동안 총 5642.0명의 방문자를 기록했습니다. 1월 한 달 동안 474.0명이 방문했습니다. 요일별 방문자수는 월요일 73.0명, 화요일 75.0명, 수요일 63.0명, 목요일 68.0명, 금요일 67.0명, 토요일 57.0명, 일요일 71.0명입니다.",33.5133704,126.5214334
관음사,제주특별자치도 제주시 산록북로 660 (아라일동),제주시,관광지,인문(문화/예술/역사),역사관광지,사찰,1809.0,1.0,200.0,41.0,32.0,32.0,26.0,20.0,22.0,27.0,"'관음사'은/는 제주특별자치도 제주시 산록북로 660 (아라일동)에 위치한 관광지로, 관광지에 속하며, 대분류: 인문(문화/예술/역사), 중분류: 역사관광지, 소분류: 사찰입니다. 해당 관광지는 기준월(1.0) 동안 총 1809.0명의 방문자를 기록했습니다. 1월 한 달 동안 200.0명이 방문했습니다. 요일별 방문자수는 월요일 41.0명, 화요일 32.0명, 수요일 32.0명, 목요일 26.0명, 금요일 20.0명, 토요일 22.0명, 일요일 27.0명입니다.",33.4237942,126.5583908
국립제주박물관,제주특별자치도 제주시 일주동로 17 (건입동),제주시,문화시설,인문(문화/예술/역사),문화시설,박물관,3774.0,1.0,288.0,51.0,43.0,36.0,28.0,37.0,45.0,48.0,"'국립제주박물관'은/는 제주특별자치도 제주시 일주동로 17 (건입동)에 위치한 관광지로, 문화시설에 속하며, 대분류: 인문(문화/예술/역사), 중분류: 문화시설, 소분류: 박물관입니다. 해당 관광지는 기준월(1.0) 동안 총 3774.0명의 방문자를 기록했습니다. 1월 한 달 동안 288.0명이 방문했습니다. 요일별 방문자수는 월요일 51.0명, 화요일 43.0명, 수요일 36.0명, 목요일 28.0명, 금요일 37.0명, 토요일 45.0명, 일요일 48.0명입니다.",33.5134213,126.5487245
금능포구,제주특별자치도 제주시 한림읍 금능리 ,제주시,관광지,인문(문화/예술/역사),체험관광지,농.산.어촌 체험,457.0,1.0,56.0,10.0,9.0,7.0,9.0,6.0,9.0,6.0,"'금능포구'은/는 제주특별자치도 제주시 한림읍 금능리 에 위치한 관광지로, 관광지에 속하며, 대분류: 인문(문화/예술/역사), 중분류: 체험관광지, 소분류: 농.산.어촌 체험입니다. 해당 관광지는 기준월(1.0) 동안 총 457.0명의 방문자를 기록했습니다. 1월 한 달 동안 56.0명이 방문했습니다. 요일별 방문자수는 월요일 10.0명, 화요일 9.0명, 수요일 7.0명, 목요일 9.0명, 금요일 6.0명, 토요일 9.0명, 일요일 6.0명입니다.",33.3700283,126.2392054
금룡사,제주특별자치도 제주시 구좌읍 김녕로 148-11 (구좌읍),제주시,관광지,인문(문화/예술/역사),역사관광지,사찰,478.0,1.0,53.0,10.0,11.0,5.0,7.0,10.0,2.0,8.0,"'금룡사'은/는 제주특별자치도 제주시 구좌읍 김녕로 148-11 (구좌읍)에 위치한 관광지로, 관광지에 속하며, 대분류: 인문(문화/예술/역사), 중분류: 역사관광지, 소분류: 사찰입니다. 해당 관광지는 기준월(1.0) 동안 총 478.0명의 방문자를 기록했습니다. 1월 한 달 동안 53.0명이 방문했습니다. 요일별 방문자수는 월요일 10.0명, 화요일 11.0명, 수요일 5.0명, 목요일 7.0명, 금요일 10.0명, 토요일 2.0명, 일요일 8.0명입니다.",33.553856,126.7535423
금호리조트제주,제주특별자치도 서귀포시 남원읍 태위로 522-12 ,서귀포시,숙박,인문(문화/예술/역사),휴양관광지,관광단지,1515.0,1.0,187.0,28.0,30.0,27.0,23.0,29.0,15.0,35.0,"'금호리조트제주'은/는 제주특별자치도 서귀포시 남원읍 태위로 522-12 에 위치한 관광지로, 숙박에 속하며, 대분류: 인문(문화/예술/역사), 중분류: 휴양관광지, 소분류: 관광단지입니다. 해당 관광지는 기준월(1.0) 동안 총 1515.0명의 방문자를 기록했습니다. 1월 한 달 동안 187.0명이 방문했습니다. 요일별 방문자수는 월요일 28.0명, 화요일 30.0명, 수요일 27.0명, 목요일 23.0명, 금요일 29.0명, 토요일 15.0명, 일요일 35.0명입니다.",33.2729991,126.701485
넥슨컴퓨터박물관,제주특별자치도 제주시 1100로 3198-8 (노형동),제주시,관광지,인문(문화/예술/역사),산업관광지,전자-반도체,3214.0,1.0,316.0,61.0,55.0,50.0,35.0,34.0,37.0,44.0,"'넥슨컴퓨터박물관'은/는 제주특별자치도 제주시 1100로 3198-8 (노형동)에 위치한 관광지로, 관광지에 속하며, 대분류: 인문(문화/예술/역사), 중분류: 산업관광지, 소분류: 전자-반도체입니다. 해당 관광지는 기준월(1.0) 동안 총 3214.0명의 방문자를 기록했습니다. 1월 한 달 동안 316.0명이 방문했습니다. 요일별 방문자수는 월요일 61.0명, 화요일 55.0명, 수요일 50.0명, 목요일 35.0명, 금요일 34.0명, 토요일 37.0명, 일요일 44.0명입니다.",33.4720375,126.4855328
노리매공원,제주특별자치도 서귀포시 대정읍 중산간서로 2260-15 ,서귀포시,관광지,인문(문화/예술/역사),휴양관광지,공원,3274.0,1.0,421.0,78.0,77.0,74.0,51.0,45.0,32.0,64.0,"'노리매공원'은/는 제주특별자치도 서귀포시 대정읍 중산간서로 2260-15 에 위치한 관광지로, 관광지에 속하며, 대분류: 인문(문화/예술/역사), 중분류: 휴양관광지, 소분류: 공원입니다. 해당 관광지는 기준월(1.0) 동안 총 3274.0명의 방문자를 기록했습니다. 1월 한 달 동안 421.0명이 방문했습니다. 요일별 방문자수는 월요일 78.0명, 화요일 77.0명, 수요일 74.0명, 목요일 51.0명, 금요일 45.0명, 토요일 32.0명, 일요일 64.0명입니다.",33.2831505,126.2873239
누웨마루거리,제주특별자치도 제주시 신광로 47 (연동) ,제주시,관광지,인문(문화/예술/역사),체험관광지,이색거리,2082.0,1.0,181.0,38.0,30.0,18.0,25.0,21.0,20.0,29.0,"'누웨마루거리'은/는 제주특별자치도 제주시 신광로 47 (연동) 에 위치한 관광지로, 관광지에 속하며, 대분류: 인문(문화/예술/역사), 중분류: 체험관광지, 소분류: 이색거리입니다. 해당 관광지는 기준월(1.0) 동안 총 2082.0명의 방문자를 기록했습니다. 1월 한 달 동안 181.0명이 방문했습니다. 요일별 방문자수는 월요일 38.0명, 화요일 30.0명, 수요일 18.0명, 목요일 25.0명, 금요일 21.0명, 토요일 20.0명, 일요일 29.0명입니다.",33.4877543819398,126.490293916618
답다니탑망대,제주특별자치도 제주시 우도면 우도해안길 602 ,제주시,관광지,인문(문화/예술/역사),건축/조형물,유명건물,713.0,1.0,55.0,9.0,9.0,14.0,5.0,4.0,3.0,11.0,"'답다니탑망대'은/는 제주특별자치도 제주시 우도면 우도해안길 602 에 위치한 관광지로, 관광지에 속하며, 대분류: 인문(문화/예술/역사), 중분류: 건축/조형물, 소분류: 유명건물입니다. 해당 관광지는 기준월(1.0) 동안 총 713.0명의 방문자를 기록했습니다. 1월 한 달 동안 55.0명이 방문했습니다. 요일별 방문자수는 월요일 9.0명, 화요일 9.0명, 수요일 14.0명, 목요일 5.0명, 금요일 4.0명, 토요일 3.0명, 일요일 11.0명입니다.",33.524420713702,126.952546624477
대정향교,제주특별자치도 서귀포시 안덕면 향교로 165-17 ,서귀포시,관광지,인문(문화/예술/역사),역사관광지,유적지/사적지,1020.0,1.0,79.0,13.0,11.0,12.0,11.0,8.0,7.0,17.0,"'대정향교'은/는 제주특별자치도 서귀포시 안덕면 향교로 165-17 에 위치한 관광지로, 관광지에 속하며, 대분류: 인문(문화/예술/역사), 중분류: 역사관광지, 소분류: 유적지/사적지입니다. 해당 관광지는 기준월(1.0) 동안 총 1020.0명의 방문자를 기록했습니다. 1월 한 달 동안 79.0명이 방문했습니다. 요일별 방문자수는 월요일 13.0명, 화요일 11.0명, 수요일 12.0명, 목요일 11.0명, 금요일 8.0명, 토요일 7.0명, 일요일 17.0명입니다.",33.2394319,126.2883184
도치돌알파카목장,제주특별자치도 제주시 애월읍 도치돌길 293 ,제주시,관광지,인문(문화/예술/역사),체험관광지,농.산.어촌 체험,1675.0,1.0,235.0,40.0,37.0,36.0,32.0,36.0,22.0,32.0,"'도치돌알파카목장'은/는 제주특별자치도 제주시 애월읍 도치돌길 293 에 위치한 관광지로, 관광지에 속하며, 대분류: 인문(문화/예술/역사), 중분류: 체험관광지, 소분류: 농.산.어촌 체험입니다. 해당 관광지는 기준월(1.0) 동안 총 1675.0명의 방문자를 기록했습니다. 1월 한 달 동안 235.0명이 방문했습니다. 요일별 방문자수는 월요일 40.0명, 화요일 37.0명, 수요일 36.0명, 목요일 32.0명, 금요일 36.0명, 토요일 22.0명, 일요일 32.0명입니다.",33.4099506881118,126.36573023443
두맹이골목,제주특별자치도 제주시 일도이동 1006-11,제주시,관광지,인문(문화/예술/역사),체험관광지,이색거리,741.0,1.0,80.0,13.0,18.0,9.0,10.0,9.0,8.0,13.0,"'두맹이골목'은/는 제주특별자치도 제주시 일도이동 1006-11에 위치한 관광지로, 관광지에 속하며, 대분류: 인문(문화/예술/역사), 중분류: 체험관광지, 소분류: 이색거리입니다. 해당 관광지는 기준월(1.0) 동안 총 741.0명의 방문자를 기록했습니다. 1월 한 달 동안 80.0명이 방문했습니다. 요일별 방문자수는 월요일 13.0명, 화요일 18.0명, 수요일 9.0명, 목요일 10.0명, 금요일 9.0명, 토요일 8.0명, 일요일 13.0명입니다.",33.5120308,126.5349279
라온호텔앤리조트,제주특별자치도 제주시 한림읍 금능남로 127 ,제주시,관광지,인문(문화/예술/역사),휴양관광지,관광단지,619.0,1.0,41.0,8.0,3.0,6.0,3.0,10.0,1.0,10.0,"'라온호텔앤리조트'은/는 제주특별자치도 제주시 한림읍 금능남로 127 에 위치한 관광지로, 관광지에 속하며, 대분류: 인문(문화/예술/역사), 중분류: 휴양관광지, 소분류: 관광단지입니다. 해당 관광지는 기준월(1.0) 동안 총 619.0명의 방문자를 기록했습니다. 1월 한 달 동안 41.0명이 방문했습니다. 요일별 방문자수는 월요일 8.0명, 화요일 3.0명, 수요일 6.0명, 목요일 3.0명, 금요일 10.0명, 토요일 1.0명, 일요일 10.0명입니다.",33.3810152,126.2411754
라헨느리조트,제주특별자치도 제주시 명림로 384 ,제주시,숙박,인문(문화/예술/역사),휴양관광지,관광단지,364.0,1.0,33.0,8.0,10.0,3.0,1.0,6.0,2.0,3.0,"'라헨느리조트'은/는 제주특별자치도 제주시 명림로 384 에 위치한 관광지로, 숙박에 속하며, 대분류: 인문(문화/예술/역사), 중분류: 휴양관광지, 소분류: 관광단지입니다. 해당 관광지는 기준월(1.0) 동안 총 364.0명의 방문자를 기록했습니다. 1월 한 달 동안 33.0명이 방문했습니다. 요일별 방문자수는 월요일 8.0명, 화요일 10.0명, 수요일 3.0명, 목요일 1.0명, 금요일 6.0명, 토요일 2.0명, 일요일 3.0명입니다.",33.4521555,126.6155076
맥파이브루어리,제주특별자치도 제주시 동회천1길 23 (회천동),제주시,관광지,인문(문화/예술/역사),산업관광지,식음료,823.0,1.0,75.0,12.0,15.0,9.0,4.0,15.0,9.0,11.0,"'맥파이브루어리'은/는 제주특별자치도 제주시 동회천1길 23 (회천동)에 위치한 관광지로, 관광지에 속하며, 대분류: 인문(문화/예술/역사), 중분류: 산업관광지, 소분류: 식음료입니다. 해당 관광지는 기준월(1.0) 동안 총 823.0명의 방문자를 기록했습니다. 1월 한 달 동안 75.0명이 방문했습니다. 요일별 방문자수는 월요일 12.0명, 화요일 15.0명, 수요일 9.0명, 목요일 4.0명, 금요일 15.0명, 토요일 9.0명, 일요일 11.0명입니다.",33.503206117821,126.61717764321
명월성지,제주특별자치도 제주시 한림읍 명월리 2236 ,제주시,관광지,인문(문화/예술/역사),역사관광지,성,1048.0,1.0,106.0,16.0,22.0,15.0,10.0,12.0,12.0,19.0,"'명월성지'은/는 제주특별자치도 제주시 한림읍 명월리 2236 에 위치한 관광지로, 관광지에 속하며, 대분류: 인문(문화/예술/역사), 중분류: 역사관광지, 소분류: 성입니다. 해당 관광지는 기준월(1.0) 동안 총 1048.0명의 방문자를 기록했습니다. 1월 한 달 동안 106.0명이 방문했습니다. 요일별 방문자수는 월요일 16.0명, 화요일 22.0명, 수요일 15.0명, 목요일 10.0명, 금요일 12.0명, 토요일 12.0명, 일요일 19.0명입니다.",33.4004982,126.2609256
무비랜드왁스뮤지엄,제주특별자치도 서귀포시 중문관광로 205 (중문동) ,서귀포시,문화시설,인문(문화/예술/역사),문화시설,박물관,969.0,1.0,95.0,17.0,13.0,15.0,8.0,8.0,9.0,25.0,"'무비랜드왁스뮤지엄'은/는 제주특별자치도 서귀포시 중문관광로 205 (중문동) 에 위치한 관광지로, 문화시설에 속하며, 대분류: 인문(문화/예술/역사), 중분류: 문화시설, 소분류: 박물관입니다. 해당 관광지는 기준월(1.0) 동안 총 969.0명의 방문자를 기록했습니다. 1월 한 달 동안 95.0명이 방문했습니다. 요일별 방문자수는 월요일 17.0명, 화요일 13.0명, 수요일 15.0명, 목요일 8.0명, 금요일 8.0명, 토요일 9.0명, 일요일 25.0명입니다.",33.2436726,126.4215188
물뫼힐링팜,제주특별자치도 제주시 애월읍 예원로 51 ,제주시,관광지,인문(문화/예술/역사),체험관광지,이색체험,987.0,1.0,68.0,13.0,19.0,8.0,9.0,7.0,4.0,8.0,"'물뫼힐링팜'은/는 제주특별자치도 제주시 애월읍 예원로 51 에 위치한 관광지로, 관광지에 속하며, 대분류: 인문(문화/예술/역사), 중분류: 체험관광지, 소분류: 이색체험입니다. 해당 관광지는 기준월(1.0) 동안 총 987.0명의 방문자를 기록했습니다. 1월 한 달 동안 68.0명이 방문했습니다. 요일별 방문자수는 월요일 13.0명, 화요일 19.0명, 수요일 8.0명, 목요일 9.0명, 금요일 7.0명, 토요일 4.0명, 일요일 8.0명입니다.",33.4642593,126.3965364
바이나흐튼크리스마스박물관,제주특별자치도 서귀포시 안덕면 평화로 654 ,서귀포시,문화시설,인문(문화/예술/역사),문화시설,박물관,4456.0,1.0,249.0,48.0,36.0,31.0,30.0,40.0,25.0,39.0,"'바이나흐튼크리스마스박물관'은/는 제주특별자치도 서귀포시 안덕면 평화로 654 에 위치한 관광지로, 문화시설에 속하며, 대분류: 인문(문화/예술/역사), 중분류: 문화시설, 소분류: 박물관입니다. 해당 관광지는 기준월(1.0) 동안 총 4456.0명의 방문자를 기록했습니다. 1월 한 달 동안 249.0명이 방문했습니다. 요일별 방문자수는 월요일 48.0명, 화요일 36.0명, 수요일 31.0명, 목요일 30.0명, 금요일 40.0명, 토요일 25.0명, 일요일 39.0명입니다.",33.2913117398116,126.327798877807
박물관은살아있다,제주특별자치도 서귀포시 중문관광로 42 ,서귀포시,문화시설,인문(문화/예술/역사),문화시설,박물관,7143.0,1.0,695.0,131.0,109.0,92.0,95.0,87.0,80.0,101.0,"'박물관은살아있다'은/는 제주특별자치도 서귀포시 중문관광로 42 에 위치한 관광지로, 문화시설에 속하며, 대분류: 인문(문화/예술/역사), 중분류: 문화시설, 소분류: 박물관입니다. 해당 관광지는 기준월(1.0) 동안 총 7143.0명의 방문자를 기록했습니다. 1월 한 달 동안 695.0명이 방문했습니다. 요일별 방문자수는 월요일 131.0명, 화요일 109.0명, 수요일 92.0명, 목요일 95.0명, 금요일 87.0명, 토요일 80.0명, 일요일 101.0명입니다.",33.2549005523668,126.40977029065
발자국화석공원,제주특별자치도 서귀포시 대정읍 형제해안로 192 ,서귀포시,관광지,자연,관광자원,기암괴석,1281.0,1.0,94.0,23.0,13.0,6.0,12.0,10.0,15.0,15.0,"'발자국화석공원'은/는 제주특별자치도 서귀포시 대정읍 형제해안로 192 에 위치한 관광지로, 관광지에 속하며, 대분류: 자연, 중분류: 관광자원, 소분류: 기암괴석입니다. 해당 관광지는 기준월(1.0) 동안 총 1281.0명의 방문자를 기록했습니다. 1월 한 달 동안 94.0명이 방문했습니다. 요일별 방문자수는 월요일 23.0명, 화요일 13.0명, 수요일 6.0명, 목요일 12.0명, 금요일 10.0명, 토요일 15.0명, 일요일 15.0명입니다.",33.2173222,126.2930456
방주교회,제주특별자치도 서귀포시 안덕면 산록남로762번길 113 ,서귀포시,관광지,인문(문화/예술/역사),역사관광지,종교성지,13913.0,1.0,1382.0,242.0,249.0,160.0,171.0,166.0,154.0,240.0,"'방주교회'은/는 제주특별자치도 서귀포시 안덕면 산록남로762번길 113 에 위치한 관광지로, 관광지에 속하며, 대분류: 인문(문화/예술/역사), 중분류: 역사관광지, 소분류: 종교성지입니다. 해당 관광지는 기준월(1.0) 동안 총 13913.0명의 방문자를 기록했습니다. 1월 한 달 동안 1382.0명이 방문했습니다. 요일별 방문자수는 월요일 242.0명, 화요일 249.0명, 수요일 160.0명, 목요일 171.0명, 금요일 166.0명, 토요일 154.0명, 일요일 240.0명입니다.",33.3051258,126.3872587
백제사,제주특별자치도 제주시 애월읍 광령남6길 54 (애월읍),제주시,관광지,인문(문화/예술/역사),역사관광지,사찰,432.0,1.0,54.0,9.0,11.0,9.0,9.0,5.0,4.0,7.0,"'백제사'은/는 제주특별자치도 제주시 애월읍 광령남6길 54 (애월읍)에 위치한 관광지로, 관광지에 속하며, 대분류: 인문(문화/예술/역사), 중분류: 역사관광지, 소분류: 사찰입니다. 해당 관광지는 기준월(1.0) 동안 총 432.0명의 방문자를 기록했습니다. 1월 한 달 동안 54.0명이 방문했습니다. 요일별 방문자수는 월요일 9.0명, 화요일 11.0명, 수요일 9.0명, 목요일 9.0명, 금요일 5.0명, 토요일 4.0명, 일요일 7.0명입니다.",33.4487759,126.4242169
법화사,제주특별자치도 서귀포시 하원북로35번길 15-28 법화사 ,서귀포시,관광지,인문(문화/예술/역사),역사관광지,사찰,1620.0,1.0,114.0,25.0,16.0,16.0,15.0,14.0,10.0,18.0,"'법화사'은/는 제주특별자치도 서귀포시 하원북로35번길 15-28 법화사 에 위치한 관광지로, 관광지에 속하며, 대분류: 인문(문화/예술/역사), 중분류: 역사관광지, 소분류: 사찰입니다. 해당 관광지는 기준월(1.0) 동안 총 1620.0명의 방문자를 기록했습니다. 1월 한 달 동안 114.0명이 방문했습니다. 요일별 방문자수는 월요일 25.0명, 화요일 16.0명, 수요일 16.0명, 목요일 15.0명, 금요일 14.0명, 토요일 10.0명, 일요일 18.0명입니다.",33.2651982,126.4577155
별방진,제주특별자치도 제주시 구좌읍 하도리 3354 (구좌읍),제주시,관광지,인문(문화/예술/역사),역사관광지,성,2260.0,1.0,219.0,44.0,35.0,34.0,22.0,31.0,20.0,33.0,"'별방진'은/는 제주특별자치도 제주시 구좌읍 하도리 3354 (구좌읍)에 위치한 관광지로, 관광지에 속하며, 대분류: 인문(문화/예술/역사), 중분류: 역사관광지, 소분류: 성입니다. 해당 관광지는 기준월(1.0) 동안 총 2260.0명의 방문자를 기록했습니다. 1월 한 달 동안 219.0명이 방문했습니다. 요일별 방문자수는 월요일 44.0명, 화요일 35.0명, 수요일 34.0명, 목요일 22.0명, 금요일 31.0명, 토요일 20.0명, 일요일 33.0명입니다.",33.5264493,126.8830512
보롬왓,제주특별자치도 서귀포시 번영로 2350-104 ,서귀포시,관광지,인문(문화/예술/역사),산업관광지,기타,17967.0,1.0,628.0,105.0,110.0,94.0,64.0,95.0,70.0,90.0,"'보롬왓'은/는 제주특별자치도 서귀포시 번영로 2350-104 에 위치한 관광지로, 관광지에 속하며, 대분류: 인문(문화/예술/역사), 중분류: 산업관광지, 소분류: 기타입니다. 해당 관광지는 기준월(1.0) 동안 총 17967.0명의 방문자를 기록했습니다. 1월 한 달 동안 628.0명이 방문했습니다. 요일별 방문자수는 월요일 105.0명, 화요일 110.0명, 수요일 94.0명, 목요일 64.0명, 금요일 95.0명, 토요일 70.0명, 일요일 90.0명입니다.",33.4134884,126.7525669
보통청춘기록실청춘사진관,제주특별자치도 제주시 한림읍 일주서로 5867 ,제주시,관광지,인문(문화/예술/역사),체험관광지,이색체험,786.0,1.0,103.0,26.0,15.0,7.0,15.0,16.0,15.0,9.0,"'보통청춘기록실청춘사진관'은/는 제주특별자치도 제주시 한림읍 일주서로 5867 에 위치한 관광지로, 관광지에 속하며, 대분류: 인문(문화/예술/역사), 중분류: 체험관광지, 소분류: 이색체험입니다. 해당 관광지는 기준월(1.0) 동안 총 786.0명의 방문자를 기록했습니다. 1월 한 달 동안 103.0명이 방문했습니다. 요일별 방문자수는 월요일 26.0명, 화요일 15.0명, 수요일 7.0명, 목요일 15.0명, 금요일 16.0명, 토요일 15.0명, 일요일 9.0명입니다.",33.4436616234369,126.293059624787
본태박물관,제주특별자치도 서귀포시 안덕면 산록남로762번길 69 (안덕면),서귀포시,문화시설,인문(문화/예술/역사),문화시설,박물관,8880.0,1.0,543.0,91.0,82.0,74.0,57.0,53.0,67.0,119.0,"'본태박물관'은/는 제주특별자치도 서귀포시 안덕면 산록남로762번길 69 (안덕면)에 위치한 관광지로, 문화시설에 속하며, 대분류: 인문(문화/예술/역사), 중분류: 문화시설, 소분류: 박물관입니다. 해당 관광지는 기준월(1.0) 동안 총 8880.0명의 방문자를 기록했습니다. 1월 한 달 동안 543.0명이 방문했습니다. 요일별 방문자수는 월요일 91.0명, 화요일 82.0명, 수요일 74.0명, 목요일 57.0명, 금요일 53.0명, 토요일 67.0명, 일요일 119.0명입니다.",33.3038302,126.3925024
불탑사,제주특별자치도 제주시 원당로16길 41 (삼양일동),제주시,관광지,인문(문화/예술/역사),역사관광지,사찰,821.0,1.0,71.0,11.0,11.0,12.0,7.0,9.0,9.0,12.0,"'불탑사'은/는 제주특별자치도 제주시 원당로16길 41 (삼양일동)에 위치한 관광지로, 관광지에 속하며, 대분류: 인문(문화/예술/역사), 중분류: 역사관광지, 소분류: 사찰입니다. 해당 관광지는 기준월(1.0) 동안 총 821.0명의 방문자를 기록했습니다. 1월 한 달 동안 71.0명이 방문했습니다. 요일별 방문자수는 월요일 11.0명, 화요일 11.0명, 수요일 12.0명, 목요일 7.0명, 금요일 9.0명, 토요일 9.0명, 일요일 12.0명입니다.",33.5290725932684,126.598418345536
비스타리조트,제주특별자치도 제주시 서해안로 74 ,제주시,숙박,인문(문화/예술/역사),휴양관광지,관광단지,191.0,1.0,24.0,6.0,3.0,2.0,4.0,0.0,2.0,7.0,"'비스타리조트'은/는 제주특별자치도 제주시 서해안로 74 에 위치한 관광지로, 숙박에 속하며, 대분류: 인문(문화/예술/역사), 중분류: 휴양관광지, 소분류: 관광단지입니다. 해당 관광지는 기준월(1.0) 동안 총 191.0명의 방문자를 기록했습니다. 1월 한 달 동안 24.0명이 방문했습니다. 요일별 방문자수는 월요일 6.0명, 화요일 3.0명, 수요일 2.0명, 목요일 4.0명, 금요일 0.0명, 토요일 2.0명, 일요일 7.0명입니다.",33.5031197,126.457563
사라봉공원,제주특별자치도 제주시 사라봉동길 74 ,제주시,관광지,인문(문화/예술/역사),휴양관광지,공원,1849.0,1.0,184.0,33.0,28.0,28.0,24.0,22.0,29.0,20.0,"'사라봉공원'은/는 제주특별자치도 제주시 사라봉동길 74 에 위치한 관광지로, 관광지에 속하며, 대분류: 인문(문화/예술/역사), 중분류: 휴양관광지, 소분류: 공원입니다. 해당 관광지는 기준월(1.0) 동안 총 1849.0명의 방문자를 기록했습니다. 1월 한 달 동안 184.0명이 방문했습니다. 요일별 방문자수는 월요일 33.0명, 화요일 28.0명, 수요일 28.0명, 목요일 24.0명, 금요일 22.0명, 토요일 29.0명, 일요일 20.0명입니다.",33.5177204,126.5457574
산방굴사,제주특별자치도 서귀포시 안덕면 산방로 218-12 ,서귀포시,관광지,인문(문화/예술/역사),역사관광지,사찰,10646.0,1.0,1000.0,174.0,158.0,133.0,122.0,130.0,120.0,163.0,"'산방굴사'은/는 제주특별자치도 서귀포시 안덕면 산방로 218-12 에 위치한 관광지로, 관광지에 속하며, 대분류: 인문(문화/예술/역사), 중분류: 역사관광지, 소분류: 사찰입니다. 해당 관광지는 기준월(1.0) 동안 총 10646.0명의 방문자를 기록했습니다. 1월 한 달 동안 1000.0명이 방문했습니다. 요일별 방문자수는 월요일 174.0명, 화요일 158.0명, 수요일 133.0명, 목요일 122.0명, 금요일 130.0명, 토요일 120.0명, 일요일 163.0명입니다.",33.2423934,126.3139575
삼매봉,제주특별자치도 서귀포시 서홍동 820-2,서귀포시,관광지,인문(문화/예술/역사),휴양관광지,공원,630.0,1.0,82.0,19.0,12.0,16.0,12.0,9.0,4.0,10.0,"'삼매봉'은/는 제주특별자치도 서귀포시 서홍동 820-2에 위치한 관광지로, 관광지에 속하며, 대분류: 인문(문화/예술/역사), 중분류: 휴양관광지, 소분류: 공원입니다. 해당 관광지는 기준월(1.0) 동안 총 630.0명의 방문자를 기록했습니다. 1월 한 달 동안 82.0명이 방문했습니다. 요일별 방문자수는 월요일 19.0명, 화요일 12.0명, 수요일 16.0명, 목요일 12.0명, 금요일 9.0명, 토요일 4.0명, 일요일 10.0명입니다.",33.2437181,126.5462844
서귀다원,제주특별자치도 서귀포시 516로 717 (상효동),서귀포시,관광지,인문(문화/예술/역사),산업관광지,기타,4111.0,1.0,641.0,128.0,96.0,68.0,71.0,91.0,82.0,105.0,"'서귀다원'은/는 제주특별자치도 서귀포시 516로 717 (상효동)에 위치한 관광지로, 관광지에 속하며, 대분류: 인문(문화/예술/역사), 중분류: 산업관광지, 소분류: 기타입니다. 해당 관광지는 기준월(1.0) 동안 총 4111.0명의 방문자를 기록했습니다. 1월 한 달 동안 641.0명이 방문했습니다. 요일별 방문자수는 월요일 128.0명, 화요일 96.0명, 수요일 68.0명, 목요일 71.0명, 금요일 91.0명, 토요일 82.0명, 일요일 105.0명입니다.",33.3211576,126.5716701
서귀본향당,제주특별자치도 서귀포시 이중섭로 23-11 (서귀동),서귀포시,관광지,인문(문화/예술/역사),역사관광지,유적지/사적지,783.0,1.0,60.0,11.0,13.0,6.0,9.0,5.0,4.0,12.0,"'서귀본향당'은/는 제주특별자치도 서귀포시 이중섭로 23-11 (서귀동)에 위치한 관광지로, 관광지에 속하며, 대분류: 인문(문화/예술/역사), 중분류: 역사관광지, 소분류: 유적지/사적지입니다. 해당 관광지는 기준월(1.0) 동안 총 783.0명의 방문자를 기록했습니다. 1월 한 달 동안 60.0명이 방문했습니다. 요일별 방문자수는 월요일 11.0명, 화요일 13.0명, 수요일 6.0명, 목요일 9.0명, 금요일 5.0명, 토요일 4.0명, 일요일 12.0명입니다.",33.2461722,126.5647482
서귀포치유의숲,제주특별자치도 서귀포시 산록남로 2271 (호근동),서귀포시,관광지,인문(문화/예술/역사),휴양관광지,헬스투어,11271.0,1.0,502.0,78.0,87.0,73.0,50.0,71.0,56.0,87.0,"'서귀포치유의숲'은/는 제주특별자치도 서귀포시 산록남로 2271 (호근동)에 위치한 관광지로, 관광지에 속하며, 대분류: 인문(문화/예술/역사), 중분류: 휴양관광지, 소분류: 헬스투어입니다. 해당 관광지는 기준월(1.0) 동안 총 11271.0명의 방문자를 기록했습니다. 1월 한 달 동안 502.0명이 방문했습니다. 요일별 방문자수는 월요일 78.0명, 화요일 87.0명, 수요일 73.0명, 목요일 50.0명, 금요일 71.0명, 토요일 56.0명, 일요일 87.0명입니다.",33.3025489,126.5245747
서귀포잠수함,제주특별자치도 서귀포시 남성중로 40 ,서귀포시,관광지,인문(문화/예술/역사),휴양관광지,유람선/잠수함관광,1510.0,1.0,496.0,89.0,79.0,68.0,59.0,72.0,54.0,75.0,"'서귀포잠수함'은/는 제주특별자치도 서귀포시 남성중로 40 에 위치한 관광지로, 관광지에 속하며, 대분류: 인문(문화/예술/역사), 중분류: 휴양관광지, 소분류: 유람선/잠수함관광입니다. 해당 관광지는 기준월(1.0) 동안 총 1510.0명의 방문자를 기록했습니다. 1월 한 달 동안 496.0명이 방문했습니다. 요일별 방문자수는 월요일 89.0명, 화요일 79.0명, 수요일 68.0명, 목요일 59.0명, 금요일 72.0명, 토요일 54.0명, 일요일 75.0명입니다.",33.2392011725071,126.558423865174
선운정사,제주특별자치도 제주시 애월읍 구몰동길 65 ,제주시,관광지,인문(문화/예술/역사),역사관광지,사찰,2945.0,1.0,300.0,43.0,46.0,50.0,39.0,37.0,34.0,51.0,"'선운정사'은/는 제주특별자치도 제주시 애월읍 구몰동길 65 에 위치한 관광지로, 관광지에 속하며, 대분류: 인문(문화/예술/역사), 중분류: 역사관광지, 소분류: 사찰입니다. 해당 관광지는 기준월(1.0) 동안 총 2945.0명의 방문자를 기록했습니다. 1월 한 달 동안 300.0명이 방문했습니다. 요일별 방문자수는 월요일 43.0명, 화요일 46.0명, 수요일 50.0명, 목요일 39.0명, 금요일 37.0명, 토요일 34.0명, 일요일 51.0명입니다.",33.4293512,126.3070877
성김대건신부표착기념관,제주특별자치도 제주시 한경면 용수1길 108 ,제주시,문화시설,인문(문화/예술/역사),역사관광지,종교성지,1418.0,1.0,112.0,20.0,16.0,9.0,21.0,12.0,8.0,26.0,"'성김대건신부표착기념관'은/는 제주특별자치도 제주시 한경면 용수1길 108 에 위치한 관광지로, 문화시설에 속하며, 대분류: 인문(문화/예술/역사), 중분류: 역사관광지, 소분류: 종교성지입니다. 해당 관광지는 기준월(1.0) 동안 총 1418.0명의 방문자를 기록했습니다. 1월 한 달 동안 112.0명이 방문했습니다. 요일별 방문자수는 월요일 20.0명, 화요일 16.0명, 수요일 9.0명, 목요일 21.0명, 금요일 12.0명, 토요일 8.0명, 일요일 26.0명입니다.",33.322643,126.167682
성읍녹차마을,제주특별자치도 서귀포시 중산간동로 4778 녹차가공공장 ,서귀포시,관광지,인문(문화/예술/역사),체험관광지,농.산.어촌 체험,1271.0,1.0,140.0,27.0,18.0,20.0,14.0,21.0,21.0,19.0,"'성읍녹차마을'은/는 제주특별자치도 서귀포시 중산간동로 4778 녹차가공공장 에 위치한 관광지로, 관광지에 속하며, 대분류: 인문(문화/예술/역사), 중분류: 체험관광지, 소분류: 농.산.어촌 체험입니다. 해당 관광지는 기준월(1.0) 동안 총 1271.0명의 방문자를 기록했습니다. 1월 한 달 동안 140.0명이 방문했습니다. 요일별 방문자수는 월요일 27.0명, 화요일 18.0명, 수요일 20.0명, 목요일 14.0명, 금요일 21.0명, 토요일 21.0명, 일요일 19.0명입니다.",33.3810103,126.7901958
성읍민속마을,제주특별자치도 서귀포시 표선면 성읍정의현로 19 ,서귀포시,관광지,인문(문화/예술/역사),역사관광지,민속마을,8542.0,1.0,527.0,102.0,82.0,77.0,73.0,71.0,49.0,73.0,"'성읍민속마을'은/는 제주특별자치도 서귀포시 표선면 성읍정의현로 19 에 위치한 관광지로, 관광지에 속하며, 대분류: 인문(문화/예술/역사), 중분류: 역사관광지, 소분류: 민속마을입니다. 해당 관광지는 기준월(1.0) 동안 총 8542.0명의 방문자를 기록했습니다. 1월 한 달 동안 527.0명이 방문했습니다. 요일별 방문자수는 월요일 102.0명, 화요일 82.0명, 수요일 77.0명, 목요일 73.0명, 금요일 71.0명, 토요일 49.0명, 일요일 73.0명입니다.",33.3844862,126.8003558
성이시돌목장,제주특별자치도 제주시 한림읍 산록남로 53 ,제주시,관광지,인문(문화/예술/역사),체험관광지,농.산.어촌 체험,11292.0,1.0,679.0,137.0,92.0,106.0,83.0,71.0,80.0,110.0,"'성이시돌목장'은/는 제주특별자치도 제주시 한림읍 산록남로 53 에 위치한 관광지로, 관광지에 속하며, 대분류: 인문(문화/예술/역사), 중분류: 체험관광지, 소분류: 농.산.어촌 체험입니다. 해당 관광지는 기준월(1.0) 동안 총 11292.0명의 방문자를 기록했습니다. 1월 한 달 동안 679.0명이 방문했습니다. 요일별 방문자수는 월요일 137.0명, 화요일 92.0명, 수요일 106.0명, 목요일 83.0명, 금요일 71.0명, 토요일 80.0명, 일요일 110.0명입니다.",33.3459727,126.3215552
세계술박물관,제주특별자치도 서귀포시 표선면 한마음초등로 431 ,서귀포시,문화시설,인문(문화/예술/역사),문화시설,박물관,782.0,1.0,92.0,19.0,11.0,13.0,18.0,8.0,11.0,12.0,"'세계술박물관'은/는 제주특별자치도 서귀포시 표선면 한마음초등로 431 에 위치한 관광지로, 문화시설에 속하며, 대분류: 인문(문화/예술/역사), 중분류: 문화시설, 소분류: 박물관입니다. 해당 관광지는 기준월(1.0) 동안 총 782.0명의 방문자를 기록했습니다. 1월 한 달 동안 92.0명이 방문했습니다. 요일별 방문자수는 월요일 19.0명, 화요일 11.0명, 수요일 13.0명, 목요일 18.0명, 금요일 8.0명, 토요일 11.0명, 일요일 12.0명입니다.",33.3539492,126.8176627
세계자동차&피아노박물관,제주특별자치도 서귀포시 안덕면 중산간서로 1610 ,서귀포시,문화시설,인문(문화/예술/역사),문화시설,박물관,2649.0,1.0,258.0,53.0,46.0,33.0,27.0,30.0,23.0,46.0,"'세계자동차&피아노박물관'은/는 제주특별자치도 서귀포시 안덕면 중산간서로 1610 에 위치한 관광지로, 문화시설에 속하며, 대분류: 인문(문화/예술/역사), 중분류: 문화시설, 소분류: 박물관입니다. 해당 관광지는 기준월(1.0) 동안 총 2649.0명의 방문자를 기록했습니다. 1월 한 달 동안 258.0명이 방문했습니다. 요일별 방문자수는 월요일 53.0명, 화요일 46.0명, 수요일 33.0명, 목요일 27.0명, 금요일 30.0명, 토요일 23.0명, 일요일 46.0명입니다.",33.282942376127,126.349010409791
세계조가비박물관,제주특별자치도 서귀포시 태평로 284 ,서귀포시,문화시설,인문(문화/예술/역사),문화시설,박물관,832.0,1.0,94.0,7.0,19.0,11.0,19.0,12.0,7.0,19.0,"'세계조가비박물관'은/는 제주특별자치도 서귀포시 태평로 284 에 위치한 관광지로, 문화시설에 속하며, 대분류: 인문(문화/예술/역사), 중분류: 문화시설, 소분류: 박물관입니다. 해당 관광지는 기준월(1.0) 동안 총 832.0명의 방문자를 기록했습니다. 1월 한 달 동안 94.0명이 방문했습니다. 요일별 방문자수는 월요일 7.0명, 화요일 19.0명, 수요일 11.0명, 목요일 19.0명, 금요일 12.0명, 토요일 7.0명, 일요일 19.0명입니다.",33.2475382,126.5516833
소노캄제주,제주특별자치도 서귀포시 표선면 일주동로 6347-17 ,서귀포시,숙박,인문(문화/예술/역사),휴양관광지,관광단지,1885.0,1.0,301.0,52.0,70.0,40.0,33.0,41.0,30.0,35.0,"'소노캄제주'은/는 제주특별자치도 서귀포시 표선면 일주동로 6347-17 에 위치한 관광지로, 숙박에 속하며, 대분류: 인문(문화/예술/역사), 중분류: 휴양관광지, 소분류: 관광단지입니다. 해당 관광지는 기준월(1.0) 동안 총 1885.0명의 방문자를 기록했습니다. 1월 한 달 동안 301.0명이 방문했습니다. 요일별 방문자수는 월요일 52.0명, 화요일 70.0명, 수요일 40.0명, 목요일 33.0명, 금요일 41.0명, 토요일 30.0명, 일요일 35.0명입니다.",33.3050378,126.7919081
순례자의교회,제주특별자치도 제주시 한경면 일주서로 3960-24 ,제주시,관광지,인문(문화/예술/역사),역사관광지,종교성지,2494.0,1.0,271.0,47.0,44.0,25.0,40.0,28.0,32.0,55.0,"'순례자의교회'은/는 제주특별자치도 제주시 한경면 일주서로 3960-24 에 위치한 관광지로, 관광지에 속하며, 대분류: 인문(문화/예술/역사), 중분류: 역사관광지, 소분류: 종교성지입니다. 해당 관광지는 기준월(1.0) 동안 총 2494.0명의 방문자를 기록했습니다. 1월 한 달 동안 271.0명이 방문했습니다. 요일별 방문자수는 월요일 47.0명, 화요일 44.0명, 수요일 25.0명, 목요일 40.0명, 금요일 28.0명, 토요일 32.0명, 일요일 55.0명입니다.",33.3198062,126.1805485
술다끄는집,제주특별자치도 서귀포시 성읍정의현로56번길 5 ,서귀포시,문화시설,인문(문화/예술/역사),체험관광지,이색체험,299.0,1.0,25.0,7.0,3.0,6.0,2.0,5.0,0.0,2.0,"'술다끄는집'은/는 제주특별자치도 서귀포시 성읍정의현로56번길 5 에 위치한 관광지로, 문화시설에 속하며, 대분류: 인문(문화/예술/역사), 중분류: 체험관광지, 소분류: 이색체험입니다. 해당 관광지는 기준월(1.0) 동안 총 299.0명의 방문자를 기록했습니다. 1월 한 달 동안 25.0명이 방문했습니다. 요일별 방문자수는 월요일 7.0명, 화요일 3.0명, 수요일 6.0명, 목요일 2.0명, 금요일 5.0명, 토요일 0.0명, 일요일 2.0명입니다.",33.3877472029397,126.801516243792
신비의도로,제주특별자치도 제주시 노형동 ,제주시,관광지,인문(문화/예술/역사),체험관광지,이색체험,4799.0,1.0,425.0,85.0,71.0,54.0,38.0,62.0,46.0,69.0,"'신비의도로'은/는 제주특별자치도 제주시 노형동 에 위치한 관광지로, 관광지에 속하며, 대분류: 인문(문화/예술/역사), 중분류: 체험관광지, 소분류: 이색체험입니다. 해당 관광지는 기준월(1.0) 동안 총 4799.0명의 방문자를 기록했습니다. 1월 한 달 동안 425.0명이 방문했습니다. 요일별 방문자수는 월요일 85.0명, 화요일 71.0명, 수요일 54.0명, 목요일 38.0명, 금요일 62.0명, 토요일 46.0명, 일요일 69.0명입니다.",33.4511084,126.4872373
신산공원,제주특별자치도 제주시 신산로 92-12 (일도이동),제주시,관광지,인문(문화/예술/역사),휴양관광지,공원,1336.0,1.0,81.0,14.0,18.0,9.0,11.0,11.0,6.0,12.0,"'신산공원'은/는 제주특별자치도 제주시 신산로 92-12 (일도이동)에 위치한 관광지로, 관광지에 속하며, 대분류: 인문(문화/예술/역사), 중분류: 휴양관광지, 소분류: 공원입니다. 해당 관광지는 기준월(1.0) 동안 총 1336.0명의 방문자를 기록했습니다. 1월 한 달 동안 81.0명이 방문했습니다. 요일별 방문자수는 월요일 14.0명, 화요일 18.0명, 수요일 9.0명, 목요일 11.0명, 금요일 11.0명, 토요일 6.0명, 일요일 12.0명입니다.",33.505296,126.5336622
신천리벽화마을,제주특별자치도 서귀포시 성산읍 신천리 478-1,서귀포시,관광지,인문(문화/예술/역사),체험관광지,이색체험,757.0,1.0,101.0,11.0,24.0,14.0,13.0,16.0,9.0,14.0,"'신천리벽화마을'은/는 제주특별자치도 서귀포시 성산읍 신천리 478-1에 위치한 관광지로, 관광지에 속하며, 대분류: 인문(문화/예술/역사), 중분류: 체험관광지, 소분류: 이색체험입니다. 해당 관광지는 기준월(1.0) 동안 총 757.0명의 방문자를 기록했습니다. 1월 한 달 동안 101.0명이 방문했습니다. 요일별 방문자수는 월요일 11.0명, 화요일 24.0명, 수요일 14.0명, 목요일 13.0명, 금요일 16.0명, 토요일 9.0명, 일요일 14.0명입니다.",33.3443858510457,126.849580035623
신풍리밭담길,제주특별자치도 서귀포시 성산읍 신풍하동로 39 ,서귀포시,레포츠,인문(문화/예술/역사),체험관광지,이색거리,745.0,1.0,86.0,21.0,14.0,11.0,7.0,13.0,7.0,13.0,"'신풍리밭담길'은/는 제주특별자치도 서귀포시 성산읍 신풍하동로 39 에 위치한 관광지로, 레포츠에 속하며, 대분류: 인문(문화/예술/역사), 중분류: 체험관광지, 소분류: 이색거리입니다. 해당 관광지는 기준월(1.0) 동안 총 745.0명의 방문자를 기록했습니다. 1월 한 달 동안 86.0명이 방문했습니다. 요일별 방문자수는 월요일 21.0명, 화요일 14.0명, 수요일 11.0명, 목요일 7.0명, 금요일 13.0명, 토요일 7.0명, 일요일 13.0명입니다.",33.3618881876801,126.840548960409
신화워터파크,제주특별자치도 서귀포시 신화역사로304번길 38 ,서귀포시,관광지,인문(문화/예술/역사),산업관광지,기타,2330.0,1.0,154.0,27.0,29.0,15.0,16.0,24.0,19.0,24.0,"'신화워터파크'은/는 제주특별자치도 서귀포시 신화역사로304번길 38 에 위치한 관광지로, 관광지에 속하며, 대분류: 인문(문화/예술/역사), 중분류: 산업관광지, 소분류: 기타입니다. 해당 관광지는 기준월(1.0) 동안 총 2330.0명의 방문자를 기록했습니다. 1월 한 달 동안 154.0명이 방문했습니다. 요일별 방문자수는 월요일 27.0명, 화요일 29.0명, 수요일 15.0명, 목요일 16.0명, 금요일 24.0명, 토요일 19.0명, 일요일 24.0명입니다.",33.3071802,126.3174379
신화테마파크,제주특별자치도 서귀포시 안덕면 신화역사로304번길 98 ,서귀포시,관광지,인문(문화/예술/역사),산업관광지,기타,3802.0,1.0,395.0,76.0,85.0,59.0,46.0,35.0,41.0,53.0,"'신화테마파크'은/는 제주특별자치도 서귀포시 안덕면 신화역사로304번길 98 에 위치한 관광지로, 관광지에 속하며, 대분류: 인문(문화/예술/역사), 중분류: 산업관광지, 소분류: 기타입니다. 해당 관광지는 기준월(1.0) 동안 총 3802.0명의 방문자를 기록했습니다. 1월 한 달 동안 395.0명이 방문했습니다. 요일별 방문자수는 월요일 76.0명, 화요일 85.0명, 수요일 59.0명, 목요일 46.0명, 금요일 35.0명, 토요일 41.0명, 일요일 53.0명입니다.",33.3060039,126.3118145
씨오르리조트,제주특별자치도 서귀포시 이어도로 989 ,서귀포시,숙박,인문(문화/예술/역사),휴양관광지,관광단지,393.0,1.0,38.0,3.0,7.0,5.0,5.0,6.0,4.0,8.0,"'씨오르리조트'은/는 제주특별자치도 서귀포시 이어도로 989 에 위치한 관광지로, 숙박에 속하며, 대분류: 인문(문화/예술/역사), 중분류: 휴양관광지, 소분류: 관광단지입니다. 해당 관광지는 기준월(1.0) 동안 총 393.0명의 방문자를 기록했습니다. 1월 한 달 동안 38.0명이 방문했습니다. 요일별 방문자수는 월요일 3.0명, 화요일 7.0명, 수요일 5.0명, 목요일 5.0명, 금요일 6.0명, 토요일 4.0명, 일요일 8.0명입니다.",33.2423556,126.518405
아날로그감귤밭,제주특별자치도 제주시 해안마을8길 46 (해안동),제주시,관광지,인문(문화/예술/역사),체험관광지,농.산.어촌 체험,2457.0,1.0,314.0,62.0,47.0,51.0,44.0,35.0,24.0,51.0,"'아날로그감귤밭'은/는 제주특별자치도 제주시 해안마을8길 46 (해안동)에 위치한 관광지로, 관광지에 속하며, 대분류: 인문(문화/예술/역사), 중분류: 체험관광지, 소분류: 농.산.어촌 체험입니다. 해당 관광지는 기준월(1.0) 동안 총 2457.0명의 방문자를 기록했습니다. 1월 한 달 동안 314.0명이 방문했습니다. 요일별 방문자수는 월요일 62.0명, 화요일 47.0명, 수요일 51.0명, 목요일 44.0명, 금요일 35.0명, 토요일 24.0명, 일요일 51.0명입니다.",33.455681,126.4509292
아침미소목장,제주특별자치도 제주시 첨단동길 160-20 (월평동),제주시,관광지,인문(문화/예술/역사),산업관광지,기타,2825.0,1.0,270.0,58.0,49.0,38.0,34.0,29.0,17.0,45.0,"'아침미소목장'은/는 제주특별자치도 제주시 첨단동길 160-20 (월평동)에 위치한 관광지로, 관광지에 속하며, 대분류: 인문(문화/예술/역사), 중분류: 산업관광지, 소분류: 기타입니다. 해당 관광지는 기준월(1.0) 동안 총 2825.0명의 방문자를 기록했습니다. 1월 한 달 동안 270.0명이 방문했습니다. 요일별 방문자수는 월요일 58.0명, 화요일 49.0명, 수요일 38.0명, 목요일 34.0명, 금요일 29.0명, 토요일 17.0명, 일요일 45.0명입니다.",33.4544337,126.5864979
아프리카박물관,제주특별자치도 서귀포시 이어도로 49 (대포동),서귀포시,문화시설,인문(문화/예술/역사),문화시설,박물관,1902.0,1.0,232.0,37.0,47.0,31.0,32.0,25.0,27.0,33.0,"'아프리카박물관'은/는 제주특별자치도 서귀포시 이어도로 49 (대포동)에 위치한 관광지로, 문화시설에 속하며, 대분류: 인문(문화/예술/역사), 중분류: 문화시설, 소분류: 박물관입니다. 해당 관광지는 기준월(1.0) 동안 총 1902.0명의 방문자를 기록했습니다. 1월 한 달 동안 232.0명이 방문했습니다. 요일별 방문자수는 월요일 37.0명, 화요일 47.0명, 수요일 31.0명, 목요일 32.0명, 금요일 25.0명, 토요일 27.0명, 일요일 33.0명입니다.",33.2398593,126.4290352
약천사,제주특별자치도 서귀포시 이어도로 293-28 (대포동),서귀포시,관광지,인문(문화/예술/역사),역사관광지,사찰,4177.0,1.0,387.0,71.0,60.0,46.0,50.0,39.0,54.0,67.0,"'약천사'은/는 제주특별자치도 서귀포시 이어도로 293-28 (대포동)에 위치한 관광지로, 관광지에 속하며, 대분류: 인문(문화/예술/역사), 중분류: 역사관광지, 소분류: 사찰입니다. 해당 관광지는 기준월(1.0) 동안 총 4177.0명의 방문자를 기록했습니다. 1월 한 달 동안 387.0명이 방문했습니다. 요일별 방문자수는 월요일 71.0명, 화요일 60.0명, 수요일 46.0명, 목요일 50.0명, 금요일 39.0명, 토요일 54.0명, 일요일 67.0명입니다.",33.2461046,126.4495188
어영공원,제주특별자치도 제주시 서해안로 451 (용담삼동) ,제주시,관광지,인문(문화/예술/역사),휴양관광지,공원,1250.0,1.0,113.0,19.0,22.0,17.0,8.0,16.0,13.0,18.0,"'어영공원'은/는 제주특별자치도 제주시 서해안로 451 (용담삼동) 에 위치한 관광지로, 관광지에 속하며, 대분류: 인문(문화/예술/역사), 중분류: 휴양관광지, 소분류: 공원입니다. 해당 관광지는 기준월(1.0) 동안 총 1250.0명의 방문자를 기록했습니다. 1월 한 달 동안 113.0명이 방문했습니다. 요일별 방문자수는 월요일 19.0명, 화요일 22.0명, 수요일 17.0명, 목요일 8.0명, 금요일 16.0명, 토요일 13.0명, 일요일 18.0명입니다.",33.5177971,126.4877926
에코그린리조트,제주특별자치도 제주시 한림읍 귀덕6길 94 ,제주시,관광지,인문(문화/예술/역사),휴양관광지,관광단지,405.0,1.0,48.0,8.0,7.0,5.0,3.0,6.0,9.0,10.0,"'에코그린리조트'은/는 제주특별자치도 제주시 한림읍 귀덕6길 94 에 위치한 관광지로, 관광지에 속하며, 대분류: 인문(문화/예술/역사), 중분류: 휴양관광지, 소분류: 관광단지입니다. 해당 관광지는 기준월(1.0) 동안 총 405.0명의 방문자를 기록했습니다. 1월 한 달 동안 48.0명이 방문했습니다. 요일별 방문자수는 월요일 8.0명, 화요일 7.0명, 수요일 5.0명, 목요일 3.0명, 금요일 6.0명, 토요일 9.0명, 일요일 10.0명입니다.",33.4357006,126.2915662
연북정,제주특별자치도 제주시 조천읍 조천리 ,제주시,관광지,인문(문화/예술/역사),역사관광지,유적지/사적지,927.0,1.0,78.0,14.0,8.0,14.0,10.0,14.0,8.0,10.0,"'연북정'은/는 제주특별자치도 제주시 조천읍 조천리 에 위치한 관광지로, 관광지에 속하며, 대분류: 인문(문화/예술/역사), 중분류: 역사관광지, 소분류: 유적지/사적지입니다. 해당 관광지는 기준월(1.0) 동안 총 927.0명의 방문자를 기록했습니다. 1월 한 달 동안 78.0명이 방문했습니다. 요일별 방문자수는 월요일 14.0명, 화요일 8.0명, 수요일 14.0명, 목요일 10.0명, 금요일 14.0명, 토요일 8.0명, 일요일 10.0명입니다.",33.5401964,126.6359829
예술공간이아,제주특별자치도 제주시 중앙로14길 21 ,제주시,문화시설,인문(문화/예술/역사),체험관광지,이색체험,571.0,1.0,49.0,9.0,10.0,6.0,5.0,8.0,3.0,8.0,"'예술공간이아'은/는 제주특별자치도 제주시 중앙로14길 21 에 위치한 관광지로, 문화시설에 속하며, 대분류: 인문(문화/예술/역사), 중분류: 체험관광지, 소분류: 이색체험입니다. 해당 관광지는 기준월(1.0) 동안 총 571.0명의 방문자를 기록했습니다. 1월 한 달 동안 49.0명이 방문했습니다. 요일별 방문자수는 월요일 9.0명, 화요일 10.0명, 수요일 6.0명, 목요일 5.0명, 금요일 8.0명, 토요일 3.0명, 일요일 8.0명입니다.",33.5110697247099,126.522361679677
오현단,제주특별자치도 제주시 오현길 61 (이도일동),제주시,관광지,인문(문화/예술/역사),역사관광지,유적지/사적지,836.0,1.0,66.0,11.0,11.0,8.0,7.0,3.0,14.0,12.0,"'오현단'은/는 제주특별자치도 제주시 오현길 61 (이도일동)에 위치한 관광지로, 관광지에 속하며, 대분류: 인문(문화/예술/역사), 중분류: 역사관광지, 소분류: 유적지/사적지입니다. 해당 관광지는 기준월(1.0) 동안 총 836.0명의 방문자를 기록했습니다. 1월 한 달 동안 66.0명이 방문했습니다. 요일별 방문자수는 월요일 11.0명, 화요일 11.0명, 수요일 8.0명, 목요일 7.0명, 금요일 3.0명, 토요일 14.0명, 일요일 12.0명입니다.",33.5104855,126.5257264
와이리조트제주,제주특별자치도 서귀포시 안덕면 화순중앙로124번길 75 ,서귀포시,숙박,인문(문화/예술/역사),휴양관광지,관광단지,428.0,1.0,43.0,3.0,6.0,7.0,7.0,6.0,9.0,5.0,"'와이리조트제주'은/는 제주특별자치도 서귀포시 안덕면 화순중앙로124번길 75 에 위치한 관광지로, 숙박에 속하며, 대분류: 인문(문화/예술/역사), 중분류: 휴양관광지, 소분류: 관광단지입니다. 해당 관광지는 기준월(1.0) 동안 총 428.0명의 방문자를 기록했습니다. 1월 한 달 동안 43.0명이 방문했습니다. 요일별 방문자수는 월요일 3.0명, 화요일 6.0명, 수요일 7.0명, 목요일 7.0명, 금요일 6.0명, 토요일 9.0명, 일요일 5.0명입니다.",33.2425688372377,126.327938185422
외돌개,제주특별자치도 서귀포시 서흥동 791,서귀포시,관광지,자연,관광자원,기암괴석,8990.0,1.0,608.0,127.0,95.0,65.0,86.0,75.0,64.0,96.0,"'외돌개'은/는 제주특별자치도 서귀포시 서흥동 791에 위치한 관광지로, 관광지에 속하며, 대분류: 자연, 중분류: 관광자원, 소분류: 기암괴석입니다. 해당 관광지는 기준월(1.0) 동안 총 8990.0명의 방문자를 기록했습니다. 1월 한 달 동안 608.0명이 방문했습니다. 요일별 방문자수는 월요일 127.0명, 화요일 95.0명, 수요일 65.0명, 목요일 86.0명, 금요일 75.0명, 토요일 64.0명, 일요일 96.0명입니다.",33.2400761,126.5456641
용담레포츠공원,제주특별자치도 제주시 서해안로 580 (용담삼동) ,제주시,관광지,인문(문화/예술/역사),휴양관광지,공원,1821.0,1.0,140.0,31.0,26.0,22.0,19.0,10.0,16.0,16.0,"'용담레포츠공원'은/는 제주특별자치도 제주시 서해안로 580 (용담삼동) 에 위치한 관광지로, 관광지에 속하며, 대분류: 인문(문화/예술/역사), 중분류: 휴양관광지, 소분류: 공원입니다. 해당 관광지는 기준월(1.0) 동안 총 1821.0명의 방문자를 기록했습니다. 1월 한 달 동안 140.0명이 방문했습니다. 요일별 방문자수는 월요일 31.0명, 화요일 26.0명, 수요일 22.0명, 목요일 19.0명, 금요일 10.0명, 토요일 16.0명, 일요일 16.0명입니다.",33.518341,126.4989767
우도잠수함,제주특별자치도 서귀포시 성산읍 성산등용로 112-7 ,서귀포시,관광지,인문(문화/예술/역사),휴양관광지,유람선/잠수함관광,3184.0,1.0,299.0,55.0,60.0,27.0,43.0,37.0,29.0,48.0,"'우도잠수함'은/는 제주특별자치도 서귀포시 성산읍 성산등용로 112-7 에 위치한 관광지로, 관광지에 속하며, 대분류: 인문(문화/예술/역사), 중분류: 휴양관광지, 소분류: 유람선/잠수함관광입니다. 해당 관광지는 기준월(1.0) 동안 총 3184.0명의 방문자를 기록했습니다. 1월 한 달 동안 299.0명이 방문했습니다. 요일별 방문자수는 월요일 55.0명, 화요일 60.0명, 수요일 27.0명, 목요일 43.0명, 금요일 37.0명, 토요일 29.0명, 일요일 48.0명입니다.",33.4719126653253,126.933104794189
이상한나라의앨리스,제주특별자치도 서귀포시 안덕면 중산간서로 1881 ,서귀포시,관광지,인문(문화/예술/역사),체험관광지,이색체험,2759.0,1.0,341.0,50.0,63.0,44.0,37.0,53.0,35.0,59.0,"'이상한나라의앨리스'은/는 제주특별자치도 서귀포시 안덕면 중산간서로 1881 에 위치한 관광지로, 관광지에 속하며, 대분류: 인문(문화/예술/역사), 중분류: 체험관광지, 소분류: 이색체험입니다. 해당 관광지는 기준월(1.0) 동안 총 2759.0명의 방문자를 기록했습니다. 1월 한 달 동안 341.0명이 방문했습니다. 요일별 방문자수는 월요일 50.0명, 화요일 63.0명, 수요일 44.0명, 목요일 37.0명, 금요일 53.0명, 토요일 35.0명, 일요일 59.0명입니다.",33.2889423633361,126.321784410657
이중섭거주지,제주특별자치도 서귀포시 이중섭로 29 (서귀동),서귀포시,관광지,인문(문화/예술/역사),역사관광지,유적지/사적지,2522.0,1.0,160.0,25.0,30.0,23.0,25.0,16.0,15.0,26.0,"'이중섭거주지'은/는 제주특별자치도 서귀포시 이중섭로 29 (서귀동)에 위치한 관광지로, 관광지에 속하며, 대분류: 인문(문화/예술/역사), 중분류: 역사관광지, 소분류: 유적지/사적지입니다. 해당 관광지는 기준월(1.0) 동안 총 2522.0명의 방문자를 기록했습니다. 1월 한 달 동안 160.0명이 방문했습니다. 요일별 방문자수는 월요일 25.0명, 화요일 30.0명, 수요일 23.0명, 목요일 25.0명, 금요일 16.0명, 토요일 15.0명, 일요일 26.0명입니다.",33.2455473,126.5644088
일출랜드,제주특별자치도 서귀포시 성산읍 중산간동로 4150-30 ,서귀포시,관광지,인문(문화/예술/역사),휴양관광지,공원,4391.0,1.0,413.0,90.0,77.0,68.0,52.0,46.0,35.0,45.0,"'일출랜드'은/는 제주특별자치도 서귀포시 성산읍 중산간동로 4150-30 에 위치한 관광지로, 관광지에 속하며, 대분류: 인문(문화/예술/역사), 중분류: 휴양관광지, 소분류: 공원입니다. 해당 관광지는 기준월(1.0) 동안 총 4391.0명의 방문자를 기록했습니다. 1월 한 달 동안 413.0명이 방문했습니다. 요일별 방문자수는 월요일 90.0명, 화요일 77.0명, 수요일 68.0명, 목요일 52.0명, 금요일 46.0명, 토요일 35.0명, 일요일 45.0명입니다.",33.3831862,126.8418892
절부암,제주특별자치도 제주시 한경면 용수리 4241-5,제주시,관광지,자연,관광자원,기암괴석,520.0,1.0,58.0,13.0,8.0,8.0,7.0,9.0,4.0,9.0,"'절부암'은/는 제주특별자치도 제주시 한경면 용수리 4241-5에 위치한 관광지로, 관광지에 속하며, 대분류: 자연, 중분류: 관광자원, 소분류: 기암괴석입니다. 해당 관광지는 기준월(1.0) 동안 총 520.0명의 방문자를 기록했습니다. 1월 한 달 동안 58.0명이 방문했습니다. 요일별 방문자수는 월요일 13.0명, 화요일 8.0명, 수요일 8.0명, 목요일 7.0명, 금요일 9.0명, 토요일 4.0명, 일요일 9.0명입니다.",33.3239831,126.1671817
점보빌리지,제주특별자치도 서귀포시 안덕면 평화로319번길 31-11 (안덕면),서귀포시,관광지,인문(문화/예술/역사),문화시설,공연장,1541.0,1.0,168.0,25.0,31.0,28.0,21.0,25.0,16.0,22.0,"'점보빌리지'은/는 제주특별자치도 서귀포시 안덕면 평화로319번길 31-11 (안덕면)에 위치한 관광지로, 관광지에 속하며, 대분류: 인문(문화/예술/역사), 중분류: 문화시설, 소분류: 공연장입니다. 해당 관광지는 기준월(1.0) 동안 총 1541.0명의 방문자를 기록했습니다. 1월 한 달 동안 168.0명이 방문했습니다. 요일별 방문자수는 월요일 25.0명, 화요일 31.0명, 수요일 28.0명, 목요일 21.0명, 금요일 25.0명, 토요일 16.0명, 일요일 22.0명입니다.",33.27601,126.3050559
정의향교,제주특별자치도 서귀포시 표선면 성읍서문로 14 ,서귀포시,관광지,인문(문화/예술/역사),역사관광지,유적지/사적지,562.0,1.0,46.0,7.0,6.0,8.0,7.0,4.0,4.0,10.0,"'정의향교'은/는 제주특별자치도 서귀포시 표선면 성읍서문로 14 에 위치한 관광지로, 관광지에 속하며, 대분류: 인문(문화/예술/역사), 중분류: 역사관광지, 소분류: 유적지/사적지입니다. 해당 관광지는 기준월(1.0) 동안 총 562.0명의 방문자를 기록했습니다. 1월 한 달 동안 46.0명이 방문했습니다. 요일별 방문자수는 월요일 7.0명, 화요일 6.0명, 수요일 8.0명, 목요일 7.0명, 금요일 4.0명, 토요일 4.0명, 일요일 10.0명입니다.",33.3869287,126.799942
제주삼양동유적,제주특별자치도 제주시 선사로2길 13 ,제주시,관광지,인문(문화/예술/역사),역사관광지,유적지/사적지,1196.0,1.0,128.0,20.0,18.0,13.0,21.0,23.0,20.0,13.0,"'제주삼양동유적'은/는 제주특별자치도 제주시 선사로2길 13 에 위치한 관광지로, 관광지에 속하며, 대분류: 인문(문화/예술/역사), 중분류: 역사관광지, 소분류: 유적지/사적지입니다. 해당 관광지는 기준월(1.0) 동안 총 1196.0명의 방문자를 기록했습니다. 1월 한 달 동안 128.0명이 방문했습니다. 요일별 방문자수는 월요일 20.0명, 화요일 18.0명, 수요일 13.0명, 목요일 21.0명, 금요일 23.0명, 토요일 20.0명, 일요일 13.0명입니다.",33.5235045849897,126.587999545909
제주교육박물관,제주특별자치도 제주시 오복4길 25 (이도이동),제주시,문화시설,인문(문화/예술/역사),문화시설,박물관,1023.0,1.0,97.0,12.0,12.0,20.0,14.0,11.0,15.0,13.0,"'제주교육박물관'은/는 제주특별자치도 제주시 오복4길 25 (이도이동)에 위치한 관광지로, 문화시설에 속하며, 대분류: 인문(문화/예술/역사), 중분류: 문화시설, 소분류: 박물관입니다. 해당 관광지는 기준월(1.0) 동안 총 1023.0명의 방문자를 기록했습니다. 1월 한 달 동안 97.0명이 방문했습니다. 요일별 방문자수는 월요일 12.0명, 화요일 12.0명, 수요일 20.0명, 목요일 14.0명, 금요일 11.0명, 토요일 15.0명, 일요일 13.0명입니다.",33.4945087,126.5380361
제주돌문화공원,제주특별자치도 제주시 조천읍 남조로 2023 ,제주시,문화시설,인문(문화/예술/역사),문화시설,박물관,10123.0,1.0,487.0,92.0,78.0,74.0,57.0,66.0,52.0,68.0,"'제주돌문화공원'은/는 제주특별자치도 제주시 조천읍 남조로 2023 에 위치한 관광지로, 문화시설에 속하며, 대분류: 인문(문화/예술/역사), 중분류: 문화시설, 소분류: 박물관입니다. 해당 관광지는 기준월(1.0) 동안 총 10123.0명의 방문자를 기록했습니다. 1월 한 달 동안 487.0명이 방문했습니다. 요일별 방문자수는 월요일 92.0명, 화요일 78.0명, 수요일 74.0명, 목요일 57.0명, 금요일 66.0명, 토요일 52.0명, 일요일 68.0명입니다.",33.4373391,126.6668484
제주목관아,제주특별자치도 제주시 관덕로 25 (삼도이동),제주시,관광지,인문(문화/예술/역사),역사관광지,고궁,2575.0,1.0,178.0,27.0,42.0,27.0,30.0,22.0,14.0,16.0,"'제주목관아'은/는 제주특별자치도 제주시 관덕로 25 (삼도이동)에 위치한 관광지로, 관광지에 속하며, 대분류: 인문(문화/예술/역사), 중분류: 역사관광지, 소분류: 고궁입니다. 해당 관광지는 기준월(1.0) 동안 총 2575.0명의 방문자를 기록했습니다. 1월 한 달 동안 178.0명이 방문했습니다. 요일별 방문자수는 월요일 27.0명, 화요일 42.0명, 수요일 27.0명, 목요일 30.0명, 금요일 22.0명, 토요일 14.0명, 일요일 16.0명입니다.",33.5138664,126.5217134
제주민속촌,제주특별자치도 서귀포시 표선면 민속해안로 631-34 ,서귀포시,문화시설,인문(문화/예술/역사),역사관광지,민속마을,4966.0,1.0,400.0,64.0,73.0,59.0,41.0,63.0,37.0,63.0,"'제주민속촌'은/는 제주특별자치도 서귀포시 표선면 민속해안로 631-34 에 위치한 관광지로, 문화시설에 속하며, 대분류: 인문(문화/예술/역사), 중분류: 역사관광지, 소분류: 민속마을입니다. 해당 관광지는 기준월(1.0) 동안 총 4966.0명의 방문자를 기록했습니다. 1월 한 달 동안 400.0명이 방문했습니다. 요일별 방문자수는 월요일 64.0명, 화요일 73.0명, 수요일 59.0명, 목요일 41.0명, 금요일 63.0명, 토요일 37.0명, 일요일 63.0명입니다.",33.3225098,126.8418176
제주바다체험장,제주특별자치도 제주시 구좌읍 일주동로 1777 ,제주시,관광지,인문(문화/예술/역사),체험관광지,농.산.어촌 체험,1227.0,1.0,90.0,14.0,22.0,9.0,12.0,8.0,12.0,13.0,"'제주바다체험장'은/는 제주특별자치도 제주시 구좌읍 일주동로 1777 에 위치한 관광지로, 관광지에 속하며, 대분류: 인문(문화/예술/역사), 중분류: 체험관광지, 소분류: 농.산.어촌 체험입니다. 해당 관광지는 기준월(1.0) 동안 총 1227.0명의 방문자를 기록했습니다. 1월 한 달 동안 90.0명이 방문했습니다. 요일별 방문자수는 월요일 14.0명, 화요일 22.0명, 수요일 9.0명, 목요일 12.0명, 금요일 8.0명, 토요일 12.0명, 일요일 13.0명입니다.",33.5546738,126.7218438
제주별빛누리공원,제주특별자치도 제주시 선돌목동길 60 (오등동) ,제주시,관광지,인문(문화/예술/역사),휴양관광지,공원,1639.0,1.0,102.0,13.0,21.0,9.0,17.0,14.0,14.0,14.0,"'제주별빛누리공원'은/는 제주특별자치도 제주시 선돌목동길 60 (오등동) 에 위치한 관광지로, 관광지에 속하며, 대분류: 인문(문화/예술/역사), 중분류: 휴양관광지, 소분류: 공원입니다. 해당 관광지는 기준월(1.0) 동안 총 1639.0명의 방문자를 기록했습니다. 1월 한 달 동안 102.0명이 방문했습니다. 요일별 방문자수는 월요일 13.0명, 화요일 21.0명, 수요일 9.0명, 목요일 17.0명, 금요일 14.0명, 토요일 14.0명, 일요일 14.0명입니다.",33.4451439,126.5492347
제주성지,제주특별자치도 제주시 오현길 61 (이도일동),제주시,관광지,인문(문화/예술/역사),역사관광지,성,603.0,1.0,62.0,12.0,13.0,9.0,5.0,4.0,7.0,12.0,"'제주성지'은/는 제주특별자치도 제주시 오현길 61 (이도일동)에 위치한 관광지로, 관광지에 속하며, 대분류: 인문(문화/예술/역사), 중분류: 역사관광지, 소분류: 성입니다. 해당 관광지는 기준월(1.0) 동안 총 603.0명의 방문자를 기록했습니다. 1월 한 달 동안 62.0명이 방문했습니다. 요일별 방문자수는 월요일 12.0명, 화요일 13.0명, 수요일 9.0명, 목요일 5.0명, 금요일 4.0명, 토요일 7.0명, 일요일 12.0명입니다.",33.5104855,126.5257264
제주아이브리조트,제주특별자치도 서귀포시 산록남로 1966-34 (영남동),서귀포시,관광지,인문(문화/예술/역사),휴양관광지,관광단지,709.0,1.0,94.0,14.0,9.0,14.0,10.0,12.0,13.0,22.0,"'제주아이브리조트'은/는 제주특별자치도 서귀포시 산록남로 1966-34 (영남동)에 위치한 관광지로, 관광지에 속하며, 대분류: 인문(문화/예술/역사), 중분류: 휴양관광지, 소분류: 관광단지입니다. 해당 관광지는 기준월(1.0) 동안 총 709.0명의 방문자를 기록했습니다. 1월 한 달 동안 94.0명이 방문했습니다. 요일별 방문자수는 월요일 14.0명, 화요일 9.0명, 수요일 14.0명, 목요일 10.0명, 금요일 12.0명, 토요일 13.0명, 일요일 22.0명입니다.",33.288409,126.4968764
제주안전체험관,제주특별자치도 제주시 애월읍 평화로 1885 ,제주시,관광지,인문(문화/예술/역사),체험관광지,이색체험,2271.0,1.0,117.0,28.0,27.0,15.0,14.0,9.0,8.0,16.0,"'제주안전체험관'은/는 제주특별자치도 제주시 애월읍 평화로 1885 에 위치한 관광지로, 관광지에 속하며, 대분류: 인문(문화/예술/역사), 중분류: 체험관광지, 소분류: 이색체험입니다. 해당 관광지는 기준월(1.0) 동안 총 2271.0명의 방문자를 기록했습니다. 1월 한 달 동안 117.0명이 방문했습니다. 요일별 방문자수는 월요일 28.0명, 화요일 27.0명, 수요일 15.0명, 목요일 14.0명, 금요일 9.0명, 토요일 8.0명, 일요일 16.0명입니다.",33.3942008,126.3737312
제주양떼목장,제주특별자치도 제주시 애월읍 도치돌길 289-13 ,제주시,관광지,인문(문화/예술/역사),체험관광지,농.산.어촌 체험,1043.0,1.0,136.0,31.0,16.0,21.0,16.0,17.0,15.0,20.0,"'제주양떼목장'은/는 제주특별자치도 제주시 애월읍 도치돌길 289-13 에 위치한 관광지로, 관광지에 속하며, 대분류: 인문(문화/예술/역사), 중분류: 체험관광지, 소분류: 농.산.어촌 체험입니다. 해당 관광지는 기준월(1.0) 동안 총 1043.0명의 방문자를 기록했습니다. 1월 한 달 동안 136.0명이 방문했습니다. 요일별 방문자수는 월요일 31.0명, 화요일 16.0명, 수요일 21.0명, 목요일 16.0명, 금요일 17.0명, 토요일 15.0명, 일요일 20.0명입니다.",33.4109424,126.3653661
제주유리박물관,제주특별자치도 서귀포시 중산간서로 1403 (상예동),서귀포시,문화시설,인문(문화/예술/역사),문화시설,박물관,1687.0,1.0,185.0,35.0,34.0,25.0,33.0,16.0,14.0,28.0,"'제주유리박물관'은/는 제주특별자치도 서귀포시 중산간서로 1403 (상예동)에 위치한 관광지로, 문화시설에 속하며, 대분류: 인문(문화/예술/역사), 중분류: 문화시설, 소분류: 박물관입니다. 해당 관광지는 기준월(1.0) 동안 총 1687.0명의 방문자를 기록했습니다. 1월 한 달 동안 185.0명이 방문했습니다. 요일별 방문자수는 월요일 35.0명, 화요일 34.0명, 수요일 25.0명, 목요일 33.0명, 금요일 16.0명, 토요일 14.0명, 일요일 28.0명입니다.",33.278366,126.3699424
제주항공우주박물관,제주특별자치도 서귀포시 안덕면 녹차분재로 218 ,서귀포시,문화시설,인문(문화/예술/역사),문화시설,박물관,3775.0,1.0,445.0,80.0,89.0,67.0,64.0,63.0,33.0,49.0,"'제주항공우주박물관'은/는 제주특별자치도 서귀포시 안덕면 녹차분재로 218 에 위치한 관광지로, 문화시설에 속하며, 대분류: 인문(문화/예술/역사), 중분류: 문화시설, 소분류: 박물관입니다. 해당 관광지는 기준월(1.0) 동안 총 3775.0명의 방문자를 기록했습니다. 1월 한 달 동안 445.0명이 방문했습니다. 요일별 방문자수는 월요일 80.0명, 화요일 89.0명, 수요일 67.0명, 목요일 64.0명, 금요일 63.0명, 토요일 33.0명, 일요일 49.0명입니다.",33.3027032,126.2991031
제주해양동물박물관,제주특별자치도 서귀포시 성산읍 서성일로 689-21 ,서귀포시,문화시설,인문(문화/예술/역사),문화시설,박물관,2617.0,1.0,285.0,47.0,45.0,39.0,46.0,32.0,31.0,45.0,"'제주해양동물박물관'은/는 제주특별자치도 서귀포시 성산읍 서성일로 689-21 에 위치한 관광지로, 문화시설에 속하며, 대분류: 인문(문화/예술/역사), 중분류: 문화시설, 소분류: 박물관입니다. 해당 관광지는 기준월(1.0) 동안 총 2617.0명의 방문자를 기록했습니다. 1월 한 달 동안 285.0명이 방문했습니다. 요일별 방문자수는 월요일 47.0명, 화요일 45.0명, 수요일 39.0명, 목요일 46.0명, 금요일 32.0명, 토요일 31.0명, 일요일 45.0명입니다.",33.4296617,126.8555492
제주향교,제주특별자치도 제주시 서문로 43 (용담일동),제주시,관광지,인문(문화/예술/역사),역사관광지,유적지/사적지,773.0,1.0,57.0,11.0,7.0,7.0,13.0,6.0,3.0,10.0,"'제주향교'은/는 제주특별자치도 제주시 서문로 43 (용담일동)에 위치한 관광지로, 관광지에 속하며, 대분류: 인문(문화/예술/역사), 중분류: 역사관광지, 소분류: 유적지/사적지입니다. 해당 관광지는 기준월(1.0) 동안 총 773.0명의 방문자를 기록했습니다. 1월 한 달 동안 57.0명이 방문했습니다. 요일별 방문자수는 월요일 11.0명, 화요일 7.0명, 수요일 7.0명, 목요일 13.0명, 금요일 6.0명, 토요일 3.0명, 일요일 10.0명입니다.",33.5111677,126.5159523
제주허브동산,제주특별자치도 서귀포시 표선면 돈오름로 170 ,서귀포시,관광지,인문(문화/예술/역사),산업관광지,기타,3429.0,1.0,278.0,58.0,44.0,30.0,35.0,33.0,26.0,52.0,"'제주허브동산'은/는 제주특별자치도 서귀포시 표선면 돈오름로 170 에 위치한 관광지로, 관광지에 속하며, 대분류: 인문(문화/예술/역사), 중분류: 산업관광지, 소분류: 기타입니다. 해당 관광지는 기준월(1.0) 동안 총 3429.0명의 방문자를 기록했습니다. 1월 한 달 동안 278.0명이 방문했습니다. 요일별 방문자수는 월요일 58.0명, 화요일 44.0명, 수요일 30.0명, 목요일 35.0명, 금요일 33.0명, 토요일 26.0명, 일요일 52.0명입니다.",33.330435,126.8154056
제주힐링명상센터,제주특별자치도 제주시 애월읍 어음13길 196 ,제주시,관광지,인문(문화/예술/역사),체험관광지,이색체험,2763.0,1.0,265.0,49.0,50.0,35.0,38.0,42.0,17.0,34.0,"'제주힐링명상센터'은/는 제주특별자치도 제주시 애월읍 어음13길 196 에 위치한 관광지로, 관광지에 속하며, 대분류: 인문(문화/예술/역사), 중분류: 체험관광지, 소분류: 이색체험입니다. 해당 관광지는 기준월(1.0) 동안 총 2763.0명의 방문자를 기록했습니다. 1월 한 달 동안 265.0명이 방문했습니다. 요일별 방문자수는 월요일 49.0명, 화요일 50.0명, 수요일 35.0명, 목요일 38.0명, 금요일 42.0명, 토요일 17.0명, 일요일 34.0명입니다.",33.3955297,126.3610931
조랑말체험공원,제주특별자치도 서귀포시 표선면 녹산로 381-15 ,서귀포시,관광지,인문(문화/예술/역사),체험관광지,이색체험,1821.0,1.0,164.0,34.0,35.0,23.0,21.0,17.0,7.0,27.0,"'조랑말체험공원'은/는 제주특별자치도 서귀포시 표선면 녹산로 381-15 에 위치한 관광지로, 관광지에 속하며, 대분류: 인문(문화/예술/역사), 중분류: 체험관광지, 소분류: 이색체험입니다. 해당 관광지는 기준월(1.0) 동안 총 1821.0명의 방문자를 기록했습니다. 1월 한 달 동안 164.0명이 방문했습니다. 요일별 방문자수는 월요일 34.0명, 화요일 35.0명, 수요일 23.0명, 목요일 21.0명, 금요일 17.0명, 토요일 7.0명, 일요일 27.0명입니다.",33.3831928,126.7359802
조안베어뮤지엄,제주특별자치도 서귀포시 대포로 113 (대포동),서귀포시,문화시설,인문(문화/예술/역사),문화시설,박물관,804.0,1.0,98.0,18.0,18.0,16.0,11.0,13.0,12.0,10.0,"'조안베어뮤지엄'은/는 제주특별자치도 서귀포시 대포로 113 (대포동)에 위치한 관광지로, 문화시설에 속하며, 대분류: 인문(문화/예술/역사), 중분류: 문화시설, 소분류: 박물관입니다. 해당 관광지는 기준월(1.0) 동안 총 804.0명의 방문자를 기록했습니다. 1월 한 달 동안 98.0명이 방문했습니다. 요일별 방문자수는 월요일 18.0명, 화요일 18.0명, 수요일 16.0명, 목요일 11.0명, 금요일 13.0명, 토요일 12.0명, 일요일 10.0명입니다.",33.240272,126.4340355
조천만세동산,제주특별자치도 제주시 조천읍 조천리 1142-1,제주시,관광지,인문(문화/예술/역사),역사관광지,유적지/사적지,1237.0,1.0,76.0,16.0,8.0,13.0,9.0,12.0,4.0,14.0,"'조천만세동산'은/는 제주특별자치도 제주시 조천읍 조천리 1142-1에 위치한 관광지로, 관광지에 속하며, 대분류: 인문(문화/예술/역사), 중분류: 역사관광지, 소분류: 유적지/사적지입니다. 해당 관광지는 기준월(1.0) 동안 총 1237.0명의 방문자를 기록했습니다. 1월 한 달 동안 76.0명이 방문했습니다. 요일별 방문자수는 월요일 16.0명, 화요일 8.0명, 수요일 13.0명, 목요일 9.0명, 금요일 12.0명, 토요일 4.0명, 일요일 14.0명입니다.",33.5399846,126.6416165
중문관광단지,제주특별자치도 서귀포시 중문관광로 38 (중문관광단지안내소),서귀포시,관광지,인문(문화/예술/역사),휴양관광지,관광단지,7359.0,1.0,660.0,137.0,104.0,74.0,87.0,103.0,66.0,89.0,"'중문관광단지'은/는 제주특별자치도 서귀포시 중문관광로 38 (중문관광단지안내소)에 위치한 관광지로, 관광지에 속하며, 대분류: 인문(문화/예술/역사), 중분류: 휴양관광지, 소분류: 관광단지입니다. 해당 관광지는 기준월(1.0) 동안 총 7359.0명의 방문자를 기록했습니다. 1월 한 달 동안 660.0명이 방문했습니다. 요일별 방문자수는 월요일 137.0명, 화요일 104.0명, 수요일 74.0명, 목요일 87.0명, 금요일 103.0명, 토요일 66.0명, 일요일 89.0명입니다.",33.2482702,126.4104128
차귀도유람선,제주특별자치도 제주시 한경면 노을해안로 1160 ,제주시,관광지,인문(문화/예술/역사),휴양관광지,유람선/잠수함관광,2279.0,1.0,163.0,24.0,28.0,28.0,24.0,16.0,14.0,29.0,"'차귀도유람선'은/는 제주특별자치도 제주시 한경면 노을해안로 1160 에 위치한 관광지로, 관광지에 속하며, 대분류: 인문(문화/예술/역사), 중분류: 휴양관광지, 소분류: 유람선/잠수함관광입니다. 해당 관광지는 기준월(1.0) 동안 총 2279.0명의 방문자를 기록했습니다. 1월 한 달 동안 163.0명이 방문했습니다. 요일별 방문자수는 월요일 24.0명, 화요일 28.0명, 수요일 28.0명, 목요일 24.0명, 금요일 16.0명, 토요일 14.0명, 일요일 29.0명입니다.",33.3089439,126.1655204
천왕사,제주특별자치도 제주시 1100로 2528-111 (노형동) ,제주시,관광지,인문(문화/예술/역사),역사관광지,사찰,2561.0,1.0,273.0,40.0,36.0,33.0,34.0,39.0,28.0,63.0,"'천왕사'은/는 제주특별자치도 제주시 1100로 2528-111 (노형동) 에 위치한 관광지로, 관광지에 속하며, 대분류: 인문(문화/예술/역사), 중분류: 역사관광지, 소분류: 사찰입니다. 해당 관광지는 기준월(1.0) 동안 총 2561.0명의 방문자를 기록했습니다. 1월 한 달 동안 273.0명이 방문했습니다. 요일별 방문자수는 월요일 40.0명, 화요일 36.0명, 수요일 33.0명, 목요일 34.0명, 금요일 39.0명, 토요일 28.0명, 일요일 63.0명입니다.",33.4087029,126.4944197
초콜릿박물관,제주특별자치도 서귀포시 대정읍 일주서로3000번길 144 ,서귀포시,문화시설,인문(문화/예술/역사),문화시설,박물관,3175.0,1.0,400.0,78.0,77.0,53.0,53.0,44.0,43.0,52.0,"'초콜릿박물관'은/는 제주특별자치도 서귀포시 대정읍 일주서로3000번길 144 에 위치한 관광지로, 문화시설에 속하며, 대분류: 인문(문화/예술/역사), 중분류: 문화시설, 소분류: 박물관입니다. 해당 관광지는 기준월(1.0) 동안 총 3175.0명의 방문자를 기록했습니다. 1월 한 달 동안 400.0명이 방문했습니다. 요일별 방문자수는 월요일 78.0명, 화요일 77.0명, 수요일 53.0명, 목요일 53.0명, 금요일 44.0명, 토요일 43.0명, 일요일 52.0명입니다.",33.2572278,126.2298012
캔디원,제주특별자치도 제주시 조천읍 선교로 384 ,제주시,관광지,인문(문화/예술/역사),체험관광지,이색체험,1066.0,1.0,143.0,22.0,19.0,26.0,22.0,20.0,10.0,24.0,"'캔디원'은/는 제주특별자치도 제주시 조천읍 선교로 384 에 위치한 관광지로, 관광지에 속하며, 대분류: 인문(문화/예술/역사), 중분류: 체험관광지, 소분류: 이색체험입니다. 해당 관광지는 기준월(1.0) 동안 총 1066.0명의 방문자를 기록했습니다. 1월 한 달 동안 143.0명이 방문했습니다. 요일별 방문자수는 월요일 22.0명, 화요일 19.0명, 수요일 26.0명, 목요일 22.0명, 금요일 20.0명, 토요일 10.0명, 일요일 24.0명입니다.",33.4712877,126.707937
켄싱턴리조트서귀포,제주특별자치도 서귀포시 이어도로 684 ,서귀포시,숙박,인문(문화/예술/역사),휴양관광지,관광단지,431.0,1.0,66.0,6.0,5.0,6.0,13.0,14.0,9.0,13.0,"'켄싱턴리조트서귀포'은/는 제주특별자치도 서귀포시 이어도로 684 에 위치한 관광지로, 숙박에 속하며, 대분류: 인문(문화/예술/역사), 중분류: 휴양관광지, 소분류: 관광단지입니다. 해당 관광지는 기준월(1.0) 동안 총 431.0명의 방문자를 기록했습니다. 1월 한 달 동안 66.0명이 방문했습니다. 요일별 방문자수는 월요일 6.0명, 화요일 5.0명, 수요일 6.0명, 목요일 13.0명, 금요일 14.0명, 토요일 9.0명, 일요일 13.0명입니다.",33.2336794657051,126.489040381289
코델리아리조트,제주특별자치도 서귀포시 성산읍 일주동로4120번길 23-20 ,서귀포시,관광지,인문(문화/예술/역사),휴양관광지,관광단지,383.0,1.0,35.0,7.0,9.0,3.0,5.0,3.0,4.0,4.0,"'코델리아리조트'은/는 제주특별자치도 서귀포시 성산읍 일주동로4120번길 23-20 에 위치한 관광지로, 관광지에 속하며, 대분류: 인문(문화/예술/역사), 중분류: 휴양관광지, 소분류: 관광단지입니다. 해당 관광지는 기준월(1.0) 동안 총 383.0명의 방문자를 기록했습니다. 1월 한 달 동안 35.0명이 방문했습니다. 요일별 방문자수는 월요일 7.0명, 화요일 9.0명, 수요일 3.0명, 목요일 5.0명, 금요일 3.0명, 토요일 4.0명, 일요일 4.0명입니다.",33.4591059,126.9102124
테디베어뮤지엄제주,제주특별자치도 서귀포시 중문관광로110번길 31 (색달동),서귀포시,문화시설,인문(문화/예술/역사),문화시설,박물관,3128.0,1.0,266.0,58.0,50.0,26.0,30.0,32.0,27.0,43.0,"'테디베어뮤지엄제주'은/는 제주특별자치도 서귀포시 중문관광로110번길 31 (색달동)에 위치한 관광지로, 문화시설에 속하며, 대분류: 인문(문화/예술/역사), 중분류: 문화시설, 소분류: 박물관입니다. 해당 관광지는 기준월(1.0) 동안 총 3128.0명의 방문자를 기록했습니다. 1월 한 달 동안 266.0명이 방문했습니다. 요일별 방문자수는 월요일 58.0명, 화요일 50.0명, 수요일 26.0명, 목요일 30.0명, 금요일 32.0명, 토요일 27.0명, 일요일 43.0명입니다.",33.2499815,126.4121571
토이파크,제주특별자치도 서귀포시 안덕면 동광로 267-7 ,서귀포시,관광지,인문(문화/예술/역사),문화시설,박물관,1141.0,1.0,148.0,29.0,32.0,22.0,22.0,15.0,13.0,15.0,"'토이파크'은/는 제주특별자치도 서귀포시 안덕면 동광로 267-7 에 위치한 관광지로, 관광지에 속하며, 대분류: 인문(문화/예술/역사), 중분류: 문화시설, 소분류: 박물관입니다. 해당 관광지는 기준월(1.0) 동안 총 1141.0명의 방문자를 기록했습니다. 1월 한 달 동안 148.0명이 방문했습니다. 요일별 방문자수는 월요일 29.0명, 화요일 32.0명, 수요일 22.0명, 목요일 22.0명, 금요일 15.0명, 토요일 13.0명, 일요일 15.0명입니다.",33.3189962,126.3456767
팜밸리리조트,제주특별자치도 서귀포시 중산간서로 193 (강정동),서귀포시,숙박,인문(문화/예술/역사),휴양관광지,관광단지,204.0,1.0,34.0,8.0,2.0,3.0,4.0,4.0,2.0,11.0,"'팜밸리리조트'은/는 제주특별자치도 서귀포시 중산간서로 193 (강정동)에 위치한 관광지로, 숙박에 속하며, 대분류: 인문(문화/예술/역사), 중분류: 휴양관광지, 소분류: 관광단지입니다. 해당 관광지는 기준월(1.0) 동안 총 204.0명의 방문자를 기록했습니다. 1월 한 달 동안 34.0명이 방문했습니다. 요일별 방문자수는 월요일 8.0명, 화요일 2.0명, 수요일 3.0명, 목요일 4.0명, 금요일 4.0명, 토요일 2.0명, 일요일 11.0명입니다.",33.2593043,126.4907423
평화통일불사리탑,제주특별자치도 제주시 조천읍 일주동로 884 (조천읍),제주시,관광지,인문(문화/예술/역사),역사관광지,사찰,1216.0,1.0,133.0,20.0,13.0,16.0,15.0,28.0,13.0,28.0,"'평화통일불사리탑'은/는 제주특별자치도 제주시 조천읍 일주동로 884 (조천읍)에 위치한 관광지로, 관광지에 속하며, 대분류: 인문(문화/예술/역사), 중분류: 역사관광지, 소분류: 사찰입니다. 해당 관광지는 기준월(1.0) 동안 총 1216.0명의 방문자를 기록했습니다. 1월 한 달 동안 133.0명이 방문했습니다. 요일별 방문자수는 월요일 20.0명, 화요일 13.0명, 수요일 16.0명, 목요일 15.0명, 금요일 28.0명, 토요일 13.0명, 일요일 28.0명입니다.",33.5315101305087,126.636877767573
하멜기념비,제주특별자치도 서귀포시 안덕면 사계리 112-3 ,서귀포시,관광지,인문(문화/예술/역사),건축/조형물,기념탑/기념비/전망대,1119.0,1.0,122.0,16.0,12.0,15.0,27.0,13.0,17.0,22.0,"'하멜기념비'은/는 제주특별자치도 서귀포시 안덕면 사계리 112-3 에 위치한 관광지로, 관광지에 속하며, 대분류: 인문(문화/예술/역사), 중분류: 건축/조형물, 소분류: 기념탑/기념비/전망대입니다. 해당 관광지는 기준월(1.0) 동안 총 1119.0명의 방문자를 기록했습니다. 1월 한 달 동안 122.0명이 방문했습니다. 요일별 방문자수는 월요일 16.0명, 화요일 12.0명, 수요일 15.0명, 목요일 27.0명, 금요일 13.0명, 토요일 17.0명, 일요일 22.0명입니다.",33.2334813,126.3146307
한림공원,제주특별자치도 제주시 한림읍 한림로 300 ,제주시,관광지,인문(문화/예술/역사),휴양관광지,공원,8246.0,1.0,678.0,126.0,118.0,89.0,102.0,81.0,75.0,87.0,"'한림공원'은/는 제주특별자치도 제주시 한림읍 한림로 300 에 위치한 관광지로, 관광지에 속하며, 대분류: 인문(문화/예술/역사), 중분류: 휴양관광지, 소분류: 공원입니다. 해당 관광지는 기준월(1.0) 동안 총 8246.0명의 방문자를 기록했습니다. 1월 한 달 동안 678.0명이 방문했습니다. 요일별 방문자수는 월요일 126.0명, 화요일 118.0명, 수요일 89.0명, 목요일 102.0명, 금요일 81.0명, 토요일 75.0명, 일요일 87.0명입니다.",33.3883099,126.2394248
한화리조트제주,제주특별자치도 제주시 명림로 575-107 ,제주시,숙박,인문(문화/예술/역사),휴양관광지,관광단지,1786.0,1.0,206.0,36.0,34.0,32.0,34.0,24.0,19.0,27.0,"'한화리조트제주'은/는 제주특별자치도 제주시 명림로 575-107 에 위치한 관광지로, 숙박에 속하며, 대분류: 인문(문화/예술/역사), 중분류: 휴양관광지, 소분류: 관광단지입니다. 해당 관광지는 기준월(1.0) 동안 총 1786.0명의 방문자를 기록했습니다. 1월 한 달 동안 206.0명이 방문했습니다. 요일별 방문자수는 월요일 36.0명, 화요일 34.0명, 수요일 32.0명, 목요일 34.0명, 금요일 24.0명, 토요일 19.0명, 일요일 27.0명입니다.",33.3902248567191,126.239691183153
함덕잠수함,제주특별자치도 제주시 조천읍 조함해안로 378 ,제주시,관광지,인문(문화/예술/역사),휴양관광지,유람선/잠수함관광,1403.0,1.0,115.0,20.0,19.0,13.0,18.0,17.0,11.0,17.0,"'함덕잠수함'은/는 제주특별자치도 제주시 조천읍 조함해안로 378 에 위치한 관광지로, 관광지에 속하며, 대분류: 인문(문화/예술/역사), 중분류: 휴양관광지, 소분류: 유람선/잠수함관광입니다. 해당 관광지는 기준월(1.0) 동안 총 1403.0명의 방문자를 기록했습니다. 1월 한 달 동안 115.0명이 방문했습니다. 요일별 방문자수는 월요일 20.0명, 화요일 19.0명, 수요일 13.0명, 목요일 18.0명, 금요일 17.0명, 토요일 11.0명, 일요일 17.0명입니다.",33.4490025432113,126.637358132958
해녀박물관,제주특별자치도 제주시 구좌읍 해녀박물관길 26 ,제주시,문화시설,인문(문화/예술/역사),문화시설,박물관,4791.0,1.0,318.0,56.0,57.0,55.0,49.0,32.0,24.0,45.0,"'해녀박물관'은/는 제주특별자치도 제주시 구좌읍 해녀박물관길 26 에 위치한 관광지로, 문화시설에 속하며, 대분류: 인문(문화/예술/역사), 중분류: 문화시설, 소분류: 박물관입니다. 해당 관광지는 기준월(1.0) 동안 총 4791.0명의 방문자를 기록했습니다. 1월 한 달 동안 318.0명이 방문했습니다. 요일별 방문자수는 월요일 56.0명, 화요일 57.0명, 수요일 55.0명, 목요일 49.0명, 금요일 32.0명, 토요일 24.0명, 일요일 45.0명입니다.",33.523385,126.8622061
해품은체험농장,제주특별자치도 서귀포시 성산읍 서성일로 1078-14 ,서귀포시,관광지,인문(문화/예술/역사),산업관광지,기타,609.0,1.0,74.0,18.0,14.0,9.0,8.0,7.0,4.0,14.0,"'해품은체험농장'은/는 제주특별자치도 서귀포시 성산읍 서성일로 1078-14 에 위치한 관광지로, 관광지에 속하며, 대분류: 인문(문화/예술/역사), 중분류: 산업관광지, 소분류: 기타입니다. 해당 관광지는 기준월(1.0) 동안 총 609.0명의 방문자를 기록했습니다. 1월 한 달 동안 74.0명이 방문했습니다. 요일별 방문자수는 월요일 18.0명, 화요일 14.0명, 수요일 9.0명, 목요일 8.0명, 금요일 7.0명, 토요일 4.0명, 일요일 14.0명입니다.",33.443438,126.8926365
효명사,제주특별자치도 서귀포시 516로 815-41 효명사 ,서귀포시,관광지,인문(문화/예술/역사),역사관광지,사찰,673.0,1.0,80.0,16.0,15.0,7.0,10.0,10.0,9.0,13.0,"'효명사'은/는 제주특별자치도 서귀포시 516로 815-41 효명사 에 위치한 관광지로, 관광지에 속하며, 대분류: 인문(문화/예술/역사), 중분류: 역사관광지, 소분류: 사찰입니다. 해당 관광지는 기준월(1.0) 동안 총 673.0명의 방문자를 기록했습니다. 1월 한 달 동안 80.0명이 방문했습니다. 요일별 방문자수는 월요일 16.0명, 화요일 15.0명, 수요일 7.0명, 목요일 10.0명, 금요일 10.0명, 토요일 9.0명, 일요일 13.0명입니다.",33.3227935,126.5956233
휴애리자연생활공원,제주특별자치도 서귀포시 남원읍 신례동로 256 ,서귀포시,관광지,인문(문화/예술/역사),휴양관광지,공원,13757.0,1.0,1111.0,219.0,185.0,148.0,164.0,128.0,97.0,170.0,"'휴애리자연생활공원'은/는 제주특별자치도 서귀포시 남원읍 신례동로 256 에 위치한 관광지로, 관광지에 속하며, 대분류: 인문(문화/예술/역사), 중분류: 휴양관광지, 소분류: 공원입니다. 해당 관광지는 기준월(1.0) 동안 총 13757.0명의 방문자를 기록했습니다. 1월 한 달 동안 1111.0명이 방문했습니다. 요일별 방문자수는 월요일 219.0명, 화요일 185.0명, 수요일 148.0명, 목요일 164.0명, 금요일 128.0명, 토요일 97.0명, 일요일 170.0명입니다.",33.3085347525753,126.634380832055
흑돼지거리,제주특별자치도 제주시 일도일동 ,제주시,관광지,인문(문화/예술/역사),체험관광지,이색거리,924.0,1.0,114.0,27.0,20.0,10.0,17.0,11.0,9.0,20.0,"'흑돼지거리'은/는 제주특별자치도 제주시 일도일동 에 위치한 관광지로, 관광지에 속하며, 대분류: 인문(문화/예술/역사), 중분류: 체험관광지, 소분류: 이색거리입니다. 해당 관광지는 기준월(1.0) 동안 총 924.0명의 방문자를 기록했습니다. 1월 한 달 동안 114.0명이 방문했습니다. 요일별 방문자수는 월요일 27.0명, 화요일 20.0명, 수요일 10.0명, 목요일 17.0명, 금요일 11.0명, 토요일 9.0명, 일요일 20.0명입니다.",33.5153591,126.5420032
5.16도로숲터널,제주특별자치도 서귀포시 남원읍 신례천로 267-110 ,서귀포시,관광지,인문(문화/예술/역사),건축/조형물,터널,1772.0,1.0,148.0,33.0,19.0,21.0,23.0,26.0,12.0,14.0,"'5.16도로숲터널'은/는 제주특별자치도 서귀포시 남원읍 신례천로 267-110 에 위치한 관광지로, 관광지에 속하며, 대분류: 인문(문화/예술/역사), 중분류: 건축/조형물, 소분류: 터널입니다. 해당 관광지는 기준월(1.0) 동안 총 1772.0명의 방문자를 기록했습니다. 1월 한 달 동안 148.0명이 방문했습니다. 요일별 방문자수는 월요일 33.0명, 화요일 19.0명, 수요일 21.0명, 목요일 23.0명, 금요일 26.0명, 토요일 12.0명, 일요일 14.0명입니다.",33.3330338,126.6180657
