관광지명,주소,주소_시,장소 카테고리,대분류,중분류,소분류,총 방문자수,기준월,월별 방문자수,월요일방문자수,화요일방문자수,수요일방문자수,목요일방문자수,금요일방문자수,토요일방문자수,일요일방문자수,정보,위도,경도
갈중이,제주특별자치도 서귀포시 사계남로216번길 24-61 갈중이 ,서귀포시,관광지,인문(문화/예술/역사),체험관광지,전통체험,500.0,7.0,50.0,11.0,6.0,5.0,6.0,12.0,5.0,5.0,"'갈중이'은/는 제주특별자치도 서귀포시 사계남로216번길 24-61 갈중이 에 위치한 관광지로, 관광지에 속하며, 대분류: 인문(문화/예술/역사), 중분류: 체험관광지, 소분류: 전통체험입니다. 해당 관광지는 기준월(7.0) 동안 총 500.0명의 방문자를 기록했습니다. 10월 한 달 동안 50.0명이 방문했습니다. 요일별 방문자수는 월요일 11.0명, 화요일 6.0명, 수요일 5.0명, 목요일 6.0명, 금요일 12.0명, 토요일 5.0명, 일요일 5.0명입니다.",33.2350546,126.3136741
감수굴밭담길,제주특별자치도 제주시 구좌읍 평대7길 34 ,제주시,관광지,인문(문화/예술/역사),체험관광지,농.산.어촌 체험,551.0,7.0,49.0,8.0,6.0,10.0,7.0,6.0,7.0,5.0,"'감수굴밭담길'은/는 제주특별자치도 제주시 구좌읍 평대7길 34 에 위치한 관광지로, 관광지에 속하며, 대분류: 인문(문화/예술/역사), 중분류: 체험관광지, 소분류: 농.산.어촌 체험입니다. 해당 관광지는 기준월(7.0) 동안 총 551.0명의 방문자를 기록했습니다. 10월 한 달 동안 49.0명이 방문했습니다. 요일별 방문자수는 월요일 8.0명, 화요일 6.0명, 수요일 10.0명, 목요일 7.0명, 금요일 6.0명, 토요일 7.0명, 일요일 5.0명입니다.",33.5310269077995,126.843267842652
관덕정,제주특별자치도 제주시 관덕로 19 (삼도이동),제주시,관광지,인문(문화/예술/역사),역사관광지,고궁,5642.0,7.0,449.0,92.0,62.0,66.0,56.0,61.0,48.0,64.0,"'관덕정'은/는 제주특별자치도 제주시 관덕로 19 (삼도이동)에 위치한 관광지로, 관광지에 속하며, 대분류: 인문(문화/예술/역사), 중분류: 역사관광지, 소분류: 고궁입니다. 해당 관광지는 기준월(7.0) 동안 총 5642.0명의 방문자를 기록했습니다. 10월 한 달 동안 449.0명이 방문했습니다. 요일별 방문자수는 월요일 92.0명, 화요일 62.0명, 수요일 66.0명, 목요일 56.0명, 금요일 61.0명, 토요일 48.0명, 일요일 64.0명입니다.",33.5133704,126.5214334
관음사,제주특별자치도 제주시 산록북로 660 (아라일동),제주시,관광지,인문(문화/예술/역사),역사관광지,사찰,1809.0,7.0,128.0,21.0,15.0,16.0,19.0,19.0,15.0,23.0,"'관음사'은/는 제주특별자치도 제주시 산록북로 660 (아라일동)에 위치한 관광지로, 관광지에 속하며, 대분류: 인문(문화/예술/역사), 중분류: 역사관광지, 소분류: 사찰입니다. 해당 관광지는 기준월(7.0) 동안 총 1809.0명의 방문자를 기록했습니다. 10월 한 달 동안 128.0명이 방문했습니다. 요일별 방문자수는 월요일 21.0명, 화요일 15.0명, 수요일 16.0명, 목요일 19.0명, 금요일 19.0명, 토요일 15.0명, 일요일 23.0명입니다.",33.4237942,126.5583908
금능포구,제주특별자치도 제주시 한림읍 금능리 ,제주시,관광지,인문(문화/예술/역사),체험관광지,농.산.어촌 체험,457.0,7.0,49.0,15.0,4.0,5.0,7.0,5.0,8.0,5.0,"'금능포구'은/는 제주특별자치도 제주시 한림읍 금능리 에 위치한 관광지로, 관광지에 속하며, 대분류: 인문(문화/예술/역사), 중분류: 체험관광지, 소분류: 농.산.어촌 체험입니다. 해당 관광지는 기준월(7.0) 동안 총 457.0명의 방문자를 기록했습니다. 10월 한 달 동안 49.0명이 방문했습니다. 요일별 방문자수는 월요일 15.0명, 화요일 4.0명, 수요일 5.0명, 목요일 7.0명, 금요일 5.0명, 토요일 8.0명, 일요일 5.0명입니다.",33.3700283,126.2392054
금룡사,제주특별자치도 제주시 구좌읍 김녕로 148-11 (구좌읍),제주시,관광지,인문(문화/예술/역사),역사관광지,사찰,478.0,7.0,35.0,5.0,3.0,8.0,2.0,6.0,7.0,4.0,"'금룡사'은/는 제주특별자치도 제주시 구좌읍 김녕로 148-11 (구좌읍)에 위치한 관광지로, 관광지에 속하며, 대분류: 인문(문화/예술/역사), 중분류: 역사관광지, 소분류: 사찰입니다. 해당 관광지는 기준월(7.0) 동안 총 478.0명의 방문자를 기록했습니다. 10월 한 달 동안 35.0명이 방문했습니다. 요일별 방문자수는 월요일 5.0명, 화요일 3.0명, 수요일 8.0명, 목요일 2.0명, 금요일 6.0명, 토요일 7.0명, 일요일 4.0명입니다.",33.553856,126.7535423
금호리조트제주,제주특별자치도 서귀포시 남원읍 태위로 522-12 ,서귀포시,숙박,인문(문화/예술/역사),휴양관광지,관광단지,1515.0,7.0,99.0,11.0,17.0,8.0,21.0,13.0,16.0,13.0,"'금호리조트제주'은/는 제주특별자치도 서귀포시 남원읍 태위로 522-12 에 위치한 관광지로, 숙박에 속하며, 대분류: 인문(문화/예술/역사), 중분류: 휴양관광지, 소분류: 관광단지입니다. 해당 관광지는 기준월(7.0) 동안 총 1515.0명의 방문자를 기록했습니다. 10월 한 달 동안 99.0명이 방문했습니다. 요일별 방문자수는 월요일 11.0명, 화요일 17.0명, 수요일 8.0명, 목요일 21.0명, 금요일 13.0명, 토요일 16.0명, 일요일 13.0명입니다.",33.2729991,126.701485
노리매공원,제주특별자치도 서귀포시 대정읍 중산간서로 2260-15 ,서귀포시,관광지,인문(문화/예술/역사),휴양관광지,공원,3274.0,7.0,174.0,32.0,32.0,25.0,17.0,23.0,19.0,26.0,"'노리매공원'은/는 제주특별자치도 서귀포시 대정읍 중산간서로 2260-15 에 위치한 관광지로, 관광지에 속하며, 대분류: 인문(문화/예술/역사), 중분류: 휴양관광지, 소분류: 공원입니다. 해당 관광지는 기준월(7.0) 동안 총 3274.0명의 방문자를 기록했습니다. 10월 한 달 동안 174.0명이 방문했습니다. 요일별 방문자수는 월요일 32.0명, 화요일 32.0명, 수요일 25.0명, 목요일 17.0명, 금요일 23.0명, 토요일 19.0명, 일요일 26.0명입니다.",33.2831505,126.2873239
누웨마루거리,제주특별자치도 제주시 신광로 47 (연동) ,제주시,관광지,인문(문화/예술/역사),체험관광지,이색거리,2082.0,7.0,172.0,27.0,26.0,28.0,19.0,24.0,25.0,23.0,"'누웨마루거리'은/는 제주특별자치도 제주시 신광로 47 (연동) 에 위치한 관광지로, 관광지에 속하며, 대분류: 인문(문화/예술/역사), 중분류: 체험관광지, 소분류: 이색거리입니다. 해당 관광지는 기준월(7.0) 동안 총 2082.0명의 방문자를 기록했습니다. 10월 한 달 동안 172.0명이 방문했습니다. 요일별 방문자수는 월요일 27.0명, 화요일 26.0명, 수요일 28.0명, 목요일 19.0명, 금요일 24.0명, 토요일 25.0명, 일요일 23.0명입니다.",33.4877543819398,126.490293916618
다이나믹메이즈,제주특별자치도 서귀포시 표선면 번영로 2644 ,서귀포시,관광지,인문(문화/예술/역사),휴양관광지,테마공원,7386.0,7.0,585.0,94.0,97.0,51.0,92.0,68.0,97.0,86.0,"'다이나믹메이즈'은/는 제주특별자치도 서귀포시 표선면 번영로 2644 에 위치한 관광지로, 관광지에 속하며, 대분류: 인문(문화/예술/역사), 중분류: 휴양관광지, 소분류: 테마공원입니다. 해당 관광지는 기준월(7.0) 동안 총 7386.0명의 방문자를 기록했습니다. 10월 한 달 동안 585.0명이 방문했습니다. 요일별 방문자수는 월요일 94.0명, 화요일 97.0명, 수요일 51.0명, 목요일 92.0명, 금요일 68.0명, 토요일 97.0명, 일요일 86.0명입니다.",33.3991423,126.7851051
답다니탑망대,제주특별자치도 제주시 우도면 우도해안길 602 ,제주시,관광지,인문(문화/예술/역사),건축/조형물,유명건물,713.0,7.0,75.0,10.0,14.0,7.0,11.0,7.0,11.0,15.0,"'답다니탑망대'은/는 제주특별자치도 제주시 우도면 우도해안길 602 에 위치한 관광지로, 관광지에 속하며, 대분류: 인문(문화/예술/역사), 중분류: 건축/조형물, 소분류: 유명건물입니다. 해당 관광지는 기준월(7.0) 동안 총 713.0명의 방문자를 기록했습니다. 10월 한 달 동안 75.0명이 방문했습니다. 요일별 방문자수는 월요일 10.0명, 화요일 14.0명, 수요일 7.0명, 목요일 11.0명, 금요일 7.0명, 토요일 11.0명, 일요일 15.0명입니다.",33.524420713702,126.952546624477
대정향교,제주특별자치도 서귀포시 안덕면 향교로 165-17 ,서귀포시,관광지,인문(문화/예술/역사),역사관광지,유적지/사적지,1020.0,7.0,66.0,12.0,5.0,6.0,20.0,9.0,7.0,7.0,"'대정향교'은/는 제주특별자치도 서귀포시 안덕면 향교로 165-17 에 위치한 관광지로, 관광지에 속하며, 대분류: 인문(문화/예술/역사), 중분류: 역사관광지, 소분류: 유적지/사적지입니다. 해당 관광지는 기준월(7.0) 동안 총 1020.0명의 방문자를 기록했습니다. 10월 한 달 동안 66.0명이 방문했습니다. 요일별 방문자수는 월요일 12.0명, 화요일 5.0명, 수요일 6.0명, 목요일 20.0명, 금요일 9.0명, 토요일 7.0명, 일요일 7.0명입니다.",33.2394319,126.2883184
더아일랜더,제주특별자치도 제주시 관덕로4길 7 ,제주시,쇼핑,쇼핑,쇼핑,특산물판매점,445.0,7.0,36.0,3.0,3.0,10.0,4.0,4.0,8.0,4.0,"'더아일랜더'은/는 제주특별자치도 제주시 관덕로4길 7 에 위치한 관광지로, 쇼핑에 속하며, 대분류: 쇼핑, 중분류: 쇼핑, 소분류: 특산물판매점입니다. 해당 관광지는 기준월(7.0) 동안 총 445.0명의 방문자를 기록했습니다. 10월 한 달 동안 36.0명이 방문했습니다. 요일별 방문자수는 월요일 3.0명, 화요일 3.0명, 수요일 10.0명, 목요일 4.0명, 금요일 4.0명, 토요일 8.0명, 일요일 4.0명입니다.",33.5123979,126.521371
더마파크,제주특별자치도 제주시 한림읍 월림7길 155 ,제주시,관광지,인문(문화/예술/역사),휴양관광지,테마공원,3972.0,7.0,402.0,58.0,51.0,54.0,62.0,39.0,59.0,79.0,"'더마파크'은/는 제주특별자치도 제주시 한림읍 월림7길 155 에 위치한 관광지로, 관광지에 속하며, 대분류: 인문(문화/예술/역사), 중분류: 휴양관광지, 소분류: 테마공원입니다. 해당 관광지는 기준월(7.0) 동안 총 3972.0명의 방문자를 기록했습니다. 10월 한 달 동안 402.0명이 방문했습니다. 요일별 방문자수는 월요일 58.0명, 화요일 51.0명, 수요일 54.0명, 목요일 62.0명, 금요일 39.0명, 토요일 59.0명, 일요일 79.0명입니다.",33.3508962,126.2482536
도치돌알파카목장,제주특별자치도 제주시 애월읍 도치돌길 293 ,제주시,관광지,인문(문화/예술/역사),체험관광지,농.산.어촌 체험,1675.0,7.0,132.0,19.0,14.0,16.0,32.0,18.0,12.0,21.0,"'도치돌알파카목장'은/는 제주특별자치도 제주시 애월읍 도치돌길 293 에 위치한 관광지로, 관광지에 속하며, 대분류: 인문(문화/예술/역사), 중분류: 체험관광지, 소분류: 농.산.어촌 체험입니다. 해당 관광지는 기준월(7.0) 동안 총 1675.0명의 방문자를 기록했습니다. 10월 한 달 동안 132.0명이 방문했습니다. 요일별 방문자수는 월요일 19.0명, 화요일 14.0명, 수요일 16.0명, 목요일 32.0명, 금요일 18.0명, 토요일 12.0명, 일요일 21.0명입니다.",33.4099506881118,126.36573023443
두맹이골목,제주특별자치도 제주시 일도이동 1006-11,제주시,관광지,인문(문화/예술/역사),체험관광지,이색거리,741.0,7.0,56.0,15.0,10.0,8.0,4.0,5.0,9.0,5.0,"'두맹이골목'은/는 제주특별자치도 제주시 일도이동 1006-11에 위치한 관광지로, 관광지에 속하며, 대분류: 인문(문화/예술/역사), 중분류: 체험관광지, 소분류: 이색거리입니다. 해당 관광지는 기준월(7.0) 동안 총 741.0명의 방문자를 기록했습니다. 10월 한 달 동안 56.0명이 방문했습니다. 요일별 방문자수는 월요일 15.0명, 화요일 10.0명, 수요일 8.0명, 목요일 4.0명, 금요일 5.0명, 토요일 9.0명, 일요일 5.0명입니다.",33.5120308,126.5349279
라온호텔앤리조트,제주특별자치도 제주시 한림읍 금능남로 127 ,제주시,관광지,인문(문화/예술/역사),휴양관광지,관광단지,619.0,7.0,65.0,13.0,6.0,9.0,11.0,5.0,9.0,12.0,"'라온호텔앤리조트'은/는 제주특별자치도 제주시 한림읍 금능남로 127 에 위치한 관광지로, 관광지에 속하며, 대분류: 인문(문화/예술/역사), 중분류: 휴양관광지, 소분류: 관광단지입니다. 해당 관광지는 기준월(7.0) 동안 총 619.0명의 방문자를 기록했습니다. 10월 한 달 동안 65.0명이 방문했습니다. 요일별 방문자수는 월요일 13.0명, 화요일 6.0명, 수요일 9.0명, 목요일 11.0명, 금요일 5.0명, 토요일 9.0명, 일요일 12.0명입니다.",33.3810152,126.2411754
라헨느리조트,제주특별자치도 제주시 명림로 384 ,제주시,숙박,인문(문화/예술/역사),휴양관광지,관광단지,364.0,7.0,33.0,9.0,2.0,3.0,4.0,6.0,3.0,6.0,"'라헨느리조트'은/는 제주특별자치도 제주시 명림로 384 에 위치한 관광지로, 숙박에 속하며, 대분류: 인문(문화/예술/역사), 중분류: 휴양관광지, 소분류: 관광단지입니다. 해당 관광지는 기준월(7.0) 동안 총 364.0명의 방문자를 기록했습니다. 10월 한 달 동안 33.0명이 방문했습니다. 요일별 방문자수는 월요일 9.0명, 화요일 2.0명, 수요일 3.0명, 목요일 4.0명, 금요일 6.0명, 토요일 3.0명, 일요일 6.0명입니다.",33.4521555,126.6155076
맥파이브루어리,제주특별자치도 제주시 동회천1길 23 (회천동),제주시,관광지,인문(문화/예술/역사),산업관광지,식음료,823.0,7.0,57.0,11.0,5.0,10.0,11.0,10.0,5.0,5.0,"'맥파이브루어리'은/는 제주특별자치도 제주시 동회천1길 23 (회천동)에 위치한 관광지로, 관광지에 속하며, 대분류: 인문(문화/예술/역사), 중분류: 산업관광지, 소분류: 식음료입니다. 해당 관광지는 기준월(7.0) 동안 총 823.0명의 방문자를 기록했습니다. 10월 한 달 동안 57.0명이 방문했습니다. 요일별 방문자수는 월요일 11.0명, 화요일 5.0명, 수요일 10.0명, 목요일 11.0명, 금요일 10.0명, 토요일 5.0명, 일요일 5.0명입니다.",33.503206117821,126.61717764321
메이즈랜드,제주특별자치도 제주시 구좌읍 비자림로 2134-47 ,제주시,관광지,인문(문화/예술/역사),휴양관광지,테마공원,8368.0,7.0,509.0,78.0,64.0,64.0,73.0,74.0,75.0,81.0,"'메이즈랜드'은/는 제주특별자치도 제주시 구좌읍 비자림로 2134-47 에 위치한 관광지로, 관광지에 속하며, 대분류: 인문(문화/예술/역사), 중분류: 휴양관광지, 소분류: 테마공원입니다. 해당 관광지는 기준월(7.0) 동안 총 8368.0명의 방문자를 기록했습니다. 10월 한 달 동안 509.0명이 방문했습니다. 요일별 방문자수는 월요일 78.0명, 화요일 64.0명, 수요일 64.0명, 목요일 73.0명, 금요일 74.0명, 토요일 75.0명, 일요일 81.0명입니다.",33.4743111,126.7771579
명월성지,제주특별자치도 제주시 한림읍 명월리 2236 ,제주시,관광지,인문(문화/예술/역사),역사관광지,성,1048.0,7.0,72.0,15.0,8.0,14.0,8.0,0.0,12.0,15.0,"'명월성지'은/는 제주특별자치도 제주시 한림읍 명월리 2236 에 위치한 관광지로, 관광지에 속하며, 대분류: 인문(문화/예술/역사), 중분류: 역사관광지, 소분류: 성입니다. 해당 관광지는 기준월(7.0) 동안 총 1048.0명의 방문자를 기록했습니다. 10월 한 달 동안 72.0명이 방문했습니다. 요일별 방문자수는 월요일 15.0명, 화요일 8.0명, 수요일 14.0명, 목요일 8.0명, 금요일 0.0명, 토요일 12.0명, 일요일 15.0명입니다.",33.4004982,126.2609256
물뫼힐링팜,제주특별자치도 제주시 애월읍 예원로 51 ,제주시,관광지,인문(문화/예술/역사),체험관광지,이색체험,987.0,7.0,69.0,6.0,11.0,10.0,12.0,9.0,9.0,12.0,"'물뫼힐링팜'은/는 제주특별자치도 제주시 애월읍 예원로 51 에 위치한 관광지로, 관광지에 속하며, 대분류: 인문(문화/예술/역사), 중분류: 체험관광지, 소분류: 이색체험입니다. 해당 관광지는 기준월(7.0) 동안 총 987.0명의 방문자를 기록했습니다. 10월 한 달 동안 69.0명이 방문했습니다. 요일별 방문자수는 월요일 6.0명, 화요일 11.0명, 수요일 10.0명, 목요일 12.0명, 금요일 9.0명, 토요일 9.0명, 일요일 12.0명입니다.",33.4642593,126.3965364
바이제주,제주특별자치도 제주시 서해안로 626 (용담삼동),제주시,쇼핑,쇼핑,쇼핑,특산물판매점,554.0,7.0,38.0,3.0,6.0,7.0,6.0,5.0,6.0,5.0,"'바이제주'은/는 제주특별자치도 제주시 서해안로 626 (용담삼동)에 위치한 관광지로, 쇼핑에 속하며, 대분류: 쇼핑, 중분류: 쇼핑, 소분류: 특산물판매점입니다. 해당 관광지는 기준월(7.0) 동안 총 554.0명의 방문자를 기록했습니다. 10월 한 달 동안 38.0명이 방문했습니다. 요일별 방문자수는 월요일 3.0명, 화요일 6.0명, 수요일 7.0명, 목요일 6.0명, 금요일 5.0명, 토요일 6.0명, 일요일 5.0명입니다.",33.516627,126.5040466
방주교회,제주특별자치도 서귀포시 안덕면 산록남로762번길 113 ,서귀포시,관광지,인문(문화/예술/역사),역사관광지,종교성지,13913.0,7.0,874.0,146.0,99.0,119.0,137.0,116.0,108.0,149.0,"'방주교회'은/는 제주특별자치도 서귀포시 안덕면 산록남로762번길 113 에 위치한 관광지로, 관광지에 속하며, 대분류: 인문(문화/예술/역사), 중분류: 역사관광지, 소분류: 종교성지입니다. 해당 관광지는 기준월(7.0) 동안 총 13913.0명의 방문자를 기록했습니다. 10월 한 달 동안 874.0명이 방문했습니다. 요일별 방문자수는 월요일 146.0명, 화요일 99.0명, 수요일 119.0명, 목요일 137.0명, 금요일 116.0명, 토요일 108.0명, 일요일 149.0명입니다.",33.3051258,126.3872587
백제사,제주특별자치도 제주시 애월읍 광령남6길 54 (애월읍),제주시,관광지,인문(문화/예술/역사),역사관광지,사찰,432.0,7.0,39.0,5.0,4.0,5.0,9.0,4.0,4.0,8.0,"'백제사'은/는 제주특별자치도 제주시 애월읍 광령남6길 54 (애월읍)에 위치한 관광지로, 관광지에 속하며, 대분류: 인문(문화/예술/역사), 중분류: 역사관광지, 소분류: 사찰입니다. 해당 관광지는 기준월(7.0) 동안 총 432.0명의 방문자를 기록했습니다. 10월 한 달 동안 39.0명이 방문했습니다. 요일별 방문자수는 월요일 5.0명, 화요일 4.0명, 수요일 5.0명, 목요일 9.0명, 금요일 4.0명, 토요일 4.0명, 일요일 8.0명입니다.",33.4487759,126.4242169
법화사,제주특별자치도 서귀포시 하원북로35번길 15-28 법화사 ,서귀포시,관광지,인문(문화/예술/역사),역사관광지,사찰,1620.0,7.0,101.0,14.0,15.0,18.0,16.0,7.0,14.0,17.0,"'법화사'은/는 제주특별자치도 서귀포시 하원북로35번길 15-28 법화사 에 위치한 관광지로, 관광지에 속하며, 대분류: 인문(문화/예술/역사), 중분류: 역사관광지, 소분류: 사찰입니다. 해당 관광지는 기준월(7.0) 동안 총 1620.0명의 방문자를 기록했습니다. 10월 한 달 동안 101.0명이 방문했습니다. 요일별 방문자수는 월요일 14.0명, 화요일 15.0명, 수요일 18.0명, 목요일 16.0명, 금요일 7.0명, 토요일 14.0명, 일요일 17.0명입니다.",33.2651982,126.4577155
별방진,제주특별자치도 제주시 구좌읍 하도리 3354 (구좌읍),제주시,관광지,인문(문화/예술/역사),역사관광지,성,2260.0,7.0,125.0,20.0,10.0,18.0,17.0,19.0,19.0,22.0,"'별방진'은/는 제주특별자치도 제주시 구좌읍 하도리 3354 (구좌읍)에 위치한 관광지로, 관광지에 속하며, 대분류: 인문(문화/예술/역사), 중분류: 역사관광지, 소분류: 성입니다. 해당 관광지는 기준월(7.0) 동안 총 2260.0명의 방문자를 기록했습니다. 10월 한 달 동안 125.0명이 방문했습니다. 요일별 방문자수는 월요일 20.0명, 화요일 10.0명, 수요일 18.0명, 목요일 17.0명, 금요일 19.0명, 토요일 19.0명, 일요일 22.0명입니다.",33.5264493,126.8830512
보롬왓,제주특별자치도 서귀포시 번영로 2350-104 ,서귀포시,관광지,인문(문화/예술/역사),산업관광지,기타,17967.0,7.0,828.0,146.0,121.0,89.0,111.0,128.0,97.0,136.0,"'보롬왓'은/는 제주특별자치도 서귀포시 번영로 2350-104 에 위치한 관광지로, 관광지에 속하며, 대분류: 인문(문화/예술/역사), 중분류: 산업관광지, 소분류: 기타입니다. 해당 관광지는 기준월(7.0) 동안 총 17967.0명의 방문자를 기록했습니다. 10월 한 달 동안 828.0명이 방문했습니다. 요일별 방문자수는 월요일 146.0명, 화요일 121.0명, 수요일 89.0명, 목요일 111.0명, 금요일 128.0명, 토요일 97.0명, 일요일 136.0명입니다.",33.4134884,126.7525669
보통청춘기록실청춘사진관,제주특별자치도 제주시 한림읍 일주서로 5867 ,제주시,관광지,인문(문화/예술/역사),체험관광지,이색체험,786.0,7.0,68.0,14.0,9.0,14.0,8.0,7.0,7.0,9.0,"'보통청춘기록실청춘사진관'은/는 제주특별자치도 제주시 한림읍 일주서로 5867 에 위치한 관광지로, 관광지에 속하며, 대분류: 인문(문화/예술/역사), 중분류: 체험관광지, 소분류: 이색체험입니다. 해당 관광지는 기준월(7.0) 동안 총 786.0명의 방문자를 기록했습니다. 10월 한 달 동안 68.0명이 방문했습니다. 요일별 방문자수는 월요일 14.0명, 화요일 9.0명, 수요일 14.0명, 목요일 8.0명, 금요일 7.0명, 토요일 7.0명, 일요일 9.0명입니다.",33.4436616234369,126.293059624787
불탑사,제주특별자치도 제주시 원당로16길 41 (삼양일동),제주시,관광지,인문(문화/예술/역사),역사관광지,사찰,821.0,7.0,53.0,6.0,7.0,11.0,8.0,6.0,4.0,11.0,"'불탑사'은/는 제주특별자치도 제주시 원당로16길 41 (삼양일동)에 위치한 관광지로, 관광지에 속하며, 대분류: 인문(문화/예술/역사), 중분류: 역사관광지, 소분류: 사찰입니다. 해당 관광지는 기준월(7.0) 동안 총 821.0명의 방문자를 기록했습니다. 10월 한 달 동안 53.0명이 방문했습니다. 요일별 방문자수는 월요일 6.0명, 화요일 7.0명, 수요일 11.0명, 목요일 8.0명, 금요일 6.0명, 토요일 4.0명, 일요일 11.0명입니다.",33.5290725932684,126.598418345536
비스타리조트,제주특별자치도 제주시 서해안로 74 ,제주시,숙박,인문(문화/예술/역사),휴양관광지,관광단지,191.0,7.0,16.0,2.0,4.0,5.0,1.0,4.0,0.0,0.0,"'비스타리조트'은/는 제주특별자치도 제주시 서해안로 74 에 위치한 관광지로, 숙박에 속하며, 대분류: 인문(문화/예술/역사), 중분류: 휴양관광지, 소분류: 관광단지입니다. 해당 관광지는 기준월(7.0) 동안 총 191.0명의 방문자를 기록했습니다. 10월 한 달 동안 16.0명이 방문했습니다. 요일별 방문자수는 월요일 2.0명, 화요일 4.0명, 수요일 5.0명, 목요일 1.0명, 금요일 4.0명, 토요일 0.0명, 일요일 0.0명입니다.",33.5031197,126.457563
사라봉공원,제주특별자치도 제주시 사라봉동길 74 ,제주시,관광지,인문(문화/예술/역사),휴양관광지,공원,1849.0,7.0,106.0,15.0,14.0,17.0,18.0,11.0,14.0,17.0,"'사라봉공원'은/는 제주특별자치도 제주시 사라봉동길 74 에 위치한 관광지로, 관광지에 속하며, 대분류: 인문(문화/예술/역사), 중분류: 휴양관광지, 소분류: 공원입니다. 해당 관광지는 기준월(7.0) 동안 총 1849.0명의 방문자를 기록했습니다. 10월 한 달 동안 106.0명이 방문했습니다. 요일별 방문자수는 월요일 15.0명, 화요일 14.0명, 수요일 17.0명, 목요일 18.0명, 금요일 11.0명, 토요일 14.0명, 일요일 17.0명입니다.",33.5177204,126.5457574
산방굴사,제주특별자치도 서귀포시 안덕면 산방로 218-12 ,서귀포시,관광지,인문(문화/예술/역사),역사관광지,사찰,10646.0,7.0,598.0,92.0,80.0,84.0,86.0,81.0,88.0,87.0,"'산방굴사'은/는 제주특별자치도 서귀포시 안덕면 산방로 218-12 에 위치한 관광지로, 관광지에 속하며, 대분류: 인문(문화/예술/역사), 중분류: 역사관광지, 소분류: 사찰입니다. 해당 관광지는 기준월(7.0) 동안 총 10646.0명의 방문자를 기록했습니다. 10월 한 달 동안 598.0명이 방문했습니다. 요일별 방문자수는 월요일 92.0명, 화요일 80.0명, 수요일 84.0명, 목요일 86.0명, 금요일 81.0명, 토요일 88.0명, 일요일 87.0명입니다.",33.2423934,126.3139575
산방산랜드,제주특별자치도 서귀포시 안덕면 사계리 117-2,서귀포시,관광지,인문(문화/예술/역사),휴양관광지,테마공원,3336.0,7.0,213.0,39.0,26.0,31.0,27.0,27.0,34.0,29.0,"'산방산랜드'은/는 제주특별자치도 서귀포시 안덕면 사계리 117-2에 위치한 관광지로, 관광지에 속하며, 대분류: 인문(문화/예술/역사), 중분류: 휴양관광지, 소분류: 테마공원입니다. 해당 관광지는 기준월(7.0) 동안 총 3336.0명의 방문자를 기록했습니다. 10월 한 달 동안 213.0명이 방문했습니다. 요일별 방문자수는 월요일 39.0명, 화요일 26.0명, 수요일 31.0명, 목요일 27.0명, 금요일 27.0명, 토요일 34.0명, 일요일 29.0명입니다.",33.2341156018697,126.311707416564
삼매봉,제주특별자치도 서귀포시 서홍동 820-2,서귀포시,관광지,인문(문화/예술/역사),휴양관광지,공원,630.0,7.0,39.0,6.0,3.0,5.0,8.0,7.0,4.0,6.0,"'삼매봉'은/는 제주특별자치도 서귀포시 서홍동 820-2에 위치한 관광지로, 관광지에 속하며, 대분류: 인문(문화/예술/역사), 중분류: 휴양관광지, 소분류: 공원입니다. 해당 관광지는 기준월(7.0) 동안 총 630.0명의 방문자를 기록했습니다. 10월 한 달 동안 39.0명이 방문했습니다. 요일별 방문자수는 월요일 6.0명, 화요일 3.0명, 수요일 5.0명, 목요일 8.0명, 금요일 7.0명, 토요일 4.0명, 일요일 6.0명입니다.",33.2437181,126.5462844
서귀다원,제주특별자치도 서귀포시 516로 717 (상효동),서귀포시,관광지,인문(문화/예술/역사),산업관광지,기타,4111.0,7.0,236.0,44.0,30.0,30.0,35.0,28.0,39.0,30.0,"'서귀다원'은/는 제주특별자치도 서귀포시 516로 717 (상효동)에 위치한 관광지로, 관광지에 속하며, 대분류: 인문(문화/예술/역사), 중분류: 산업관광지, 소분류: 기타입니다. 해당 관광지는 기준월(7.0) 동안 총 4111.0명의 방문자를 기록했습니다. 10월 한 달 동안 236.0명이 방문했습니다. 요일별 방문자수는 월요일 44.0명, 화요일 30.0명, 수요일 30.0명, 목요일 35.0명, 금요일 28.0명, 토요일 39.0명, 일요일 30.0명입니다.",33.3211576,126.5716701
서귀본향당,제주특별자치도 서귀포시 이중섭로 23-11 (서귀동),서귀포시,관광지,인문(문화/예술/역사),역사관광지,유적지/사적지,783.0,7.0,39.0,7.0,8.0,7.0,7.0,2.0,3.0,5.0,"'서귀본향당'은/는 제주특별자치도 서귀포시 이중섭로 23-11 (서귀동)에 위치한 관광지로, 관광지에 속하며, 대분류: 인문(문화/예술/역사), 중분류: 역사관광지, 소분류: 유적지/사적지입니다. 해당 관광지는 기준월(7.0) 동안 총 783.0명의 방문자를 기록했습니다. 10월 한 달 동안 39.0명이 방문했습니다. 요일별 방문자수는 월요일 7.0명, 화요일 8.0명, 수요일 7.0명, 목요일 7.0명, 금요일 2.0명, 토요일 3.0명, 일요일 5.0명입니다.",33.2461722,126.5647482
서귀포치유의숲,제주특별자치도 서귀포시 산록남로 2271 (호근동),서귀포시,관광지,인문(문화/예술/역사),휴양관광지,헬스투어,11271.0,7.0,1125.0,200.0,151.0,158.0,151.0,138.0,145.0,182.0,"'서귀포치유의숲'은/는 제주특별자치도 서귀포시 산록남로 2271 (호근동)에 위치한 관광지로, 관광지에 속하며, 대분류: 인문(문화/예술/역사), 중분류: 휴양관광지, 소분류: 헬스투어입니다. 해당 관광지는 기준월(7.0) 동안 총 11271.0명의 방문자를 기록했습니다. 10월 한 달 동안 1125.0명이 방문했습니다. 요일별 방문자수는 월요일 200.0명, 화요일 151.0명, 수요일 158.0명, 목요일 151.0명, 금요일 138.0명, 토요일 145.0명, 일요일 182.0명입니다.",33.3025489,126.5245747
서귀포잠수함,제주특별자치도 서귀포시 남성중로 40 ,서귀포시,관광지,인문(문화/예술/역사),휴양관광지,유람선/잠수함관광,1510.0,7.0,6.0,4.0,0.0,0.0,0.0,1.0,0.0,1.0,"'서귀포잠수함'은/는 제주특별자치도 서귀포시 남성중로 40 에 위치한 관광지로, 관광지에 속하며, 대분류: 인문(문화/예술/역사), 중분류: 휴양관광지, 소분류: 유람선/잠수함관광입니다. 해당 관광지는 기준월(7.0) 동안 총 1510.0명의 방문자를 기록했습니다. 10월 한 달 동안 6.0명이 방문했습니다. 요일별 방문자수는 월요일 4.0명, 화요일 0.0명, 수요일 0.0명, 목요일 0.0명, 금요일 1.0명, 토요일 0.0명, 일요일 1.0명입니다.",33.2392011725071,126.558423865174
서프라이즈테마파크,제주특별자치도 제주시 조천읍 남조로 2243 ,제주시,관광지,인문(문화/예술/역사),휴양관광지,테마공원,1994.0,7.0,172.0,32.0,26.0,18.0,23.0,24.0,27.0,22.0,"'서프라이즈테마파크'은/는 제주특별자치도 제주시 조천읍 남조로 2243 에 위치한 관광지로, 관광지에 속하며, 대분류: 인문(문화/예술/역사), 중분류: 휴양관광지, 소분류: 테마공원입니다. 해당 관광지는 기준월(7.0) 동안 총 1994.0명의 방문자를 기록했습니다. 10월 한 달 동안 172.0명이 방문했습니다. 요일별 방문자수는 월요일 32.0명, 화요일 26.0명, 수요일 18.0명, 목요일 23.0명, 금요일 24.0명, 토요일 27.0명, 일요일 22.0명입니다.",33.4651605,126.6592588
선운정사,제주특별자치도 제주시 애월읍 구몰동길 65 ,제주시,관광지,인문(문화/예술/역사),역사관광지,사찰,2945.0,7.0,256.0,41.0,46.0,36.0,32.0,29.0,35.0,37.0,"'선운정사'은/는 제주특별자치도 제주시 애월읍 구몰동길 65 에 위치한 관광지로, 관광지에 속하며, 대분류: 인문(문화/예술/역사), 중분류: 역사관광지, 소분류: 사찰입니다. 해당 관광지는 기준월(7.0) 동안 총 2945.0명의 방문자를 기록했습니다. 10월 한 달 동안 256.0명이 방문했습니다. 요일별 방문자수는 월요일 41.0명, 화요일 46.0명, 수요일 36.0명, 목요일 32.0명, 금요일 29.0명, 토요일 35.0명, 일요일 37.0명입니다.",33.4293512,126.3070877
성김대건신부표착기념관,제주특별자치도 제주시 한경면 용수1길 108 ,제주시,문화시설,인문(문화/예술/역사),역사관광지,종교성지,1418.0,7.0,131.0,18.0,14.0,19.0,19.0,19.0,16.0,26.0,"'성김대건신부표착기념관'은/는 제주특별자치도 제주시 한경면 용수1길 108 에 위치한 관광지로, 문화시설에 속하며, 대분류: 인문(문화/예술/역사), 중분류: 역사관광지, 소분류: 종교성지입니다. 해당 관광지는 기준월(7.0) 동안 총 1418.0명의 방문자를 기록했습니다. 10월 한 달 동안 131.0명이 방문했습니다. 요일별 방문자수는 월요일 18.0명, 화요일 14.0명, 수요일 19.0명, 목요일 19.0명, 금요일 19.0명, 토요일 16.0명, 일요일 26.0명입니다.",33.322643,126.167682
성읍녹차마을,제주특별자치도 서귀포시 중산간동로 4778 녹차가공공장 ,서귀포시,관광지,인문(문화/예술/역사),체험관광지,농.산.어촌 체험,1271.0,7.0,85.0,11.0,13.0,14.0,13.0,15.0,6.0,13.0,"'성읍녹차마을'은/는 제주특별자치도 서귀포시 중산간동로 4778 녹차가공공장 에 위치한 관광지로, 관광지에 속하며, 대분류: 인문(문화/예술/역사), 중분류: 체험관광지, 소분류: 농.산.어촌 체험입니다. 해당 관광지는 기준월(7.0) 동안 총 1271.0명의 방문자를 기록했습니다. 10월 한 달 동안 85.0명이 방문했습니다. 요일별 방문자수는 월요일 11.0명, 화요일 13.0명, 수요일 14.0명, 목요일 13.0명, 금요일 15.0명, 토요일 6.0명, 일요일 13.0명입니다.",33.3810103,126.7901958
성읍랜드,제주특별자치도 서귀포시 표선면 번영로 2650 ,서귀포시,관광지,인문(문화/예술/역사),휴양관광지,테마공원,1912.0,7.0,167.0,20.0,20.0,26.0,24.0,14.0,35.0,28.0,"'성읍랜드'은/는 제주특별자치도 서귀포시 표선면 번영로 2650 에 위치한 관광지로, 관광지에 속하며, 대분류: 인문(문화/예술/역사), 중분류: 휴양관광지, 소분류: 테마공원입니다. 해당 관광지는 기준월(7.0) 동안 총 1912.0명의 방문자를 기록했습니다. 10월 한 달 동안 167.0명이 방문했습니다. 요일별 방문자수는 월요일 20.0명, 화요일 20.0명, 수요일 26.0명, 목요일 24.0명, 금요일 14.0명, 토요일 35.0명, 일요일 28.0명입니다.",33.398978,126.7869638
성읍민속마을,제주특별자치도 서귀포시 표선면 성읍정의현로 19 ,서귀포시,관광지,인문(문화/예술/역사),역사관광지,민속마을,8542.0,7.0,446.0,82.0,57.0,55.0,63.0,71.0,57.0,61.0,"'성읍민속마을'은/는 제주특별자치도 서귀포시 표선면 성읍정의현로 19 에 위치한 관광지로, 관광지에 속하며, 대분류: 인문(문화/예술/역사), 중분류: 역사관광지, 소분류: 민속마을입니다. 해당 관광지는 기준월(7.0) 동안 총 8542.0명의 방문자를 기록했습니다. 10월 한 달 동안 446.0명이 방문했습니다. 요일별 방문자수는 월요일 82.0명, 화요일 57.0명, 수요일 55.0명, 목요일 63.0명, 금요일 71.0명, 토요일 57.0명, 일요일 61.0명입니다.",33.3844862,126.8003558
성이시돌목장,제주특별자치도 제주시 한림읍 산록남로 53 ,제주시,관광지,인문(문화/예술/역사),체험관광지,농.산.어촌 체험,11292.0,7.0,719.0,113.0,88.0,108.0,114.0,115.0,88.0,93.0,"'성이시돌목장'은/는 제주특별자치도 제주시 한림읍 산록남로 53 에 위치한 관광지로, 관광지에 속하며, 대분류: 인문(문화/예술/역사), 중분류: 체험관광지, 소분류: 농.산.어촌 체험입니다. 해당 관광지는 기준월(7.0) 동안 총 11292.0명의 방문자를 기록했습니다. 10월 한 달 동안 719.0명이 방문했습니다. 요일별 방문자수는 월요일 113.0명, 화요일 88.0명, 수요일 108.0명, 목요일 114.0명, 금요일 115.0명, 토요일 88.0명, 일요일 93.0명입니다.",33.3459727,126.3215552
소노캄제주,제주특별자치도 서귀포시 표선면 일주동로 6347-17 ,서귀포시,숙박,인문(문화/예술/역사),휴양관광지,관광단지,1885.0,7.0,121.0,20.0,23.0,13.0,15.0,17.0,15.0,18.0,"'소노캄제주'은/는 제주특별자치도 서귀포시 표선면 일주동로 6347-17 에 위치한 관광지로, 숙박에 속하며, 대분류: 인문(문화/예술/역사), 중분류: 휴양관광지, 소분류: 관광단지입니다. 해당 관광지는 기준월(7.0) 동안 총 1885.0명의 방문자를 기록했습니다. 10월 한 달 동안 121.0명이 방문했습니다. 요일별 방문자수는 월요일 20.0명, 화요일 23.0명, 수요일 13.0명, 목요일 15.0명, 금요일 17.0명, 토요일 15.0명, 일요일 18.0명입니다.",33.3050378,126.7919081
소인국테마파크,제주특별자치도 서귀포시 안덕면 중산간서로 1878 ,서귀포시,관광지,인문(문화/예술/역사),휴양관광지,테마공원,3988.0,7.0,306.0,71.0,34.0,31.0,41.0,52.0,34.0,43.0,"'소인국테마파크'은/는 제주특별자치도 서귀포시 안덕면 중산간서로 1878 에 위치한 관광지로, 관광지에 속하며, 대분류: 인문(문화/예술/역사), 중분류: 휴양관광지, 소분류: 테마공원입니다. 해당 관광지는 기준월(7.0) 동안 총 3988.0명의 방문자를 기록했습니다. 10월 한 달 동안 306.0명이 방문했습니다. 요일별 방문자수는 월요일 71.0명, 화요일 34.0명, 수요일 31.0명, 목요일 41.0명, 금요일 52.0명, 토요일 34.0명, 일요일 43.0명입니다.",33.2903957,126.3226207
송악산둘레길,제주특별자치도 서귀포시 대정읍 상모리 245,서귀포시,관광지,레포츠,육상 레포츠,트래킹,18146.0,7.0,454.0,95.0,33.0,42.0,21.0,76.0,103.0,84.0,"'송악산둘레길'은/는 제주특별자치도 서귀포시 대정읍 상모리 245에 위치한 관광지로, 관광지에 속하며, 대분류: 레포츠, 중분류: 육상 레포츠, 소분류: 트래킹입니다. 해당 관광지는 기준월(7.0) 동안 총 18146.0명의 방문자를 기록했습니다. 10월 한 달 동안 454.0명이 방문했습니다. 요일별 방문자수는 월요일 95.0명, 화요일 33.0명, 수요일 42.0명, 목요일 21.0명, 금요일 76.0명, 토요일 103.0명, 일요일 84.0명입니다.",33.2077419,126.2909048
수목원테마파크,제주특별자치도 제주시 은수길 69 ,제주시,관광지,인문(문화/예술/역사),휴양관광지,테마공원,3236.0,7.0,246.0,49.0,43.0,21.0,34.0,33.0,33.0,33.0,"'수목원테마파크'은/는 제주특별자치도 제주시 은수길 69 에 위치한 관광지로, 관광지에 속하며, 대분류: 인문(문화/예술/역사), 중분류: 휴양관광지, 소분류: 테마공원입니다. 해당 관광지는 기준월(7.0) 동안 총 3236.0명의 방문자를 기록했습니다. 10월 한 달 동안 246.0명이 방문했습니다. 요일별 방문자수는 월요일 49.0명, 화요일 43.0명, 수요일 21.0명, 목요일 34.0명, 금요일 33.0명, 토요일 33.0명, 일요일 33.0명입니다.",33.4705937,126.4883601
순례자의교회,제주특별자치도 제주시 한경면 일주서로 3960-24 ,제주시,관광지,인문(문화/예술/역사),역사관광지,종교성지,2494.0,7.0,184.0,40.0,18.0,30.0,25.0,14.0,36.0,21.0,"'순례자의교회'은/는 제주특별자치도 제주시 한경면 일주서로 3960-24 에 위치한 관광지로, 관광지에 속하며, 대분류: 인문(문화/예술/역사), 중분류: 역사관광지, 소분류: 종교성지입니다. 해당 관광지는 기준월(7.0) 동안 총 2494.0명의 방문자를 기록했습니다. 10월 한 달 동안 184.0명이 방문했습니다. 요일별 방문자수는 월요일 40.0명, 화요일 18.0명, 수요일 30.0명, 목요일 25.0명, 금요일 14.0명, 토요일 36.0명, 일요일 21.0명입니다.",33.3198062,126.1805485
술다끄는집,제주특별자치도 서귀포시 성읍정의현로56번길 5 ,서귀포시,문화시설,인문(문화/예술/역사),체험관광지,이색체험,299.0,7.0,33.0,4.0,7.0,6.0,3.0,6.0,3.0,4.0,"'술다끄는집'은/는 제주특별자치도 서귀포시 성읍정의현로56번길 5 에 위치한 관광지로, 문화시설에 속하며, 대분류: 인문(문화/예술/역사), 중분류: 체험관광지, 소분류: 이색체험입니다. 해당 관광지는 기준월(7.0) 동안 총 299.0명의 방문자를 기록했습니다. 10월 한 달 동안 33.0명이 방문했습니다. 요일별 방문자수는 월요일 4.0명, 화요일 7.0명, 수요일 6.0명, 목요일 3.0명, 금요일 6.0명, 토요일 3.0명, 일요일 4.0명입니다.",33.3877472029397,126.801516243792
스누피가든,제주특별자치도 제주시 구좌읍 금백조로 930 스누피 공원,제주시,관광지,인문(문화/예술/역사),휴양관광지,테마공원,4482.0,7.0,310.0,43.0,53.0,49.0,46.0,46.0,32.0,41.0,"'스누피가든'은/는 제주특별자치도 제주시 구좌읍 금백조로 930 스누피 공원에 위치한 관광지로, 관광지에 속하며, 대분류: 인문(문화/예술/역사), 중분류: 휴양관광지, 소분류: 테마공원입니다. 해당 관광지는 기준월(7.0) 동안 총 4482.0명의 방문자를 기록했습니다. 10월 한 달 동안 310.0명이 방문했습니다. 요일별 방문자수는 월요일 43.0명, 화요일 53.0명, 수요일 49.0명, 목요일 46.0명, 금요일 46.0명, 토요일 32.0명, 일요일 41.0명입니다.",33.4435555,126.7785412
신비의도로,제주특별자치도 제주시 노형동 ,제주시,관광지,인문(문화/예술/역사),체험관광지,이색체험,4799.0,7.0,335.0,53.0,45.0,50.0,52.0,28.0,56.0,51.0,"'신비의도로'은/는 제주특별자치도 제주시 노형동 에 위치한 관광지로, 관광지에 속하며, 대분류: 인문(문화/예술/역사), 중분류: 체험관광지, 소분류: 이색체험입니다. 해당 관광지는 기준월(7.0) 동안 총 4799.0명의 방문자를 기록했습니다. 10월 한 달 동안 335.0명이 방문했습니다. 요일별 방문자수는 월요일 53.0명, 화요일 45.0명, 수요일 50.0명, 목요일 52.0명, 금요일 28.0명, 토요일 56.0명, 일요일 51.0명입니다.",33.4511084,126.4872373
신산공원,제주특별자치도 제주시 신산로 92-12 (일도이동),제주시,관광지,인문(문화/예술/역사),휴양관광지,공원,1336.0,7.0,108.0,26.0,17.0,11.0,13.0,18.0,9.0,14.0,"'신산공원'은/는 제주특별자치도 제주시 신산로 92-12 (일도이동)에 위치한 관광지로, 관광지에 속하며, 대분류: 인문(문화/예술/역사), 중분류: 휴양관광지, 소분류: 공원입니다. 해당 관광지는 기준월(7.0) 동안 총 1336.0명의 방문자를 기록했습니다. 10월 한 달 동안 108.0명이 방문했습니다. 요일별 방문자수는 월요일 26.0명, 화요일 17.0명, 수요일 11.0명, 목요일 13.0명, 금요일 18.0명, 토요일 9.0명, 일요일 14.0명입니다.",33.505296,126.5336622
신천리벽화마을,제주특별자치도 서귀포시 성산읍 신천리 478-1,서귀포시,관광지,인문(문화/예술/역사),체험관광지,이색체험,757.0,7.0,47.0,8.0,9.0,6.0,7.0,4.0,5.0,8.0,"'신천리벽화마을'은/는 제주특별자치도 서귀포시 성산읍 신천리 478-1에 위치한 관광지로, 관광지에 속하며, 대분류: 인문(문화/예술/역사), 중분류: 체험관광지, 소분류: 이색체험입니다. 해당 관광지는 기준월(7.0) 동안 총 757.0명의 방문자를 기록했습니다. 10월 한 달 동안 47.0명이 방문했습니다. 요일별 방문자수는 월요일 8.0명, 화요일 9.0명, 수요일 6.0명, 목요일 7.0명, 금요일 4.0명, 토요일 5.0명, 일요일 8.0명입니다.",33.3443858510457,126.849580035623
신풍리밭담길,제주특별자치도 서귀포시 성산읍 신풍하동로 39 ,서귀포시,레포츠,인문(문화/예술/역사),체험관광지,이색거리,745.0,7.0,44.0,10.0,3.0,5.0,8.0,4.0,6.0,8.0,"'신풍리밭담길'은/는 제주특별자치도 서귀포시 성산읍 신풍하동로 39 에 위치한 관광지로, 레포츠에 속하며, 대분류: 인문(문화/예술/역사), 중분류: 체험관광지, 소분류: 이색거리입니다. 해당 관광지는 기준월(7.0) 동안 총 745.0명의 방문자를 기록했습니다. 10월 한 달 동안 44.0명이 방문했습니다. 요일별 방문자수는 월요일 10.0명, 화요일 3.0명, 수요일 5.0명, 목요일 8.0명, 금요일 4.0명, 토요일 6.0명, 일요일 8.0명입니다.",33.3618881876801,126.840548960409
신화워터파크,제주특별자치도 서귀포시 신화역사로304번길 38 ,서귀포시,관광지,인문(문화/예술/역사),산업관광지,기타,2330.0,7.0,367.0,55.0,49.0,36.0,46.0,60.0,70.0,51.0,"'신화워터파크'은/는 제주특별자치도 서귀포시 신화역사로304번길 38 에 위치한 관광지로, 관광지에 속하며, 대분류: 인문(문화/예술/역사), 중분류: 산업관광지, 소분류: 기타입니다. 해당 관광지는 기준월(7.0) 동안 총 2330.0명의 방문자를 기록했습니다. 10월 한 달 동안 367.0명이 방문했습니다. 요일별 방문자수는 월요일 55.0명, 화요일 49.0명, 수요일 36.0명, 목요일 46.0명, 금요일 60.0명, 토요일 70.0명, 일요일 51.0명입니다.",33.3071802,126.3174379
신화테마파크,제주특별자치도 서귀포시 안덕면 신화역사로304번길 98 ,서귀포시,관광지,인문(문화/예술/역사),산업관광지,기타,3802.0,7.0,311.0,67.0,47.0,32.0,47.0,43.0,38.0,37.0,"'신화테마파크'은/는 제주특별자치도 서귀포시 안덕면 신화역사로304번길 98 에 위치한 관광지로, 관광지에 속하며, 대분류: 인문(문화/예술/역사), 중분류: 산업관광지, 소분류: 기타입니다. 해당 관광지는 기준월(7.0) 동안 총 3802.0명의 방문자를 기록했습니다. 10월 한 달 동안 311.0명이 방문했습니다. 요일별 방문자수는 월요일 67.0명, 화요일 47.0명, 수요일 32.0명, 목요일 47.0명, 금요일 43.0명, 토요일 38.0명, 일요일 37.0명입니다.",33.3060039,126.3118145
씨오르리조트,제주특별자치도 서귀포시 이어도로 989 ,서귀포시,숙박,인문(문화/예술/역사),휴양관광지,관광단지,393.0,7.0,24.0,4.0,3.0,1.0,5.0,4.0,2.0,5.0,"'씨오르리조트'은/는 제주특별자치도 서귀포시 이어도로 989 에 위치한 관광지로, 숙박에 속하며, 대분류: 인문(문화/예술/역사), 중분류: 휴양관광지, 소분류: 관광단지입니다. 해당 관광지는 기준월(7.0) 동안 총 393.0명의 방문자를 기록했습니다. 10월 한 달 동안 24.0명이 방문했습니다. 요일별 방문자수는 월요일 4.0명, 화요일 3.0명, 수요일 1.0명, 목요일 5.0명, 금요일 4.0명, 토요일 2.0명, 일요일 5.0명입니다.",33.2423556,126.518405
아날로그감귤밭,제주특별자치도 제주시 해안마을8길 46 (해안동),제주시,관광지,인문(문화/예술/역사),체험관광지,농.산.어촌 체험,2457.0,7.0,176.0,39.0,25.0,18.0,20.0,28.0,24.0,22.0,"'아날로그감귤밭'은/는 제주특별자치도 제주시 해안마을8길 46 (해안동)에 위치한 관광지로, 관광지에 속하며, 대분류: 인문(문화/예술/역사), 중분류: 체험관광지, 소분류: 농.산.어촌 체험입니다. 해당 관광지는 기준월(7.0) 동안 총 2457.0명의 방문자를 기록했습니다. 10월 한 달 동안 176.0명이 방문했습니다. 요일별 방문자수는 월요일 39.0명, 화요일 25.0명, 수요일 18.0명, 목요일 20.0명, 금요일 28.0명, 토요일 24.0명, 일요일 22.0명입니다.",33.455681,126.4509292
아침미소목장,제주특별자치도 제주시 첨단동길 160-20 (월평동),제주시,관광지,인문(문화/예술/역사),산업관광지,기타,2825.0,7.0,246.0,45.0,33.0,25.0,28.0,42.0,22.0,51.0,"'아침미소목장'은/는 제주특별자치도 제주시 첨단동길 160-20 (월평동)에 위치한 관광지로, 관광지에 속하며, 대분류: 인문(문화/예술/역사), 중분류: 산업관광지, 소분류: 기타입니다. 해당 관광지는 기준월(7.0) 동안 총 2825.0명의 방문자를 기록했습니다. 10월 한 달 동안 246.0명이 방문했습니다. 요일별 방문자수는 월요일 45.0명, 화요일 33.0명, 수요일 25.0명, 목요일 28.0명, 금요일 42.0명, 토요일 22.0명, 일요일 51.0명입니다.",33.4544337,126.5864979
아쿠아플라넷제주,제주특별자치도 서귀포시 성산읍 섭지코지로 95 ,서귀포시,문화시설,인문(문화/예술/역사),휴양관광지,테마공원,14454.0,7.0,1022.0,186.0,147.0,104.0,127.0,131.0,149.0,178.0,"'아쿠아플라넷제주'은/는 제주특별자치도 서귀포시 성산읍 섭지코지로 95 에 위치한 관광지로, 문화시설에 속하며, 대분류: 인문(문화/예술/역사), 중분류: 휴양관광지, 소분류: 테마공원입니다. 해당 관광지는 기준월(7.0) 동안 총 14454.0명의 방문자를 기록했습니다. 10월 한 달 동안 1022.0명이 방문했습니다. 요일별 방문자수는 월요일 186.0명, 화요일 147.0명, 수요일 104.0명, 목요일 127.0명, 금요일 131.0명, 토요일 149.0명, 일요일 178.0명입니다.",33.4329768585971,126.927795526895
약천사,제주특별자치도 서귀포시 이어도로 293-28 (대포동),서귀포시,관광지,인문(문화/예술/역사),역사관광지,사찰,4177.0,7.0,283.0,45.0,43.0,42.0,38.0,31.0,43.0,41.0,"'약천사'은/는 제주특별자치도 서귀포시 이어도로 293-28 (대포동)에 위치한 관광지로, 관광지에 속하며, 대분류: 인문(문화/예술/역사), 중분류: 역사관광지, 소분류: 사찰입니다. 해당 관광지는 기준월(7.0) 동안 총 4177.0명의 방문자를 기록했습니다. 10월 한 달 동안 283.0명이 방문했습니다. 요일별 방문자수는 월요일 45.0명, 화요일 43.0명, 수요일 42.0명, 목요일 38.0명, 금요일 31.0명, 토요일 43.0명, 일요일 41.0명입니다.",33.2461046,126.4495188
어영공원,제주특별자치도 제주시 서해안로 451 (용담삼동) ,제주시,관광지,인문(문화/예술/역사),휴양관광지,공원,1250.0,7.0,119.0,19.0,15.0,17.0,13.0,15.0,22.0,18.0,"'어영공원'은/는 제주특별자치도 제주시 서해안로 451 (용담삼동) 에 위치한 관광지로, 관광지에 속하며, 대분류: 인문(문화/예술/역사), 중분류: 휴양관광지, 소분류: 공원입니다. 해당 관광지는 기준월(7.0) 동안 총 1250.0명의 방문자를 기록했습니다. 10월 한 달 동안 119.0명이 방문했습니다. 요일별 방문자수는 월요일 19.0명, 화요일 15.0명, 수요일 17.0명, 목요일 13.0명, 금요일 15.0명, 토요일 22.0명, 일요일 18.0명입니다.",33.5177971,126.4877926
에코그린리조트,제주특별자치도 제주시 한림읍 귀덕6길 94 ,제주시,관광지,인문(문화/예술/역사),휴양관광지,관광단지,405.0,7.0,31.0,6.0,2.0,4.0,6.0,3.0,6.0,4.0,"'에코그린리조트'은/는 제주특별자치도 제주시 한림읍 귀덕6길 94 에 위치한 관광지로, 관광지에 속하며, 대분류: 인문(문화/예술/역사), 중분류: 휴양관광지, 소분류: 관광단지입니다. 해당 관광지는 기준월(7.0) 동안 총 405.0명의 방문자를 기록했습니다. 10월 한 달 동안 31.0명이 방문했습니다. 요일별 방문자수는 월요일 6.0명, 화요일 2.0명, 수요일 4.0명, 목요일 6.0명, 금요일 3.0명, 토요일 6.0명, 일요일 4.0명입니다.",33.4357006,126.2915662
에코랜드테마파크,제주특별자치도 제주시 조천읍 번영로 1278-169 ,제주시,관광지,인문(문화/예술/역사),휴양관광지,테마공원,14927.0,7.0,876.0,179.0,127.0,105.0,134.0,102.0,98.0,131.0,"'에코랜드테마파크'은/는 제주특별자치도 제주시 조천읍 번영로 1278-169 에 위치한 관광지로, 관광지에 속하며, 대분류: 인문(문화/예술/역사), 중분류: 휴양관광지, 소분류: 테마공원입니다. 해당 관광지는 기준월(7.0) 동안 총 14927.0명의 방문자를 기록했습니다. 10월 한 달 동안 876.0명이 방문했습니다. 요일별 방문자수는 월요일 179.0명, 화요일 127.0명, 수요일 105.0명, 목요일 134.0명, 금요일 102.0명, 토요일 98.0명, 일요일 131.0명입니다.",33.4553485144602,126.668852765522
연북정,제주특별자치도 제주시 조천읍 조천리 ,제주시,관광지,인문(문화/예술/역사),역사관광지,유적지/사적지,927.0,7.0,68.0,13.0,14.0,16.0,6.0,7.0,4.0,8.0,"'연북정'은/는 제주특별자치도 제주시 조천읍 조천리 에 위치한 관광지로, 관광지에 속하며, 대분류: 인문(문화/예술/역사), 중분류: 역사관광지, 소분류: 유적지/사적지입니다. 해당 관광지는 기준월(7.0) 동안 총 927.0명의 방문자를 기록했습니다. 10월 한 달 동안 68.0명이 방문했습니다. 요일별 방문자수는 월요일 13.0명, 화요일 14.0명, 수요일 16.0명, 목요일 6.0명, 금요일 7.0명, 토요일 4.0명, 일요일 8.0명입니다.",33.5401964,126.6359829
예술공간이아,제주특별자치도 제주시 중앙로14길 21 ,제주시,문화시설,인문(문화/예술/역사),체험관광지,이색체험,571.0,7.0,87.0,8.0,11.0,11.0,8.0,37.0,7.0,5.0,"'예술공간이아'은/는 제주특별자치도 제주시 중앙로14길 21 에 위치한 관광지로, 문화시설에 속하며, 대분류: 인문(문화/예술/역사), 중분류: 체험관광지, 소분류: 이색체험입니다. 해당 관광지는 기준월(7.0) 동안 총 571.0명의 방문자를 기록했습니다. 10월 한 달 동안 87.0명이 방문했습니다. 요일별 방문자수는 월요일 8.0명, 화요일 11.0명, 수요일 11.0명, 목요일 8.0명, 금요일 37.0명, 토요일 7.0명, 일요일 5.0명입니다.",33.5110697247099,126.522361679677
오현단,제주특별자치도 제주시 오현길 61 (이도일동),제주시,관광지,인문(문화/예술/역사),역사관광지,유적지/사적지,836.0,7.0,59.0,5.0,5.0,9.0,8.0,8.0,10.0,14.0,"'오현단'은/는 제주특별자치도 제주시 오현길 61 (이도일동)에 위치한 관광지로, 관광지에 속하며, 대분류: 인문(문화/예술/역사), 중분류: 역사관광지, 소분류: 유적지/사적지입니다. 해당 관광지는 기준월(7.0) 동안 총 836.0명의 방문자를 기록했습니다. 10월 한 달 동안 59.0명이 방문했습니다. 요일별 방문자수는 월요일 5.0명, 화요일 5.0명, 수요일 9.0명, 목요일 8.0명, 금요일 8.0명, 토요일 10.0명, 일요일 14.0명입니다.",33.5104855,126.5257264
와이리조트제주,제주특별자치도 서귀포시 안덕면 화순중앙로124번길 75 ,서귀포시,숙박,인문(문화/예술/역사),휴양관광지,관광단지,428.0,7.0,37.0,9.0,4.0,2.0,5.0,2.0,7.0,8.0,"'와이리조트제주'은/는 제주특별자치도 서귀포시 안덕면 화순중앙로124번길 75 에 위치한 관광지로, 숙박에 속하며, 대분류: 인문(문화/예술/역사), 중분류: 휴양관광지, 소분류: 관광단지입니다. 해당 관광지는 기준월(7.0) 동안 총 428.0명의 방문자를 기록했습니다. 10월 한 달 동안 37.0명이 방문했습니다. 요일별 방문자수는 월요일 9.0명, 화요일 4.0명, 수요일 2.0명, 목요일 5.0명, 금요일 2.0명, 토요일 7.0명, 일요일 8.0명입니다.",33.2425688372377,126.327938185422
용담레포츠공원,제주특별자치도 제주시 서해안로 580 (용담삼동) ,제주시,관광지,인문(문화/예술/역사),휴양관광지,공원,1821.0,7.0,140.0,24.0,24.0,20.0,14.0,16.0,18.0,24.0,"'용담레포츠공원'은/는 제주특별자치도 제주시 서해안로 580 (용담삼동) 에 위치한 관광지로, 관광지에 속하며, 대분류: 인문(문화/예술/역사), 중분류: 휴양관광지, 소분류: 공원입니다. 해당 관광지는 기준월(7.0) 동안 총 1821.0명의 방문자를 기록했습니다. 10월 한 달 동안 140.0명이 방문했습니다. 요일별 방문자수는 월요일 24.0명, 화요일 24.0명, 수요일 20.0명, 목요일 14.0명, 금요일 16.0명, 토요일 18.0명, 일요일 24.0명입니다.",33.518341,126.4989767
우도잠수함,제주특별자치도 서귀포시 성산읍 성산등용로 112-7 ,서귀포시,관광지,인문(문화/예술/역사),휴양관광지,유람선/잠수함관광,3184.0,7.0,238.0,34.0,28.0,28.0,41.0,33.0,29.0,45.0,"'우도잠수함'은/는 제주특별자치도 서귀포시 성산읍 성산등용로 112-7 에 위치한 관광지로, 관광지에 속하며, 대분류: 인문(문화/예술/역사), 중분류: 휴양관광지, 소분류: 유람선/잠수함관광입니다. 해당 관광지는 기준월(7.0) 동안 총 3184.0명의 방문자를 기록했습니다. 10월 한 달 동안 238.0명이 방문했습니다. 요일별 방문자수는 월요일 34.0명, 화요일 28.0명, 수요일 28.0명, 목요일 41.0명, 금요일 33.0명, 토요일 29.0명, 일요일 45.0명입니다.",33.4719126653253,126.933104794189
이상한나라의앨리스,제주특별자치도 서귀포시 안덕면 중산간서로 1881 ,서귀포시,관광지,인문(문화/예술/역사),체험관광지,이색체험,2759.0,7.0,225.0,45.0,36.0,23.0,28.0,26.0,27.0,40.0,"'이상한나라의앨리스'은/는 제주특별자치도 서귀포시 안덕면 중산간서로 1881 에 위치한 관광지로, 관광지에 속하며, 대분류: 인문(문화/예술/역사), 중분류: 체험관광지, 소분류: 이색체험입니다. 해당 관광지는 기준월(7.0) 동안 총 2759.0명의 방문자를 기록했습니다. 10월 한 달 동안 225.0명이 방문했습니다. 요일별 방문자수는 월요일 45.0명, 화요일 36.0명, 수요일 23.0명, 목요일 28.0명, 금요일 26.0명, 토요일 27.0명, 일요일 40.0명입니다.",33.2889423633361,126.321784410657
이제주숍,제주특별자치도 제주시 연삼로 473 (이도이동),제주시,쇼핑,쇼핑,쇼핑,특산물판매점,851.0,7.0,45.0,12.0,9.0,4.0,7.0,5.0,4.0,4.0,"'이제주숍'은/는 제주특별자치도 제주시 연삼로 473 (이도이동)에 위치한 관광지로, 쇼핑에 속하며, 대분류: 쇼핑, 중분류: 쇼핑, 소분류: 특산물판매점입니다. 해당 관광지는 기준월(7.0) 동안 총 851.0명의 방문자를 기록했습니다. 10월 한 달 동안 45.0명이 방문했습니다. 요일별 방문자수는 월요일 12.0명, 화요일 9.0명, 수요일 4.0명, 목요일 7.0명, 금요일 5.0명, 토요일 4.0명, 일요일 4.0명입니다.",33.4994412,126.5403432
이중섭거주지,제주특별자치도 서귀포시 이중섭로 29 (서귀동),서귀포시,관광지,인문(문화/예술/역사),역사관광지,유적지/사적지,2522.0,7.0,185.0,30.0,26.0,31.0,17.0,35.0,18.0,28.0,"'이중섭거주지'은/는 제주특별자치도 서귀포시 이중섭로 29 (서귀동)에 위치한 관광지로, 관광지에 속하며, 대분류: 인문(문화/예술/역사), 중분류: 역사관광지, 소분류: 유적지/사적지입니다. 해당 관광지는 기준월(7.0) 동안 총 2522.0명의 방문자를 기록했습니다. 10월 한 달 동안 185.0명이 방문했습니다. 요일별 방문자수는 월요일 30.0명, 화요일 26.0명, 수요일 31.0명, 목요일 17.0명, 금요일 35.0명, 토요일 18.0명, 일요일 28.0명입니다.",33.2455473,126.5644088
일출랜드,제주특별자치도 서귀포시 성산읍 중산간동로 4150-30 ,서귀포시,관광지,인문(문화/예술/역사),휴양관광지,공원,4391.0,7.0,376.0,57.0,57.0,38.0,62.0,65.0,42.0,55.0,"'일출랜드'은/는 제주특별자치도 서귀포시 성산읍 중산간동로 4150-30 에 위치한 관광지로, 관광지에 속하며, 대분류: 인문(문화/예술/역사), 중분류: 휴양관광지, 소분류: 공원입니다. 해당 관광지는 기준월(7.0) 동안 총 4391.0명의 방문자를 기록했습니다. 10월 한 달 동안 376.0명이 방문했습니다. 요일별 방문자수는 월요일 57.0명, 화요일 57.0명, 수요일 38.0명, 목요일 62.0명, 금요일 65.0명, 토요일 42.0명, 일요일 55.0명입니다.",33.3831862,126.8418892
점보빌리지,제주특별자치도 서귀포시 안덕면 평화로319번길 31-11 (안덕면),서귀포시,관광지,인문(문화/예술/역사),문화시설,공연장,1541.0,7.0,120.0,28.0,15.0,13.0,15.0,18.0,8.0,23.0,"'점보빌리지'은/는 제주특별자치도 서귀포시 안덕면 평화로319번길 31-11 (안덕면)에 위치한 관광지로, 관광지에 속하며, 대분류: 인문(문화/예술/역사), 중분류: 문화시설, 소분류: 공연장입니다. 해당 관광지는 기준월(7.0) 동안 총 1541.0명의 방문자를 기록했습니다. 10월 한 달 동안 120.0명이 방문했습니다. 요일별 방문자수는 월요일 28.0명, 화요일 15.0명, 수요일 13.0명, 목요일 15.0명, 금요일 18.0명, 토요일 8.0명, 일요일 23.0명입니다.",33.27601,126.3050559
정의향교,제주특별자치도 서귀포시 표선면 성읍서문로 14 ,서귀포시,관광지,인문(문화/예술/역사),역사관광지,유적지/사적지,562.0,7.0,27.0,3.0,5.0,4.0,4.0,2.0,5.0,4.0,"'정의향교'은/는 제주특별자치도 서귀포시 표선면 성읍서문로 14 에 위치한 관광지로, 관광지에 속하며, 대분류: 인문(문화/예술/역사), 중분류: 역사관광지, 소분류: 유적지/사적지입니다. 해당 관광지는 기준월(7.0) 동안 총 562.0명의 방문자를 기록했습니다. 10월 한 달 동안 27.0명이 방문했습니다. 요일별 방문자수는 월요일 3.0명, 화요일 5.0명, 수요일 4.0명, 목요일 4.0명, 금요일 2.0명, 토요일 5.0명, 일요일 4.0명입니다.",33.3869287,126.799942
제스토리,제주특별자치도 서귀포시 막숙포로 60 ,서귀포시,쇼핑,쇼핑,쇼핑,특산물판매점,453.0,7.0,24.0,4.0,3.0,6.0,5.0,2.0,2.0,2.0,"'제스토리'은/는 제주특별자치도 서귀포시 막숙포로 60 에 위치한 관광지로, 쇼핑에 속하며, 대분류: 쇼핑, 중분류: 쇼핑, 소분류: 특산물판매점입니다. 해당 관광지는 기준월(7.0) 동안 총 453.0명의 방문자를 기록했습니다. 10월 한 달 동안 24.0명이 방문했습니다. 요일별 방문자수는 월요일 4.0명, 화요일 3.0명, 수요일 6.0명, 목요일 5.0명, 금요일 2.0명, 토요일 2.0명, 일요일 2.0명입니다.",33.2360926,126.5149193
제일토산품,제주특별자치도 제주시 관덕로 24 ,제주시,쇼핑,쇼핑,쇼핑,특산물판매점,490.0,7.0,32.0,2.0,9.0,4.0,5.0,4.0,4.0,4.0,"'제일토산품'은/는 제주특별자치도 제주시 관덕로 24 에 위치한 관광지로, 쇼핑에 속하며, 대분류: 쇼핑, 중분류: 쇼핑, 소분류: 특산물판매점입니다. 해당 관광지는 기준월(7.0) 동안 총 490.0명의 방문자를 기록했습니다. 10월 한 달 동안 32.0명이 방문했습니다. 요일별 방문자수는 월요일 2.0명, 화요일 9.0명, 수요일 4.0명, 목요일 5.0명, 금요일 4.0명, 토요일 4.0명, 일요일 4.0명입니다.",33.5129597,126.5216976
제주삼양동유적,제주특별자치도 제주시 선사로2길 13 ,제주시,관광지,인문(문화/예술/역사),역사관광지,유적지/사적지,1196.0,7.0,72.0,18.0,3.0,9.0,11.0,14.0,8.0,9.0,"'제주삼양동유적'은/는 제주특별자치도 제주시 선사로2길 13 에 위치한 관광지로, 관광지에 속하며, 대분류: 인문(문화/예술/역사), 중분류: 역사관광지, 소분류: 유적지/사적지입니다. 해당 관광지는 기준월(7.0) 동안 총 1196.0명의 방문자를 기록했습니다. 10월 한 달 동안 72.0명이 방문했습니다. 요일별 방문자수는 월요일 18.0명, 화요일 3.0명, 수요일 9.0명, 목요일 11.0명, 금요일 14.0명, 토요일 8.0명, 일요일 9.0명입니다.",33.5235045849897,126.587999545909
제주센트럴파크,제주특별자치도 제주시 조천읍 비자림로 606 ,제주시,관광지,인문(문화/예술/역사),휴양관광지,테마공원,2173.0,7.0,148.0,33.0,10.0,23.0,22.0,22.0,19.0,19.0,"'제주센트럴파크'은/는 제주특별자치도 제주시 조천읍 비자림로 606 에 위치한 관광지로, 관광지에 속하며, 대분류: 인문(문화/예술/역사), 중분류: 휴양관광지, 소분류: 테마공원입니다. 해당 관광지는 기준월(7.0) 동안 총 2173.0명의 방문자를 기록했습니다. 10월 한 달 동안 148.0명이 방문했습니다. 요일별 방문자수는 월요일 33.0명, 화요일 10.0명, 수요일 23.0명, 목요일 22.0명, 금요일 22.0명, 토요일 19.0명, 일요일 19.0명입니다.",33.4334415,126.6743965
제주유리의성,제주특별자치도 제주시 한경면 녹차분재로 462 ,제주시,관광지,인문(문화/예술/역사),휴양관광지,테마공원,4234.0,7.0,394.0,68.0,54.0,49.0,57.0,51.0,50.0,65.0,"'제주유리의성'은/는 제주특별자치도 제주시 한경면 녹차분재로 462 에 위치한 관광지로, 관광지에 속하며, 대분류: 인문(문화/예술/역사), 중분류: 휴양관광지, 소분류: 테마공원입니다. 해당 관광지는 기준월(7.0) 동안 총 4234.0명의 방문자를 기록했습니다. 10월 한 달 동안 394.0명이 방문했습니다. 요일별 방문자수는 월요일 68.0명, 화요일 54.0명, 수요일 49.0명, 목요일 57.0명, 금요일 51.0명, 토요일 50.0명, 일요일 65.0명입니다.",33.314546,126.2739234
제주공룡랜드,제주특별자치도 제주시 애월읍 광령평화2길 1 ,제주시,관광지,인문(문화/예술/역사),휴양관광지,테마공원,2609.0,7.0,254.0,44.0,33.0,27.0,40.0,43.0,31.0,36.0,"'제주공룡랜드'은/는 제주특별자치도 제주시 애월읍 광령평화2길 1 에 위치한 관광지로, 관광지에 속하며, 대분류: 인문(문화/예술/역사), 중분류: 휴양관광지, 소분류: 테마공원입니다. 해당 관광지는 기준월(7.0) 동안 총 2609.0명의 방문자를 기록했습니다. 10월 한 달 동안 254.0명이 방문했습니다. 요일별 방문자수는 월요일 44.0명, 화요일 33.0명, 수요일 27.0명, 목요일 40.0명, 금요일 43.0명, 토요일 31.0명, 일요일 36.0명입니다.",33.4427760245733,126.432360687436
제주러브랜드,제주특별자치도 제주시 1100로 2894-72 (연동),제주시,관광지,인문(문화/예술/역사),휴양관광지,테마공원,4360.0,7.0,608.0,116.0,85.0,80.0,61.0,79.0,52.0,135.0,"'제주러브랜드'은/는 제주특별자치도 제주시 1100로 2894-72 (연동)에 위치한 관광지로, 관광지에 속하며, 대분류: 인문(문화/예술/역사), 중분류: 휴양관광지, 소분류: 테마공원입니다. 해당 관광지는 기준월(7.0) 동안 총 4360.0명의 방문자를 기록했습니다. 10월 한 달 동안 608.0명이 방문했습니다. 요일별 방문자수는 월요일 116.0명, 화요일 85.0명, 수요일 80.0명, 목요일 61.0명, 금요일 79.0명, 토요일 52.0명, 일요일 135.0명입니다.",33.4517135,126.4901715
제주목관아,제주특별자치도 제주시 관덕로 25 (삼도이동),제주시,관광지,인문(문화/예술/역사),역사관광지,고궁,2575.0,7.0,220.0,41.0,44.0,40.0,23.0,27.0,25.0,20.0,"'제주목관아'은/는 제주특별자치도 제주시 관덕로 25 (삼도이동)에 위치한 관광지로, 관광지에 속하며, 대분류: 인문(문화/예술/역사), 중분류: 역사관광지, 소분류: 고궁입니다. 해당 관광지는 기준월(7.0) 동안 총 2575.0명의 방문자를 기록했습니다. 10월 한 달 동안 220.0명이 방문했습니다. 요일별 방문자수는 월요일 41.0명, 화요일 44.0명, 수요일 40.0명, 목요일 23.0명, 금요일 27.0명, 토요일 25.0명, 일요일 20.0명입니다.",33.5138664,126.5217134
제주민속촌,제주특별자치도 서귀포시 표선면 민속해안로 631-34 ,서귀포시,문화시설,인문(문화/예술/역사),역사관광지,민속마을,4966.0,7.0,341.0,60.0,52.0,43.0,42.0,46.0,35.0,63.0,"'제주민속촌'은/는 제주특별자치도 서귀포시 표선면 민속해안로 631-34 에 위치한 관광지로, 문화시설에 속하며, 대분류: 인문(문화/예술/역사), 중분류: 역사관광지, 소분류: 민속마을입니다. 해당 관광지는 기준월(7.0) 동안 총 4966.0명의 방문자를 기록했습니다. 10월 한 달 동안 341.0명이 방문했습니다. 요일별 방문자수는 월요일 60.0명, 화요일 52.0명, 수요일 43.0명, 목요일 42.0명, 금요일 46.0명, 토요일 35.0명, 일요일 63.0명입니다.",33.3225098,126.8418176
제주바다체험장,제주특별자치도 제주시 구좌읍 일주동로 1777 ,제주시,관광지,인문(문화/예술/역사),체험관광지,농.산.어촌 체험,1227.0,7.0,149.0,20.0,19.0,28.0,19.0,26.0,16.0,21.0,"'제주바다체험장'은/는 제주특별자치도 제주시 구좌읍 일주동로 1777 에 위치한 관광지로, 관광지에 속하며, 대분류: 인문(문화/예술/역사), 중분류: 체험관광지, 소분류: 농.산.어촌 체험입니다. 해당 관광지는 기준월(7.0) 동안 총 1227.0명의 방문자를 기록했습니다. 10월 한 달 동안 149.0명이 방문했습니다. 요일별 방문자수는 월요일 20.0명, 화요일 19.0명, 수요일 28.0명, 목요일 19.0명, 금요일 26.0명, 토요일 16.0명, 일요일 21.0명입니다.",33.5546738,126.7218438
제주별빛누리공원,제주특별자치도 제주시 선돌목동길 60 (오등동) ,제주시,관광지,인문(문화/예술/역사),휴양관광지,공원,1639.0,7.0,146.0,32.0,19.0,23.0,17.0,17.0,16.0,22.0,"'제주별빛누리공원'은/는 제주특별자치도 제주시 선돌목동길 60 (오등동) 에 위치한 관광지로, 관광지에 속하며, 대분류: 인문(문화/예술/역사), 중분류: 휴양관광지, 소분류: 공원입니다. 해당 관광지는 기준월(7.0) 동안 총 1639.0명의 방문자를 기록했습니다. 10월 한 달 동안 146.0명이 방문했습니다. 요일별 방문자수는 월요일 32.0명, 화요일 19.0명, 수요일 23.0명, 목요일 17.0명, 금요일 17.0명, 토요일 16.0명, 일요일 22.0명입니다.",33.4451439,126.5492347
제주성지,제주특별자치도 제주시 오현길 61 (이도일동),제주시,관광지,인문(문화/예술/역사),역사관광지,성,603.0,7.0,55.0,10.0,6.0,10.0,9.0,7.0,7.0,6.0,"'제주성지'은/는 제주특별자치도 제주시 오현길 61 (이도일동)에 위치한 관광지로, 관광지에 속하며, 대분류: 인문(문화/예술/역사), 중분류: 역사관광지, 소분류: 성입니다. 해당 관광지는 기준월(7.0) 동안 총 603.0명의 방문자를 기록했습니다. 10월 한 달 동안 55.0명이 방문했습니다. 요일별 방문자수는 월요일 10.0명, 화요일 6.0명, 수요일 10.0명, 목요일 9.0명, 금요일 7.0명, 토요일 7.0명, 일요일 6.0명입니다.",33.5104855,126.5257264
제주아이브리조트,제주특별자치도 서귀포시 산록남로 1966-34 (영남동),서귀포시,관광지,인문(문화/예술/역사),휴양관광지,관광단지,709.0,7.0,42.0,10.0,8.0,6.0,5.0,4.0,4.0,5.0,"'제주아이브리조트'은/는 제주특별자치도 서귀포시 산록남로 1966-34 (영남동)에 위치한 관광지로, 관광지에 속하며, 대분류: 인문(문화/예술/역사), 중분류: 휴양관광지, 소분류: 관광단지입니다. 해당 관광지는 기준월(7.0) 동안 총 709.0명의 방문자를 기록했습니다. 10월 한 달 동안 42.0명이 방문했습니다. 요일별 방문자수는 월요일 10.0명, 화요일 8.0명, 수요일 6.0명, 목요일 5.0명, 금요일 4.0명, 토요일 4.0명, 일요일 5.0명입니다.",33.288409,126.4968764
제주안전체험관,제주특별자치도 제주시 애월읍 평화로 1885 ,제주시,관광지,인문(문화/예술/역사),체험관광지,이색체험,2271.0,7.0,276.0,43.0,59.0,42.0,47.0,33.0,18.0,34.0,"'제주안전체험관'은/는 제주특별자치도 제주시 애월읍 평화로 1885 에 위치한 관광지로, 관광지에 속하며, 대분류: 인문(문화/예술/역사), 중분류: 체험관광지, 소분류: 이색체험입니다. 해당 관광지는 기준월(7.0) 동안 총 2271.0명의 방문자를 기록했습니다. 10월 한 달 동안 276.0명이 방문했습니다. 요일별 방문자수는 월요일 43.0명, 화요일 59.0명, 수요일 42.0명, 목요일 47.0명, 금요일 33.0명, 토요일 18.0명, 일요일 34.0명입니다.",33.3942008,126.3737312
제주양떼목장,제주특별자치도 제주시 애월읍 도치돌길 289-13 ,제주시,관광지,인문(문화/예술/역사),체험관광지,농.산.어촌 체험,1043.0,7.0,63.0,9.0,11.0,9.0,10.0,9.0,10.0,5.0,"'제주양떼목장'은/는 제주특별자치도 제주시 애월읍 도치돌길 289-13 에 위치한 관광지로, 관광지에 속하며, 대분류: 인문(문화/예술/역사), 중분류: 체험관광지, 소분류: 농.산.어촌 체험입니다. 해당 관광지는 기준월(7.0) 동안 총 1043.0명의 방문자를 기록했습니다. 10월 한 달 동안 63.0명이 방문했습니다. 요일별 방문자수는 월요일 9.0명, 화요일 11.0명, 수요일 9.0명, 목요일 10.0명, 금요일 9.0명, 토요일 10.0명, 일요일 5.0명입니다.",33.4109424,126.3653661
제주제트,제주특별자치도 서귀포시 대포로 172-5 (대포동),서귀포시,레포츠,레포츠,레포츠소개,수상레포츠,1213.0,7.0,130.0,23.0,23.0,18.0,16.0,17.0,16.0,17.0,"'제주제트'은/는 제주특별자치도 서귀포시 대포로 172-5 (대포동)에 위치한 관광지로, 레포츠에 속하며, 대분류: 레포츠, 중분류: 레포츠소개, 소분류: 수상레포츠입니다. 해당 관광지는 기준월(7.0) 동안 총 1213.0명의 방문자를 기록했습니다. 10월 한 달 동안 130.0명이 방문했습니다. 요일별 방문자수는 월요일 23.0명, 화요일 23.0명, 수요일 18.0명, 목요일 16.0명, 금요일 17.0명, 토요일 16.0명, 일요일 17.0명입니다.",33.2384891,126.4394879
제주향교,제주특별자치도 제주시 서문로 43 (용담일동),제주시,관광지,인문(문화/예술/역사),역사관광지,유적지/사적지,773.0,7.0,61.0,17.0,11.0,10.0,6.0,8.0,2.0,7.0,"'제주향교'은/는 제주특별자치도 제주시 서문로 43 (용담일동)에 위치한 관광지로, 관광지에 속하며, 대분류: 인문(문화/예술/역사), 중분류: 역사관광지, 소분류: 유적지/사적지입니다. 해당 관광지는 기준월(7.0) 동안 총 773.0명의 방문자를 기록했습니다. 10월 한 달 동안 61.0명이 방문했습니다. 요일별 방문자수는 월요일 17.0명, 화요일 11.0명, 수요일 10.0명, 목요일 6.0명, 금요일 8.0명, 토요일 2.0명, 일요일 7.0명입니다.",33.5111677,126.5159523
제주허브동산,제주특별자치도 서귀포시 표선면 돈오름로 170 ,서귀포시,관광지,인문(문화/예술/역사),산업관광지,기타,3429.0,7.0,181.0,34.0,19.0,26.0,26.0,30.0,22.0,24.0,"'제주허브동산'은/는 제주특별자치도 서귀포시 표선면 돈오름로 170 에 위치한 관광지로, 관광지에 속하며, 대분류: 인문(문화/예술/역사), 중분류: 산업관광지, 소분류: 기타입니다. 해당 관광지는 기준월(7.0) 동안 총 3429.0명의 방문자를 기록했습니다. 10월 한 달 동안 181.0명이 방문했습니다. 요일별 방문자수는 월요일 34.0명, 화요일 19.0명, 수요일 26.0명, 목요일 26.0명, 금요일 30.0명, 토요일 22.0명, 일요일 24.0명입니다.",33.330435,126.8154056
제주힐링명상센터,제주특별자치도 제주시 애월읍 어음13길 196 ,제주시,관광지,인문(문화/예술/역사),체험관광지,이색체험,2763.0,7.0,205.0,42.0,30.0,21.0,29.0,27.0,33.0,23.0,"'제주힐링명상센터'은/는 제주특별자치도 제주시 애월읍 어음13길 196 에 위치한 관광지로, 관광지에 속하며, 대분류: 인문(문화/예술/역사), 중분류: 체험관광지, 소분류: 이색체험입니다. 해당 관광지는 기준월(7.0) 동안 총 2763.0명의 방문자를 기록했습니다. 10월 한 달 동안 205.0명이 방문했습니다. 요일별 방문자수는 월요일 42.0명, 화요일 30.0명, 수요일 21.0명, 목요일 29.0명, 금요일 27.0명, 토요일 33.0명, 일요일 23.0명입니다.",33.3955297,126.3610931
조랑말체험공원,제주특별자치도 서귀포시 표선면 녹산로 381-15 ,서귀포시,관광지,인문(문화/예술/역사),체험관광지,이색체험,1821.0,7.0,109.0,21.0,11.0,10.0,25.0,11.0,8.0,23.0,"'조랑말체험공원'은/는 제주특별자치도 서귀포시 표선면 녹산로 381-15 에 위치한 관광지로, 관광지에 속하며, 대분류: 인문(문화/예술/역사), 중분류: 체험관광지, 소분류: 이색체험입니다. 해당 관광지는 기준월(7.0) 동안 총 1821.0명의 방문자를 기록했습니다. 10월 한 달 동안 109.0명이 방문했습니다. 요일별 방문자수는 월요일 21.0명, 화요일 11.0명, 수요일 10.0명, 목요일 25.0명, 금요일 11.0명, 토요일 8.0명, 일요일 23.0명입니다.",33.3831928,126.7359802
조천만세동산,제주특별자치도 제주시 조천읍 조천리 1142-1,제주시,관광지,인문(문화/예술/역사),역사관광지,유적지/사적지,1237.0,7.0,50.0,14.0,8.0,11.0,7.0,3.0,4.0,3.0,"'조천만세동산'은/는 제주특별자치도 제주시 조천읍 조천리 1142-1에 위치한 관광지로, 관광지에 속하며, 대분류: 인문(문화/예술/역사), 중분류: 역사관광지, 소분류: 유적지/사적지입니다. 해당 관광지는 기준월(7.0) 동안 총 1237.0명의 방문자를 기록했습니다. 10월 한 달 동안 50.0명이 방문했습니다. 요일별 방문자수는 월요일 14.0명, 화요일 8.0명, 수요일 11.0명, 목요일 7.0명, 금요일 3.0명, 토요일 4.0명, 일요일 3.0명입니다.",33.5399846,126.6416165
중문관광단지,제주특별자치도 서귀포시 중문관광로 38 (중문관광단지안내소),서귀포시,관광지,인문(문화/예술/역사),휴양관광지,관광단지,7359.0,7.0,541.0,98.0,65.0,74.0,84.0,92.0,59.0,69.0,"'중문관광단지'은/는 제주특별자치도 서귀포시 중문관광로 38 (중문관광단지안내소)에 위치한 관광지로, 관광지에 속하며, 대분류: 인문(문화/예술/역사), 중분류: 휴양관광지, 소분류: 관광단지입니다. 해당 관광지는 기준월(7.0) 동안 총 7359.0명의 방문자를 기록했습니다. 10월 한 달 동안 541.0명이 방문했습니다. 요일별 방문자수는 월요일 98.0명, 화요일 65.0명, 수요일 74.0명, 목요일 84.0명, 금요일 92.0명, 토요일 59.0명, 일요일 69.0명입니다.",33.2482702,126.4104128
중문미로파크,제주특별자치도 서귀포시 상예동 3592-5 ,서귀포시,관광지,인문(문화/예술/역사),휴양관광지,테마공원,2467.0,7.0,164.0,21.0,26.0,14.0,20.0,26.0,26.0,31.0,"'중문미로파크'은/는 제주특별자치도 서귀포시 상예동 3592-5 에 위치한 관광지로, 관광지에 속하며, 대분류: 인문(문화/예술/역사), 중분류: 휴양관광지, 소분류: 테마공원입니다. 해당 관광지는 기준월(7.0) 동안 총 2467.0명의 방문자를 기록했습니다. 10월 한 달 동안 164.0명이 방문했습니다. 요일별 방문자수는 월요일 21.0명, 화요일 26.0명, 수요일 14.0명, 목요일 20.0명, 금요일 26.0명, 토요일 26.0명, 일요일 31.0명입니다.",33.2635326,126.3818174
차귀도유람선,제주특별자치도 제주시 한경면 노을해안로 1160 ,제주시,관광지,인문(문화/예술/역사),휴양관광지,유람선/잠수함관광,2279.0,7.0,167.0,27.0,20.0,20.0,23.0,15.0,38.0,24.0,"'차귀도유람선'은/는 제주특별자치도 제주시 한경면 노을해안로 1160 에 위치한 관광지로, 관광지에 속하며, 대분류: 인문(문화/예술/역사), 중분류: 휴양관광지, 소분류: 유람선/잠수함관광입니다. 해당 관광지는 기준월(7.0) 동안 총 2279.0명의 방문자를 기록했습니다. 10월 한 달 동안 167.0명이 방문했습니다. 요일별 방문자수는 월요일 27.0명, 화요일 20.0명, 수요일 20.0명, 목요일 23.0명, 금요일 15.0명, 토요일 38.0명, 일요일 24.0명입니다.",33.3089439,126.1655204
천왕사,제주특별자치도 제주시 1100로 2528-111 (노형동) ,제주시,관광지,인문(문화/예술/역사),역사관광지,사찰,2561.0,7.0,146.0,27.0,27.0,14.0,18.0,24.0,14.0,22.0,"'천왕사'은/는 제주특별자치도 제주시 1100로 2528-111 (노형동) 에 위치한 관광지로, 관광지에 속하며, 대분류: 인문(문화/예술/역사), 중분류: 역사관광지, 소분류: 사찰입니다. 해당 관광지는 기준월(7.0) 동안 총 2561.0명의 방문자를 기록했습니다. 10월 한 달 동안 146.0명이 방문했습니다. 요일별 방문자수는 월요일 27.0명, 화요일 27.0명, 수요일 14.0명, 목요일 18.0명, 금요일 24.0명, 토요일 14.0명, 일요일 22.0명입니다.",33.4087029,126.4944197
캔디원,제주특별자치도 제주시 조천읍 선교로 384 ,제주시,관광지,인문(문화/예술/역사),체험관광지,이색체험,1066.0,7.0,92.0,13.0,11.0,12.0,14.0,12.0,20.0,10.0,"'캔디원'은/는 제주특별자치도 제주시 조천읍 선교로 384 에 위치한 관광지로, 관광지에 속하며, 대분류: 인문(문화/예술/역사), 중분류: 체험관광지, 소분류: 이색체험입니다. 해당 관광지는 기준월(7.0) 동안 총 1066.0명의 방문자를 기록했습니다. 10월 한 달 동안 92.0명이 방문했습니다. 요일별 방문자수는 월요일 13.0명, 화요일 11.0명, 수요일 12.0명, 목요일 14.0명, 금요일 12.0명, 토요일 20.0명, 일요일 10.0명입니다.",33.4712877,126.707937
켄싱턴리조트서귀포,제주특별자치도 서귀포시 이어도로 684 ,서귀포시,숙박,인문(문화/예술/역사),휴양관광지,관광단지,431.0,7.0,39.0,5.0,6.0,7.0,5.0,9.0,5.0,2.0,"'켄싱턴리조트서귀포'은/는 제주특별자치도 서귀포시 이어도로 684 에 위치한 관광지로, 숙박에 속하며, 대분류: 인문(문화/예술/역사), 중분류: 휴양관광지, 소분류: 관광단지입니다. 해당 관광지는 기준월(7.0) 동안 총 431.0명의 방문자를 기록했습니다. 10월 한 달 동안 39.0명이 방문했습니다. 요일별 방문자수는 월요일 5.0명, 화요일 6.0명, 수요일 7.0명, 목요일 5.0명, 금요일 9.0명, 토요일 5.0명, 일요일 2.0명입니다.",33.2336794657051,126.489040381289
코델리아리조트,제주특별자치도 서귀포시 성산읍 일주동로4120번길 23-20 ,서귀포시,관광지,인문(문화/예술/역사),휴양관광지,관광단지,383.0,7.0,25.0,3.0,3.0,5.0,4.0,4.0,3.0,3.0,"'코델리아리조트'은/는 제주특별자치도 서귀포시 성산읍 일주동로4120번길 23-20 에 위치한 관광지로, 관광지에 속하며, 대분류: 인문(문화/예술/역사), 중분류: 휴양관광지, 소분류: 관광단지입니다. 해당 관광지는 기준월(7.0) 동안 총 383.0명의 방문자를 기록했습니다. 10월 한 달 동안 25.0명이 방문했습니다. 요일별 방문자수는 월요일 3.0명, 화요일 3.0명, 수요일 5.0명, 목요일 4.0명, 금요일 4.0명, 토요일 3.0명, 일요일 3.0명입니다.",33.4591059,126.9102124
토이파크,제주특별자치도 서귀포시 안덕면 동광로 267-7 ,서귀포시,관광지,인문(문화/예술/역사),문화시설,박물관,1141.0,7.0,103.0,16.0,12.0,11.0,12.0,15.0,23.0,14.0,"'토이파크'은/는 제주특별자치도 서귀포시 안덕면 동광로 267-7 에 위치한 관광지로, 관광지에 속하며, 대분류: 인문(문화/예술/역사), 중분류: 문화시설, 소분류: 박물관입니다. 해당 관광지는 기준월(7.0) 동안 총 1141.0명의 방문자를 기록했습니다. 10월 한 달 동안 103.0명이 방문했습니다. 요일별 방문자수는 월요일 16.0명, 화요일 12.0명, 수요일 11.0명, 목요일 12.0명, 금요일 15.0명, 토요일 23.0명, 일요일 14.0명입니다.",33.3189962,126.3456767
팜밸리리조트,제주특별자치도 서귀포시 중산간서로 193 (강정동),서귀포시,숙박,인문(문화/예술/역사),휴양관광지,관광단지,204.0,7.0,9.0,2.0,1.0,2.0,3.0,1.0,0.0,0.0,"'팜밸리리조트'은/는 제주특별자치도 서귀포시 중산간서로 193 (강정동)에 위치한 관광지로, 숙박에 속하며, 대분류: 인문(문화/예술/역사), 중분류: 휴양관광지, 소분류: 관광단지입니다. 해당 관광지는 기준월(7.0) 동안 총 204.0명의 방문자를 기록했습니다. 10월 한 달 동안 9.0명이 방문했습니다. 요일별 방문자수는 월요일 2.0명, 화요일 1.0명, 수요일 2.0명, 목요일 3.0명, 금요일 1.0명, 토요일 0.0명, 일요일 0.0명입니다.",33.2593043,126.4907423
팰롱팰롱빛나는,제주특별자치도 제주시 애월읍 애월해안로 474 ,제주시,쇼핑,쇼핑,쇼핑,특산물판매점,463.0,7.0,31.0,8.0,7.0,7.0,5.0,4.0,0.0,0.0,"'팰롱팰롱빛나는'은/는 제주특별자치도 제주시 애월읍 애월해안로 474 에 위치한 관광지로, 쇼핑에 속하며, 대분류: 쇼핑, 중분류: 쇼핑, 소분류: 특산물판매점입니다. 해당 관광지는 기준월(7.0) 동안 총 463.0명의 방문자를 기록했습니다. 10월 한 달 동안 31.0명이 방문했습니다. 요일별 방문자수는 월요일 8.0명, 화요일 7.0명, 수요일 7.0명, 목요일 5.0명, 금요일 4.0명, 토요일 0.0명, 일요일 0.0명입니다.",33.4776302724644,126.35499636246
평화통일불사리탑,제주특별자치도 제주시 조천읍 일주동로 884 (조천읍),제주시,관광지,인문(문화/예술/역사),역사관광지,사찰,1216.0,7.0,91.0,16.0,16.0,10.0,10.0,11.0,12.0,16.0,"'평화통일불사리탑'은/는 제주특별자치도 제주시 조천읍 일주동로 884 (조천읍)에 위치한 관광지로, 관광지에 속하며, 대분류: 인문(문화/예술/역사), 중분류: 역사관광지, 소분류: 사찰입니다. 해당 관광지는 기준월(7.0) 동안 총 1216.0명의 방문자를 기록했습니다. 10월 한 달 동안 91.0명이 방문했습니다. 요일별 방문자수는 월요일 16.0명, 화요일 16.0명, 수요일 10.0명, 목요일 10.0명, 금요일 11.0명, 토요일 12.0명, 일요일 16.0명입니다.",33.5315101305087,126.636877767573
포레스트사파리,제주특별자치도 제주시 조천읍 선교로 474-1 ,제주시,관광지,인문(문화/예술/역사),휴양관광지,테마공원,972.0,7.0,69.0,11.0,11.0,6.0,4.0,13.0,11.0,13.0,"'포레스트사파리'은/는 제주특별자치도 제주시 조천읍 선교로 474-1 에 위치한 관광지로, 관광지에 속하며, 대분류: 인문(문화/예술/역사), 중분류: 휴양관광지, 소분류: 테마공원입니다. 해당 관광지는 기준월(7.0) 동안 총 972.0명의 방문자를 기록했습니다. 10월 한 달 동안 69.0명이 방문했습니다. 요일별 방문자수는 월요일 11.0명, 화요일 11.0명, 수요일 6.0명, 목요일 4.0명, 금요일 13.0명, 토요일 11.0명, 일요일 13.0명입니다.",33.4630534715677,126.709537397906
하멜기념비,제주특별자치도 서귀포시 안덕면 사계리 112-3 ,서귀포시,관광지,인문(문화/예술/역사),건축/조형물,기념탑/기념비/전망대,1119.0,7.0,80.0,16.0,15.0,16.0,8.0,6.0,10.0,9.0,"'하멜기념비'은/는 제주특별자치도 서귀포시 안덕면 사계리 112-3 에 위치한 관광지로, 관광지에 속하며, 대분류: 인문(문화/예술/역사), 중분류: 건축/조형물, 소분류: 기념탑/기념비/전망대입니다. 해당 관광지는 기준월(7.0) 동안 총 1119.0명의 방문자를 기록했습니다. 10월 한 달 동안 80.0명이 방문했습니다. 요일별 방문자수는 월요일 16.0명, 화요일 15.0명, 수요일 16.0명, 목요일 8.0명, 금요일 6.0명, 토요일 10.0명, 일요일 9.0명입니다.",33.2334813,126.3146307
한림공원,제주특별자치도 제주시 한림읍 한림로 300 ,제주시,관광지,인문(문화/예술/역사),휴양관광지,공원,8246.0,7.0,571.0,104.0,76.0,70.0,80.0,92.0,76.0,73.0,"'한림공원'은/는 제주특별자치도 제주시 한림읍 한림로 300 에 위치한 관광지로, 관광지에 속하며, 대분류: 인문(문화/예술/역사), 중분류: 휴양관광지, 소분류: 공원입니다. 해당 관광지는 기준월(7.0) 동안 총 8246.0명의 방문자를 기록했습니다. 10월 한 달 동안 571.0명이 방문했습니다. 요일별 방문자수는 월요일 104.0명, 화요일 76.0명, 수요일 70.0명, 목요일 80.0명, 금요일 92.0명, 토요일 76.0명, 일요일 73.0명입니다.",33.3883099,126.2394248
한화리조트제주,제주특별자치도 제주시 명림로 575-107 ,제주시,숙박,인문(문화/예술/역사),휴양관광지,관광단지,1786.0,7.0,87.0,18.0,14.0,11.0,8.0,15.0,11.0,10.0,"'한화리조트제주'은/는 제주특별자치도 제주시 명림로 575-107 에 위치한 관광지로, 숙박에 속하며, 대분류: 인문(문화/예술/역사), 중분류: 휴양관광지, 소분류: 관광단지입니다. 해당 관광지는 기준월(7.0) 동안 총 1786.0명의 방문자를 기록했습니다. 10월 한 달 동안 87.0명이 방문했습니다. 요일별 방문자수는 월요일 18.0명, 화요일 14.0명, 수요일 11.0명, 목요일 8.0명, 금요일 15.0명, 토요일 11.0명, 일요일 10.0명입니다.",33.3902248567191,126.239691183153
함덕잠수함,제주특별자치도 제주시 조천읍 조함해안로 378 ,제주시,관광지,인문(문화/예술/역사),휴양관광지,유람선/잠수함관광,1403.0,7.0,159.0,18.0,27.0,24.0,21.0,24.0,20.0,25.0,"'함덕잠수함'은/는 제주특별자치도 제주시 조천읍 조함해안로 378 에 위치한 관광지로, 관광지에 속하며, 대분류: 인문(문화/예술/역사), 중분류: 휴양관광지, 소분류: 유람선/잠수함관광입니다. 해당 관광지는 기준월(7.0) 동안 총 1403.0명의 방문자를 기록했습니다. 10월 한 달 동안 159.0명이 방문했습니다. 요일별 방문자수는 월요일 18.0명, 화요일 27.0명, 수요일 24.0명, 목요일 21.0명, 금요일 24.0명, 토요일 20.0명, 일요일 25.0명입니다.",33.4490025432113,126.637358132958
해품은체험농장,제주특별자치도 서귀포시 성산읍 서성일로 1078-14 ,서귀포시,관광지,인문(문화/예술/역사),산업관광지,기타,609.0,7.0,26.0,4.0,3.0,4.0,5.0,2.0,3.0,5.0,"'해품은체험농장'은/는 제주특별자치도 서귀포시 성산읍 서성일로 1078-14 에 위치한 관광지로, 관광지에 속하며, 대분류: 인문(문화/예술/역사), 중분류: 산업관광지, 소분류: 기타입니다. 해당 관광지는 기준월(7.0) 동안 총 609.0명의 방문자를 기록했습니다. 10월 한 달 동안 26.0명이 방문했습니다. 요일별 방문자수는 월요일 4.0명, 화요일 3.0명, 수요일 4.0명, 목요일 5.0명, 금요일 2.0명, 토요일 3.0명, 일요일 5.0명입니다.",33.443438,126.8926365
화조원,제주특별자치도 제주시 애월읍 애원로 804 ,제주시,관광지,인문(문화/예술/역사),휴양관광지,테마공원,1388.0,7.0,108.0,19.0,9.0,17.0,19.0,18.0,13.0,13.0,"'화조원'은/는 제주특별자치도 제주시 애월읍 애원로 804 에 위치한 관광지로, 관광지에 속하며, 대분류: 인문(문화/예술/역사), 중분류: 휴양관광지, 소분류: 테마공원입니다. 해당 관광지는 기준월(7.0) 동안 총 1388.0명의 방문자를 기록했습니다. 10월 한 달 동안 108.0명이 방문했습니다. 요일별 방문자수는 월요일 19.0명, 화요일 9.0명, 수요일 17.0명, 목요일 19.0명, 금요일 18.0명, 토요일 13.0명, 일요일 13.0명입니다.",33.411109,126.3714311
효명사,제주특별자치도 서귀포시 516로 815-41 효명사 ,서귀포시,관광지,인문(문화/예술/역사),역사관광지,사찰,673.0,7.0,55.0,10.0,11.0,10.0,8.0,6.0,2.0,8.0,"'효명사'은/는 제주특별자치도 서귀포시 516로 815-41 효명사 에 위치한 관광지로, 관광지에 속하며, 대분류: 인문(문화/예술/역사), 중분류: 역사관광지, 소분류: 사찰입니다. 해당 관광지는 기준월(7.0) 동안 총 673.0명의 방문자를 기록했습니다. 10월 한 달 동안 55.0명이 방문했습니다. 요일별 방문자수는 월요일 10.0명, 화요일 11.0명, 수요일 10.0명, 목요일 8.0명, 금요일 6.0명, 토요일 2.0명, 일요일 8.0명입니다.",33.3227935,126.5956233
휴림,제주특별자치도 제주시 애월읍 광령남서길 40 ,제주시,관광지,인문(문화/예술/역사),휴양관광지,테마공원,1637.0,7.0,125.0,25.0,16.0,13.0,17.0,11.0,13.0,30.0,"'휴림'은/는 제주특별자치도 제주시 애월읍 광령남서길 40 에 위치한 관광지로, 관광지에 속하며, 대분류: 인문(문화/예술/역사), 중분류: 휴양관광지, 소분류: 테마공원입니다. 해당 관광지는 기준월(7.0) 동안 총 1637.0명의 방문자를 기록했습니다. 10월 한 달 동안 125.0명이 방문했습니다. 요일별 방문자수는 월요일 25.0명, 화요일 16.0명, 수요일 13.0명, 목요일 17.0명, 금요일 11.0명, 토요일 13.0명, 일요일 30.0명입니다.",33.443332,126.4292669
휴애리자연생활공원,제주특별자치도 서귀포시 남원읍 신례동로 256 ,서귀포시,관광지,인문(문화/예술/역사),휴양관광지,공원,13757.0,7.0,518.0,100.0,78.0,59.0,70.0,84.0,61.0,66.0,"'휴애리자연생활공원'은/는 제주특별자치도 서귀포시 남원읍 신례동로 256 에 위치한 관광지로, 관광지에 속하며, 대분류: 인문(문화/예술/역사), 중분류: 휴양관광지, 소분류: 공원입니다. 해당 관광지는 기준월(7.0) 동안 총 13757.0명의 방문자를 기록했습니다. 10월 한 달 동안 518.0명이 방문했습니다. 요일별 방문자수는 월요일 100.0명, 화요일 78.0명, 수요일 59.0명, 목요일 70.0명, 금요일 84.0명, 토요일 61.0명, 일요일 66.0명입니다.",33.3085347525753,126.634380832055
흑돼지거리,제주특별자치도 제주시 일도일동 ,제주시,관광지,인문(문화/예술/역사),체험관광지,이색거리,924.0,7.0,51.0,7.0,8.0,8.0,10.0,8.0,5.0,5.0,"'흑돼지거리'은/는 제주특별자치도 제주시 일도일동 에 위치한 관광지로, 관광지에 속하며, 대분류: 인문(문화/예술/역사), 중분류: 체험관광지, 소분류: 이색거리입니다. 해당 관광지는 기준월(7.0) 동안 총 924.0명의 방문자를 기록했습니다. 10월 한 달 동안 51.0명이 방문했습니다. 요일별 방문자수는 월요일 7.0명, 화요일 8.0명, 수요일 8.0명, 목요일 10.0명, 금요일 8.0명, 토요일 5.0명, 일요일 5.0명입니다.",33.5153591,126.5420032
5.16도로숲터널,제주특별자치도 서귀포시 남원읍 신례천로 267-110 ,서귀포시,관광지,인문(문화/예술/역사),건축/조형물,터널,1772.0,7.0,148.0,30.0,20.0,28.0,14.0,15.0,23.0,18.0,"'5.16도로숲터널'은/는 제주특별자치도 서귀포시 남원읍 신례천로 267-110 에 위치한 관광지로, 관광지에 속하며, 대분류: 인문(문화/예술/역사), 중분류: 건축/조형물, 소분류: 터널입니다. 해당 관광지는 기준월(7.0) 동안 총 1772.0명의 방문자를 기록했습니다. 10월 한 달 동안 148.0명이 방문했습니다. 요일별 방문자수는 월요일 30.0명, 화요일 20.0명, 수요일 28.0명, 목요일 14.0명, 금요일 15.0명, 토요일 23.0명, 일요일 18.0명입니다.",33.3330338,126.6180657
